$GPRMC,140805.000,A,5130.1246,N,00000.3495,E,0.07,201.23,180516,,,A*65,51.5020751953,0.0058249998,14:8:4,18/5/2016,12,0,3.50,18,15.92,538.72,0,0
$GPRMC,140806.000,A,5130.1247,N,00000.3494,E,0.13,30.71,180516,,,A*54,51.5020751953,0.0058232998,14:8:6,18/5/2016,12,0,2.39,17,15.92,506.23,0,0
$GPRMC,140807.000,A,5130.1248,N,00000.3497,E,0.20,25.97,180516,,,A*55,51.5020828247,0.0058282999,14:8:7,18/5/2016,12,0,12.30,143,15.92,505.88,0,0
$GPRMC,140807.216,A,5130.1248,N,00000.3499,E,0.12,20.42,180516,,,A*52,51.5020828247,0.0058315997,14:8:7,18/5/2016,12,19,22.24,38,16.41,505.99,0,0
$GPRMC,140809.000,A,5130.1249,N,00000.3499,E,0.14,277.57,180516,,,A*6A,51.5020828247,0.0058315997,14:8:8,18/5/2016,12,0,6.34,75,15.92,534.70,0,0
$GPRMC,140810.000,A,5130.1243,N,00000.3497,E,0.59,234.42,180516,,,A*6C,51.5020751953,0.0058282999,14:8:10,18/5/2016,12,15,4.50,24,15.92,603.19,0,0
$GPRMC,140811.000,A,5130.1240,N,00000.3496,E,0.68,229.64,180516,,,A*65,51.5020675659,0.0058266000,14:8:11,18/5/2016,12,22,6.33,67,16.41,604.72,0,0
$GPRMC,140812.000,A,5130.1236,N,00000.3500,E,0.39,221.70,180516,,,A*60,51.5020599365,0.0058333005,14:8:12,18/5/2016,12,0,13.09,67,15.92,625.99,0,0
$GPRMC,140813.000,A,5130.1240,N,00000.3503,E,0.28,233.85,180516,,,A*6A,51.5020675659,0.0058382997,14:8:12,18/5/2016,12,18,14.04,51,16.41,635.72,0,0
$GPRMC,140813.209,A,5130.1236,N,00000.3508,E,0.25,244.79,180516,,,A*65,51.5020599365,0.0058466005,14:8:13,18/5/2016,12,15,8.29,17,15.92,694.35,0,0
$GPRMC,140815.000,A,5130.1230,N,00000.3515,E,0.20,213.58,180516,,,A*66,51.5020523071,0.0058583002,14:8:15,18/5/2016,12,5,6.76,61,15.92,640.40,0,0
$GPRMC,140816.000,A,5130.1228,N,00000.3512,E,0.52,239.09,180516,,,A*62,51.5020408630,0.0058533005,14:8:16,18/5/2016,14,0,4.99,24,15.92,630.60,0,0
$GPRMC,140817.000,A,5130.1227,N,00000.3512,E,0.46,233.28,180516,,,A*60,51.5020408630,0.0058533005,14:8:16,18/5/2016,14,0,3.89,19,16.41,630.94,0,0
$GPRMC,140818.000,A,5130.1225,N,00000.3516,E,0.25,178.12,180516,,,A*69,51.5020408630,0.0058600001,14:8:18,18/5/2016,14,13,2.02,17,15.92,631.39,0,0
$GPRMC,140819.000,A,5130.1222,N,00000.3518,E,0.20,174.02,180516,,,A*69,51.5020332336,0.0058632998,14:8:19,18/5/2016,12,0,4.53,26,15.43,619.41,0,0
$GPRMC,140819.213,A,5130.1220,N,00000.3519,E,0.18,176.74,180516,,,A*62,51.5020332336,0.0058650007,14:8:19,18/5/2016,12,2,0.98,5,15.92,601.65,0,0
$GPRMC,140821.000,A,5130.1195,N,00000.3536,E,0.96,162.07,180516,,,A*6E,51.5019950866,0.0058932995,14:8:20,18/5/2016,11,0,9.25,78,15.92,609.77,0,0
$GPRMC,140822.000,A,5130.1182,N,00000.3536,E,1.39,191.86,180516,,,A*6A,51.5019683837,0.0058932995,14:8:22,18/5/2016,12,5,2.74,21,15.92,637.22,0,0
$GPRMC,140823.000,A,5130.1171,N,00000.3559,E,2.14,168.31,180516,,,A*68,51.5019531250,0.0059316005,14:8:23,18/5/2016,14,0,4.40,35,15.92,649.47,0,0
$GPRMC,140824.000,A,5130.1163,N,00000.3570,E,1.94,175.25,180516,,,A*65,51.5019378662,0.0059500002,14:8:24,18/5/2016,14,11,8.43,34,15.92,657.08,0,0
$GPRMC,140825.212,A,5130.1149,N,00000.3612,E,2.49,140.58,180516,,,A*65,51.5019187927,0.0060000000,14:8:24,18/5/2016,13,1,9.05,40,15.92,660.45,0,0
$GPRMC,140825.212,A,5130.1149,N,00000.3612,E,2.49,140.58,180516,,,A*65,51.5019111633,0.0060199999,14:8:25,18/5/2016,13,0,0.00,0,15.92,855.00,0,0
$GPRMC,140827.000,A,5130.1137,N,00000.3633,E,2.19,140.70,180516,,,A*63,51.5018959045,0.0060550003,14:8:27,18/5/2016,13,9,1.88,27,15.92,625.40,0,0
$GPRMC,140828.000,V,,,,,2.48,135.25,180516,,,E*44,51.5018882751,0.0060733003,14:8:28,18/5/2016,13,5,3.21,25,15.92,638.98,0,0
$GPGGA,140829.000,,,,,0,02,,,M,,M,,*7C,51.5018882751,0.0060733003,14:8:28,18/5/2016,13,1,2.26,25,15.92,646.21,0,0
$GPRMC,140829.000,V,,,,,1.76,154.16,180516,,,N*47,51.5018882751,0.0060733003,14:8:28,18/5/2016,13,2,2.00,2,15.92,809.00,0,0
$GPGGA,140830.000,,,,,0,02,,,M,,M,,*74,51.5018882751,0.0060733003,14:8:30,18/5/2016,13,1,4.72,35,15.43,648.98,0,0
$GPRMC,140830.000,V,,,,,1.87,149.84,180516,,,N*46,51.5018882751,0.0060733003,14:8:30,18/5/2016,13,1,1.00,1,15.43,827.00,0,0
$GPRMC,140831.220,V,,,,,1.96,146.75,180516,,,N*46,51.5018653869,0.0061033000,14:8:31,18/5/2016,14,7,1.77,19,15.43,652.36,0,0
$GPRMC,140833.000,A,5130.1115,N,00000.3673,E,1.67,155.47,180516,,,A*68,51.5018539428,0.0061216001,14:8:32,18/5/2016,13,4,2.63,27,15.43,653.42,0,0
$GPRMC,140834.000,A,5130.1119,N,00000.3672,E,0.88,151.81,180516,,,A*6C,51.5018653869,0.0061200003,14:8:34,18/5/2016,14,0,4.57,26,15.43,658.31,0,0
$GPRMC,140835.000,A,5130.1125,N,00000.3678,E,1.07,133.78,180516,,,A*6C,51.5018730163,0.0061300001,14:8:35,18/5/2016,14,0,1.05,12,15.43,663.11,0,0
$GPRMC,140836.000,A,5130.1129,N,00000.3689,E,1.19,127.53,180516,,,A*6E,51.5018806457,0.0061483001,14:8:36,18/5/2016,13,0,1.24,13,15.43,658.12,0,0
$GPRMC,140837.219,A,5130.1141,N,00000.3702,E,1.46,126.90,180516,,,A*6D,51.5018882751,0.0061616001,14:8:36,18/5/2016,14,2,0.56,8,15.43,654.28,0,0
$GPRMC,140837.219,A,5130.1141,N,00000.3702,E,1.46,126.90,180516,,,A*6D,51.5019035339,0.0061700000,14:8:37,18/5/2016,14,1,1.00,1,15.43,798.00,0,0
$GPRMC,140839.000,A,5130.1143,N,00000.3715,E,1.68,131.56,180516,,,A*6D,51.5019035339,0.0061916007,14:8:39,18/5/2016,14,0,0.61,13,15.43,675.22,0,0
$GPRMC,140840.000,A,5130.1146,N,00000.3726,E,1.58,137.80,180516,,,A*68,51.5019111633,0.0062100000,14:8:40,18/5/2016,14,3,1.63,15,15.43,691.10,0,0
$GPRMC,140841.000,A,5130.1148,N,00000.3734,E,1.74,153.27,180516,,,A*65,51.5019111633,0.0062232999,14:8:40,18/5/2016,13,2,4.47,32,15.43,691.50,0,0
$GPRMC,140842.000,A,5130.1147,N,00000.3740,E,2.59,155.49,180516,,,A*68,51.5019111633,0.0062333002,14:8:42,18/5/2016,14,7,6.21,26,15.43,688.18,0,0
$GPRMC,140843.209,A,5130.1148,N,00000.3739,E,1.86,197.29,180516,,,A*6A,51.5019035339,0.0062383003,14:8:43,18/5/2016,13,0,2.10,15,15.43,687.25,0,0
$GPRMC,140843.209,A,5130.1148,N,00000.3739,E,1.86,197.29,180516,,,A*6A,51.5019111633,0.0062315998,14:8:43,18/5/2016,13,0,0.00,0,15.43,815.00,0,0
$GPRMC,140845.000,A,5130.1145,N,00000.3736,E,1.69,178.29,180516,,,A*65,51.5019035339,0.0062265996,14:8:44,18/5/2016,13,7,3.31,22,15.43,688.60,0,0
$GPRMC,140846.000,A,5130.1144,N,00000.3743,E,1.85,168.50,180516,,,A*68,51.5019035339,0.0062383003,14:8:46,18/5/2016,13,0,1.74,13,15.43,700.41,0,0
$GPRMC,140847.000,A,5130.1144,N,00000.3748,E,2.37,148.44,180516,,,A*6F,51.5019035339,0.0062466001,14:8:47,18/5/2016,13,4,0.80,8,15.43,702.09,0,0
$GPRMC,140848.000,A,5130.1143,N,00000.3758,E,2.54,145.94,180516,,,A*63,51.5019035339,0.0062632999,14:8:48,18/5/2016,12,0,4.78,31,15.43,701.86,0,0
$GPRMC,140849.209,A,5130.1144,N,00000.3778,E,2.08,161.98,180516,,,A*6F,51.5019035339,0.0062849998,14:8:48,18/5/2016,12,0,0.91,11,15.43,700.19,0,0
$GPRMC,140849.209,A,5130.1144,N,00000.3778,E,2.08,161.98,180516,,,A*6F,51.5019035339,0.0062966003,14:8:49,18/5/2016,12,0,0.00,0,15.43,828.00,0,0
$GPRMC,140851.000,A,5130.1137,N,00000.3796,E,2.29,155.61,180516,,,A*6B,51.5018959045,0.0063266000,14:8:51,18/5/2016,12,0,1.38,18,15.43,700.36,0,0
$GPRMC,140852.000,A,5130.1138,N,00000.3810,E,2.54,152.67,180516,,,A*6D,51.5018959045,0.0063499999,14:8:52,18/5/2016,11,0,0.69,14,15.43,699.70,0,0
$GPRMC,140853.000,A,5130.1138,N,00000.3814,E,2.57,164.40,180516,,,A*6B,51.5018959045,0.0063565998,14:8:52,18/5/2016,11,2,1.01,12,15.43,700.33,0,0
$GPRMC,140854.000,A,5130.1136,N,00000.3820,E,2.92,163.63,180516,,,A*6A,51.5018959045,0.0063666000,14:8:54,18/5/2016,11,2,1.73,22,15.43,698.37,0,0
$GPRMC,140855.215,A,5130.1143,N,00000.3829,E,2.83,156.51,180516,,,A*61,51.5018959045,0.0063800001,14:8:55,18/5/2016,11,0,0.89,13,15.43,693.32,0,0
$GPRMC,140855.215,A,5130.1143,N,00000.3829,E,2.83,156.51,180516,,,A*61,51.5019035339,0.0063816003,14:8:55,18/5/2016,11,0,0.00,0,15.43,832.00,0,0
$GPRMC,140857.000,A,5130.1136,N,00000.3839,E,2.71,167.04,180516,,,A*69,51.5018959045,0.0063983001,14:8:56,18/5/2016,11,18,7.37,52,15.43,694.23,0,0
$GPRMC,140858.000,A,5130.1134,N,00000.3844,E,2.90,175.26,180516,,,A*62,51.5018882751,0.0064065999,14:8:58,18/5/2016,11,2,3.92,27,14.94,697.47,0,0
$GPRMC,140859.000,A,5130.1131,N,00000.3847,E,2.59,198.76,180516,,,A*66,51.5018882751,0.0064116001,14:8:59,18/5/2016,11,2,1.47,13,14.94,699.80,0,0
$GPRMC,140900.000,A,5130.1129,N,00000.3841,E,2.29,210.64,180516,,,A*63,51.5018806457,0.0064015998,14:9:0,18/5/2016,11,0,0.88,9,14.94,700.03,0,0
$GPRMC,140901.214,A,5130.1134,N,00000.3830,E,1.59,208.83,180516,,,A*6B,51.5018806457,0.0063849997,14:9:0,18/5/2016,10,4,0.57,15,14.94,700.92,0,0
$GPRMC,140901.214,A,5130.1134,N,00000.3830,E,1.59,208.83,180516,,,A*6B,51.5018882751,0.0063833003,14:9:1,18/5/2016,10,4,4.00,4,14.94,824.00,0,0
$GPRMC,140903.000,A,5130.1133,N,00000.3826,E,1.21,185.50,180516,,,A*69,51.5018882751,0.0063766002,14:9:3,18/5/2016,11,34,15.56,65,14.94,701.72,0,0
$GPRMC,140904.000,A,5130.1134,N,00000.3835,E,0.99,178.03,180516,,,A*6D,51.5018882751,0.0063916006,14:9:4,18/5/2016,12,7,5.69,36,14.94,704.60,0,0
$GPRMC,140905.000,A,5130.1137,N,00000.3837,E,0.88,168.89,180516,,,A*6E,51.5018959045,0.0063950004,14:9:4,18/5/2016,12,0,7.41,45,14.94,705.62,0,0
$GPRMC,140906.000,A,5130.1141,N,00000.3839,E,0.47,179.60,180516,,,A*66,51.5019035339,0.0063983001,14:9:6,18/5/2016,11,18,10.10,86,14.94,705.96,0,0
$GPRMC,140907.201,A,5130.1148,N,00000.3850,E,0.35,198.65,180516,,,A*6D,51.5019035339,0.0064116001,14:9:7,18/5/2016,11,14,12.66,64,14.94,706.04,0,0
$GPRMC,140907.201,A,5130.1148,N,00000.3850,E,0.35,198.65,180516,,,A*6D,51.5019111633,0.0064166011,14:9:7,18/5/2016,11,12,12.00,12,14.94,829.00,0,0
$GPRMC,140909.000,A,5130.1150,N,00000.3854,E,0.31,184.48,180516,,,A*6B,51.5019187927,0.0064233007,14:9:8,18/5/2016,11,7,7.71,58,14.94,704.49,0,0
$GPRMC,140910.000,A,5130.1153,N,00000.3858,E,0.31,207.97,180516,,,A*66,51.5019187927,0.0064300003,14:9:10,18/5/2016,11,0,9.46,56,14.94,702.90,0,0
$GPRMC,140911.000,A,5130.1153,N,00000.3864,E,0.50,157.99,180516,,,A*67,51.5019187927,0.0064400005,14:9:11,18/5/2016,11,0,3.17,40,14.94,699.01,0,0
$GPRMC,140912.000,A,5130.1154,N,00000.3868,E,0.59,149.55,180516,,,A*69,51.5019187927,0.0064466004,14:9:12,18/5/2016,11,10,17.61,85,14.94,700.15,0,0
$GPRMC,140913.210,A,5130.1153,N,00000.3875,E,1.13,146.99,180516,,,A*60,51.5019187927,0.0064549994,14:9:12,18/5/2016,11,4,8.50,73,14.94,699.29,0,0
$GPRMC,140913.210,A,5130.1153,N,00000.3875,E,1.13,146.99,180516,,,A*60,51.5019187927,0.0064583005,14:9:13,18/5/2016,10,3,3.00,3,15.43,829.00,0,0
$GPRMC,140915.000,A,5130.1148,N,00000.3878,E,1.17,160.55,180516,,,A*62,51.5019111633,0.0064632997,14:9:15,18/5/2016,10,0,5.54,53,14.94,694.91,0,0
$GPRMC,140916.000,A,5130.1149,N,00000.3884,E,1.13,151.39,180516,,,A*6F,51.5019111633,0.0064733004,14:9:16,18/5/2016,10,0,1.00,11,14.94,692.29,0,0
$GPRMC,140917.000,A,5130.1149,N,00000.3895,E,1.32,137.66,180516,,,A*67,51.5019111633,0.0064916009,14:9:16,18/5/2016,10,0,0.57,10,15.43,691.15,0,0
$GPRMC,140918.000,A,5130.1150,N,00000.3902,E,1.27,136.57,180516,,,A*68,51.5019187927,0.0065033006,14:9:18,18/5/2016,9,0,1.01,9,15.43,696.07,0,0
$GPRMC,140919.209,A,5130.1156,N,00000.3916,E,1.30,127.67,180516,,,A*64,51.5019187927,0.0065182995,14:9:19,18/5/2016,9,0,0.49,9,15.43,697.51,0,0
$GPRMC,140919.209,A,5130.1156,N,00000.3916,E,1.30,127.67,180516,,,A*64,51.5019302368,0.0065265998,14:9:19,18/5/2016,9,0,0.00,0,15.43,825.00,0,0
$GPRMC,140921.000,A,5130.1156,N,00000.3926,E,1.27,125.72,180516,,,A*67,51.5019302368,0.0065433001,14:9:20,18/5/2016,9,0,0.50,9,15.43,698.27,0,0
$GPRMC,140922.000,A,5130.1157,N,00000.3934,E,1.35,121.68,180516,,,A*6A,51.5019302368,0.0065566005,14:9:22,18/5/2016,9,0,0.17,4,15.43,700.87,0,0
$GPRMC,140923.000,A,5130.1162,N,00000.3939,E,1.16,121.97,180516,,,A*61,51.5019378662,0.0065649995,14:9:23,18/5/2016,9,0,0.62,10,15.43,702.30,0,0
$GPRMC,140924.000,A,5130.1164,N,00000.3945,E,1.11,120.67,180516,,,A*62,51.5019378662,0.0065750002,14:9:24,18/5/2016,9,0,0.28,6,15.43,704.88,0,0
$GPRMC,140925.216,A,5130.1170,N,00000.3946,E,0.65,140.94,180516,,,A*68,51.5019454956,0.0065766000,14:9:24,18/5/2016,9,0,0.28,6,15.43,708.04,0,0
$GPRMC,140925.216,A,5130.1170,N,00000.3946,E,0.65,140.94,180516,,,A*68,51.5019531250,0.0065766000,14:9:25,18/5/2016,9,0,0.00,0,15.43,832.00,0,0
$GPRMC,140927.000,A,5130.1173,N,00000.3956,E,0.92,118.24,180516,,,A*63,51.5019531250,0.0065932998,14:9:27,18/5/2016,9,0,0.30,8,15.43,709.21,0,0
$GPRMC,140928.000,A,5130.1180,N,00000.3966,E,1.12,104.88,180516,,,A*61,51.5019683837,0.0066100001,14:9:28,18/5/2016,9,0,0.15,6,15.43,710.31,0,0
$GPRMC,140929.000,A,5130.1180,N,00000.3971,E,1.09,105.78,180516,,,A*62,51.5019683837,0.0066182999,14:9:28,18/5/2016,9,0,1.31,11,15.43,710.38,0,0
$GPRMC,140930.000,A,5130.1180,N,00000.3975,E,1.02,108.46,180516,,,A*65,51.5019683837,0.0066249995,14:9:30,18/5/2016,9,0,0.31,7,15.43,710.34,0,0
$GPRMC,140931.215,A,5130.1180,N,00000.3976,E,0.72,119.03,180516,,,A*66,51.5019683837,0.0066266002,14:9:31,18/5/2016,9,4,1.08,10,15.43,709.09,0,0
$GPRMC,140931.215,A,5130.1180,N,00000.3976,E,0.72,119.03,180516,,,A*66,51.5019683837,0.0066266002,14:9:31,18/5/2016,9,3,3.00,3,15.43,828.00,0,0
$GPRMC,140933.000,A,5130.1162,N,00000.3977,E,0.89,139.62,180516,,,A*6E,51.5019378662,0.0066282997,14:9:32,18/5/2016,9,0,0.41,12,15.43,711.54,0,0
$GPRMC,140934.000,A,5130.1121,N,00000.3968,E,1.45,156.88,180516,,,A*6C,51.5018730163,0.0066132998,14:9:34,18/5/2016,9,0,2.82,20,15.43,708.46,0,0
$GPRMC,140935.000,A,5130.1088,N,00000.3966,E,1.91,154.39,180516,,,A*60,51.5018157958,0.0066100001,14:9:35,18/5/2016,9,0,1.94,18,15.43,706.15,0,0
$GPRMC,140936.000,A,5130.1030,N,00000.3954,E,2.24,146.15,180516,,,A*61,51.5017166137,0.0065900001,14:9:36,18/5/2016,9,1,3.20,22,15.43,704.09,0,0
$GPRMC,140937.208,A,5130.1003,N,00000.3954,E,2.22,154.76,180516,,,A*6A,51.5016860961,0.0065900001,14:9:36,18/5/2016,8,3,1.06,17,15.43,707.54,0,0
$GPRMC,140937.208,A,5130.1003,N,00000.3954,E,2.22,154.76,180516,,,A*6A,51.5016670227,0.0065900001,14:9:37,18/5/2016,8,3,3.00,3,15.43,831.00,0,0
$GPRMC,140939.000,A,5130.0989,N,00000.3961,E,2.06,156.42,180516,,,A*61,51.5016517639,0.0066016006,14:9:39,18/5/2016,9,0,1.33,12,15.43,710.26,0,0
$GPRMC,140940.000,A,5130.0977,N,00000.3967,E,2.22,152.56,180516,,,A*6F,51.5016288757,0.0066115999,14:9:40,18/5/2016,9,6,2.50,24,15.43,711.51,0,0
$GPRMC,140941.000,A,5130.0968,N,00000.3971,E,2.24,152.50,180516,,,A*67,51.5016098022,0.0066182999,14:9:40,18/5/2016,9,8,6.79,38,15.43,710.94,0,0
$GPRMC,140942.000,A,5130.0955,N,00000.3976,E,2.35,151.04,180516,,,A*6F,51.5015945434,0.0066266002,14:9:42,18/5/2016,9,2,3.95,25,15.43,708.42,0,0
$GPRMC,140943.208,A,5130.0939,N,00000.3981,E,2.24,148.30,180516,,,A*69,51.5015792846,0.0066350007,14:9:43,18/5/2016,8,8,3.75,18,15.43,708.16,0,0
$GPRMC,140943.208,A,5130.0939,N,00000.3981,E,2.24,148.30,180516,,,A*69,51.5015640258,0.0066350007,14:9:43,18/5/2016,8,7,7.00,7,15.43,837.00,0,0
$GPRMC,140945.000,A,5130.0922,N,00000.3990,E,2.20,152.74,180516,,,A*60,51.5015373229,0.0066500000,14:9:44,18/5/2016,8,1,3.35,25,15.43,713.70,0,0
$GPRMC,140946.000,A,5130.0912,N,00000.3997,E,2.28,150.35,180516,,,A*68,51.5015220642,0.0066616005,14:9:46,18/5/2016,8,5,9.42,45,15.43,712.91,0,0
$GPRMC,140947.000,A,5130.0903,N,00000.4001,E,2.13,143.47,180516,,,A*67,51.5015068054,0.0066683001,14:9:47,18/5/2016,8,4,9.17,43,15.43,713.78,0,0
$GPRMC,140948.000,A,5130.0893,N,00000.4005,E,2.10,145.52,180516,,,A*65,51.5014877319,0.0066749997,14:9:48,18/5/2016,8,10,9.67,42,15.43,712.65,0,0
$GPRMC,140949.210,A,5130.0877,N,00000.4012,E,2.30,146.05,180516,,,A*68,51.5014648437,0.0066865992,14:9:49,18/5/2016,8,2,7.36,39,15.43,712.62,0,0
$GPRMC,140951.000,A,5130.0866,N,00000.4021,E,2.28,143.72,180516,,,A*6E,51.5014419555,0.0067016005,14:9:51,18/5/2016,9,2,8.09,34,15.92,715.85,0,0
$GPRMC,140952.000,A,5130.0860,N,00000.4027,E,2.25,145.30,180516,,,A*60,51.5014305114,0.0067116012,14:9:52,18/5/2016,8,0,14.70,46,15.43,718.79,0,0
$GPRMC,140953.000,A,5130.0853,N,00000.4031,E,2.25,141.04,180516,,,A*65,51.5014228820,0.0067183008,14:9:52,18/5/2016,8,7,11.49,33,15.43,716.57,0,0
$GPRMC,140954.000,A,5130.0844,N,00000.4037,E,2.41,146.98,180516,,,A*62,51.5014076232,0.0067283005,14:9:54,18/5/2016,8,9,7.03,29,15.92,711.61,0,0
$GPRMC,140955.000,A,5130.0843,N,00000.4039,E,2.11,144.49,180516,,,A*61,51.5014076232,0.0067316002,14:9:55,18/5/2016,8,7,5.05,36,15.92,702.48,0,0
$GPRMC,140956.000,A,5130.0839,N,00000.4044,E,2.08,141.71,180516,,,A*63,51.5013999938,0.0067400007,14:9:56,18/5/2016,8,2,5.58,33,15.92,710.56,0,0
$GPRMC,140957.000,A,5130.0837,N,00000.4048,E,1.95,138.78,180516,,,A*60,51.5013923645,0.0067465996,14:9:56,18/5/2016,9,8,6.81,27,15.92,714.67,0,0
$GPRMC,140958.000,A,5130.0832,N,00000.4052,E,1.93,141.91,180516,,,A*6E,51.5013847351,0.0067533006,14:9:58,18/5/2016,9,14,10.30,31,15.92,717.62,0,0
$GPRMC,140959.000,A,5130.0829,N,00000.4056,E,1.90,140.88,180516,,,A*6B,51.5013847351,0.0067600007,14:9:59,18/5/2016,9,4,4.22,21,15.92,713.06,0,0
$GPRMC,141000.000,A,5130.0823,N,00000.4061,E,1.91,140.34,180516,,,A*67,51.5013771057,0.0067683005,14:10:0,18/5/2016,9,12,4.14,27,15.92,704.68,0,0
$GPRMC,141001.000,A,5130.0818,N,00000.4066,E,1.90,139.98,180516,,,A*60,51.5013656616,0.0067766003,14:10:0,18/5/2016,9,0,3.16,18,15.92,715.01,0,0
$GPRMC,141002.000,A,5130.0829,N,00000.4067,E,2.00,141.98,180516,,,A*65,51.5013847351,0.0067783002,14:10:2,18/5/2016,9,14,7.74,44,15.92,716.52,0,0
$GPRMC,141003.000,A,5130.0847,N,00000.4065,E,1.82,142.88,180516,,,A*65,51.5014076232,0.0067750000,14:10:3,18/5/2016,9,0,3.20,24,15.92,714.53,0,0
$GPRMC,141004.000,A,5130.0847,N,00000.4069,E,1.78,143.30,180516,,,A*69,51.5014076232,0.0067816009,14:10:4,18/5/2016,9,4,8.18,30,15.92,674.91,0,0
$GPRMC,141005.000,A,5130.0866,N,00000.4066,E,1.51,144.88,180516,,,A*6B,51.5014419555,0.0067766003,14:10:4,18/5/2016,9,0,1.71,15,15.92,653.50,0,0
$GPRMC,141006.000,A,5130.0877,N,00000.4064,E,1.33,146.59,180516,,,A*60,51.5014648437,0.0067733001,14:10:6,18/5/2016,9,10,3.14,19,15.92,663.54,0,0
$GPRMC,141007.000,A,5130.0878,N,00000.4067,E,1.25,140.98,180516,,,A*61,51.5014648437,0.0067783002,14:10:7,18/5/2016,10,0,7.00,38,15.92,661.39,0,0
$GPRMC,141008.000,A,5130.0885,N,00000.4072,E,1.59,138.29,180516,,,A*66,51.5014724731,0.0067866001,14:10:8,18/5/2016,10,4,4.40,27,15.92,754.91,2,2
$GPRMC,141009.000,A,5130.0879,N,00000.4077,E,3.40,154.68,180516,,,A*64,51.5014648437,0.0067950000,14:10:8,18/5/2016,9,6,9.62,32,15.92,773.90,0,2
$GPRMC,141010.000,A,5130.0871,N,00000.4083,E,1.56,138.47,180516,,,A*6D,51.5014495849,0.0068050003,14:10:10,18/5/2016,9,5,6.16,33,15.92,766.33,0,2
$GPRMC,141011.000,A,5130.0867,N,00000.4087,E,1.61,145.29,180516,,,A*69,51.5014495849,0.0068116006,14:10:11,18/5/2016,10,3,10.88,50,15.92,743.18,0,2
$GPRMC,141012.000,A,5130.0860,N,00000.4091,E,2.65,169.10,180516,,,A*69,51.5014305114,0.0068183002,14:10:12,18/5/2016,10,11,3.09,23,15.92,752.42,1,3
$GPRMC,141013.000,A,5130.0846,N,00000.4094,E,5.94,179.17,180516,,,A*66,51.5014076232,0.0068233008,14:10:12,18/5/2016,10,6,5.52,55,15.92,769.71,4,7
$GPRMC,141014.000,A,5130.0839,N,00000.4098,E,3.92,136.90,180516,,,A*61,51.5013999938,0.0068300004,14:10:14,18/5/2016,10,0,6.48,30,15.92,774.37,0,7
$GPRMC,141015.000,A,5130.0833,N,00000.4104,E,1.96,116.03,180516,,,A*60,51.5013923645,0.0068399996,14:10:15,18/5/2016,10,6,4.15,32,15.92,773.95,0,7
$GPRMC,141016.000,A,5130.0826,N,00000.4111,E,2.02,141.14,180516,,,A*69,51.5013771057,0.0068516006,14:10:16,18/5/2016,10,0,3.24,22,15.92,774.96,0,7
$GPRMC,141017.000,A,5130.0819,N,00000.4118,E,2.46,131.53,180516,,,A*69,51.5013656616,0.0068633008,14:10:16,18/5/2016,10,16,8.37,31,15.92,775.96,0,7
$GPRMC,141018.000,A,5130.0814,N,00000.4124,E,2.38,140.50,180516,,,A*68,51.5013580322,0.0068733005,14:10:18,18/5/2016,10,2,2.04,17,15.92,776.90,0,7
$GPRMC,141019.000,A,5130.0809,N,00000.4129,E,2.22,155.52,180516,,,A*65,51.5013504028,0.0068816003,14:10:19,18/5/2016,11,0,1.39,11,15.92,772.66,0,7
$GPRMC,141020.000,A,5130.0804,N,00000.4134,E,2.41,152.10,180516,,,A*6A,51.5013427734,0.0068900003,14:10:20,18/5/2016,11,11,5.60,24,15.92,765.44,0,7
$GPRMC,141021.000,A,5130.0800,N,00000.4137,E,2.17,150.06,180516,,,A*6A,51.5013351440,0.0068949995,14:10:20,18/5/2016,12,3,1.55,18,15.92,775.91,0,7
$GPRMC,141022.000,A,5130.0797,N,00000.4141,E,1.80,148.91,180516,,,A*63,51.5013275146,0.0069016003,14:10:22,18/5/2016,11,4,4.62,22,15.92,771.72,0,7
$GPRMC,141023.000,A,5130.0795,N,00000.4144,E,2.10,147.80,180516,,,A*60,51.5013275146,0.0069065999,14:10:23,18/5/2016,12,1,1.32,11,15.92,770.27,0,7
$GPRMC,141024.000,A,5130.0794,N,00000.4148,E,1.87,140.44,180516,,,A*68,51.5013275146,0.0069132995,14:10:24,18/5/2016,13,0,3.53,19,15.92,746.98,0,7
$GPRMC,141025.000,A,5130.0791,N,00000.4153,E,1.66,138.40,180516,,,A*62,51.5013198852,0.0069216003,14:10:24,18/5/2016,13,11,1.61,20,15.92,735.92,0,7
$GPRMC,141026.000,A,5130.0786,N,00000.4159,E,1.94,132.09,180516,,,A*67,51.5013084411,0.0069316005,14:10:26,18/5/2016,13,0,5.42,21,15.92,757.81,0,7
$GPRMC,141027.000,A,5130.0781,N,00000.4164,E,1.79,150.08,180516,,,A*69,51.5013008117,0.0069400005,14:10:27,18/5/2016,13,11,13.37,65,15.92,762.69,0,7
$GPRMC,141028.000,A,5130.0775,N,00000.4169,E,2.20,150.25,180516,,,A*60,51.5012931823,0.0069483003,14:10:28,18/5/2016,14,2,7.96,54,15.92,759.89,0,7
$GPRMC,141029.000,A,5130.0777,N,00000.4173,E,1.42,145.58,180516,,,A*61,51.5012931823,0.0069549999,14:10:28,18/5/2016,14,0,12.17,47,15.92,763.33,0,7
$GPRMC,141030.000,A,5130.0784,N,00000.4178,E,1.77,143.40,180516,,,A*67,51.5013084411,0.0069633002,14:10:30,18/5/2016,14,7,9.34,57,15.92,763.95,0,7
$GPRMC,141031.000,A,5130.0810,N,00000.4186,E,1.37,141.89,180516,,,A*66,51.5013504028,0.0069765996,14:10:31,18/5/2016,14,9,2.05,20,15.92,763.63,0,7
$GPRMC,141032.000,A,5130.0815,N,00000.4191,E,1.32,139.57,180516,,,A*6F,51.5013580322,0.0069850006,14:10:32,18/5/2016,15,2,6.49,35,15.92,765.02,0,7
$GPRMC,141033.000,A,5130.0829,N,00000.4197,E,1.61,141.62,180516,,,A*68,51.5013847351,0.0069950008,14:10:32,18/5/2016,15,0,8.53,33,15.92,765.66,0,7
$GPRMC,141034.000,A,5130.0827,N,00000.4198,E,2.31,159.12,180516,,,A*66,51.5013771057,0.0069966006,14:10:34,18/5/2016,15,4,4.47,25,15.92,766.61,0,7
$GPRMC,141035.000,A,5130.0824,N,00000.4198,E,2.15,169.57,180516,,,A*60,51.5013771057,0.0069966006,14:10:35,18/5/2016,15,0,3.10,27,15.92,767.15,0,7
$GPRMC,141036.000,A,5130.0823,N,00000.4203,E,2.23,153.45,180516,,,A*6A,51.5013771057,0.0070050001,14:10:36,18/5/2016,15,4,1.98,18,15.92,764.97,0,7
$GPRMC,141037.000,A,5130.0821,N,00000.4203,E,1.90,167.07,180516,,,A*63,51.5013656616,0.0070050001,14:10:36,18/5/2016,14,0,3.80,24,15.92,764.58,0,7
$GPRMC,141038.000,A,5130.0821,N,00000.4202,E,1.15,170.54,180516,,,A*60,51.5013656616,0.0070033006,14:10:38,18/5/2016,15,7,2.48,20,15.92,764.62,0,7
$GPRMC,141039.000,A,5130.0816,N,00000.4200,E,1.34,196.20,180516,,,A*6F,51.5013580322,0.0070000000,14:10:39,18/5/2016,15,4,3.12,33,15.92,764.42,0,7
$GPRMC,141040.000,A,5130.0808,N,00000.4204,E,1.45,196.90,180516,,,A*67,51.5013427734,0.0070065999,14:10:40,18/5/2016,15,31,8.39,40,15.92,763.86,0,7
$GPRMC,141041.000,A,5130.0803,N,00000.4214,E,0.54,90.70,180516,,,A*54,51.5013351440,0.0070233001,14:10:40,18/5/2016,15,2,6.31,30,15.92,763.71,0,7
$GPRMC,141042.000,A,5130.0796,N,00000.4225,E,0.90,355.69,180516,,,A*6C,51.5013275146,0.0070416002,14:10:42,18/5/2016,15,10,6.89,27,15.92,763.24,0,7
$GPRMC,141043.000,A,5130.0798,N,00000.4227,E,1.70,336.62,180516,,,A*60,51.5013275146,0.0070450000,14:10:43,18/5/2016,14,5,9.00,33,15.92,762.54,0,7
$GPRMC,141044.000,A,5130.0797,N,00000.4227,E,1.67,324.66,180516,,,A*69,51.5013275146,0.0070450000,14:10:44,18/5/2016,14,6,5.93,30,15.92,762.82,0,7
$GPRMC,141045.000,A,5130.0795,N,00000.4222,E,3.31,287.75,180516,,,A*64,51.5013275146,0.0070365996,14:10:44,18/5/2016,15,8,5.10,28,15.92,761.78,0,7
$GPRMC,141046.000,A,5130.0793,N,00000.4214,E,2.93,284.44,180516,,,A*6C,51.5013198852,0.0070233001,14:10:46,18/5/2016,15,7,11.87,88,15.43,762.03,0,7
$GPRMC,141047.000,A,5130.0792,N,00000.4211,E,2.12,279.53,180516,,,A*64,51.5013198852,0.0070183000,14:10:47,18/5/2016,14,18,7.72,34,15.43,761.28,0,7
$GPRMC,141048.000,A,5130.0782,N,00000.4217,E,1.62,251.31,180516,,,A*66,51.5013008117,0.0070282993,14:10:48,18/5/2016,15,9,12.63,46,15.43,764.02,0,7
$GPRMC,141049.000,A,5130.0762,N,00000.4231,E,1.74,213.40,180516,,,A*6A,51.5012702941,0.0070516004,14:10:48,18/5/2016,14,13,12.59,50,15.43,762.67,0,7
$GPRMC,141050.000,A,5130.0750,N,00000.4231,E,2.90,221.64,180516,,,A*6D,51.5012550354,0.0070516004,14:10:50,18/5/2016,15,17,21.36,67,15.43,765.85,0,7
$GPRMC,141051.000,A,5130.0745,N,00000.4229,E,2.06,216.89,180516,,,A*69,51.5012435913,0.0070483007,14:10:51,18/5/2016,15,2,8.01,31,15.43,767.31,0,7
$GPRMC,141052.000,A,5130.0742,N,00000.4233,E,3.22,232.23,180516,,,A*67,51.5012359619,0.0070550003,14:10:52,18/5/2016,15,17,9.82,86,15.43,766.69,0,7
$GPRMC,141053.000,A,5130.0754,N,00000.4229,E,1.73,230.87,180516,,,A*60,51.5012550354,0.0070483007,14:10:52,18/5/2016,15,3,13.48,57,15.43,768.19,0,7
$GPRMC,141054.000,A,5130.0758,N,00000.4251,E,1.10,187.47,180516,,,A*62,51.5012626647,0.0070850009,14:10:54,18/5/2016,14,6,9.65,41,15.43,768.33,0,7
$GPRMC,141055.000,A,5130.0752,N,00000.4262,E,2.10,211.77,180516,,,A*65,51.5012550354,0.0071033000,14:10:55,18/5/2016,15,0,8.53,42,15.43,776.77,0,7
$GPRMC,141056.000,A,5130.0749,N,00000.4268,E,2.86,225.62,180516,,,A*6A,51.5012435913,0.0071133003,14:10:56,18/5/2016,14,12,5.77,34,15.43,782.68,0,7
$GPRMC,141057.000,A,5130.0743,N,00000.4279,E,1.93,130.85,180516,,,A*68,51.5012359619,0.0071316003,14:10:56,18/5/2016,14,13,6.59,29,15.43,778.84,0,7
$GPRMC,141058.000,A,5130.0733,N,00000.4294,E,1.87,169.43,180516,,,A*60,51.5012207031,0.0071565999,14:10:58,18/5/2016,14,15,5.40,32,15.43,786.52,0,7
$GPRMC,141059.000,A,5130.0741,N,00000.4308,E,2.00,222.22,180516,,,A*67,51.5012359619,0.0071799998,14:10:59,18/5/2016,14,2,8.17,30,15.43,785.08,0,7
$GPRMC,141100.000,A,5130.0749,N,00000.4329,E,1.46,134.75,180516,,,A*66,51.5012435913,0.0072149996,14:11:0,18/5/2016,13,5,7.91,34,14.94,775.27,0,7
$GPRMC,141101.000,A,5130.0744,N,00000.4354,E,2.17,145.61,180516,,,A*64,51.5012359619,0.0072566003,14:11:0,18/5/2016,14,5,3.52,20,14.94,750.33,0,7
$GPRMC,141102.000,A,5130.0743,N,00000.4367,E,2.40,155.87,180516,,,A*6B,51.5012359619,0.0072782998,14:11:2,18/5/2016,13,14,6.13,31,14.94,753.70,0,7
$GPRMC,141103.000,A,5130.0739,N,00000.4381,E,3.03,160.41,180516,,,A*65,51.5012283325,0.0073015999,14:11:3,18/5/2016,13,5,2.89,27,14.94,746.76,0,7
$GPRMC,141104.000,A,5130.0729,N,00000.4389,E,3.16,178.53,180516,,,A*65,51.5012130737,0.0073150010,14:11:4,18/5/2016,13,4,5.70,57,14.94,735.97,0,7
$GPRMC,141105.000,A,5130.0721,N,00000.4393,E,2.88,160.77,180516,,,A*6E,51.5012054443,0.0073216009,14:11:4,18/5/2016,13,11,8.89,50,14.94,708.80,0,7
$GPRMC,141106.000,A,5130.0717,N,00000.4399,E,2.46,155.64,180516,,,A*64,51.5011978149,0.0073316006,14:11:6,18/5/2016,13,6,3.34,22,14.94,668.82,0,7
$GPRMC,141107.000,A,5130.0715,N,00000.4403,E,1.65,155.91,180516,,,A*6B,51.5011863708,0.0073383002,14:11:7,18/5/2016,14,4,2.60,18,14.94,550.93,0,7
$GPRMC,141108.000,A,5130.0715,N,00000.4405,E,0.78,177.20,180516,,,A*65,51.5011863708,0.0073415999,14:11:8,18/5/2016,14,3,1.35,13,14.94,544.48,0,7
$GPRMC,141109.000,A,5130.0715,N,00000.4407,E,0.38,140.05,180516,,,A*61,51.5011863708,0.0073449997,14:11:8,18/5/2016,14,4,5.24,29,14.94,578.44,0,7
$GPRMC,141110.000,A,5130.0712,N,00000.4405,E,0.27,200.31,180516,,,A*62,51.5011863708,0.0073415999,14:11:10,18/5/2016,13,12,1.99,21,14.94,751.41,0,7
$GPRMC,141111.000,A,5130.0714,N,00000.4403,E,0.32,318.91,180516,,,A*65,51.5011863708,0.0073383002,14:11:11,18/5/2016,14,1,2.58,28,14.94,738.25,0,7
$GPRMC,141112.000,A,5130.0717,N,00000.4400,E,0.93,332.82,180516,,,A*67,51.5011978149,0.0073333001,14:11:12,18/5/2016,14,0,2.64,20,14.94,728.68,0,7
$GPRMC,141113.000,A,5130.0719,N,00000.4396,E,1.29,315.81,180516,,,A*66,51.5011978149,0.0073266005,14:11:12,18/5/2016,14,17,5.09,43,14.94,721.31,0,7
$GPRMC,141114.000,A,5130.0709,N,00000.4393,E,0.75,287.83,180516,,,A*65,51.5011787414,0.0073216009,14:11:14,18/5/2016,14,2,4.07,44,14.94,722.92,0,7
$GPRMC,141115.000,A,5130.0703,N,00000.4392,E,0.22,302.99,180516,,,A*6A,51.5011711120,0.0073199996,14:11:15,18/5/2016,15,2,3.61,48,14.94,712.22,0,7
$GPRMC,141116.000,A,5130.0698,N,00000.4391,E,0.20,6.46,180516,,,A*6E,51.5011634826,0.0073183007,14:11:16,18/5/2016,14,0,2.62,18,14.94,713.54,0,7
$GPRMC,141117.000,A,5130.0691,N,00000.4392,E,0.23,96.61,180516,,,A*5A,51.5011558532,0.0073199996,14:11:16,18/5/2016,14,0,2.82,17,14.94,714.60,0,7
$GPRMC,141118.000,A,5130.0683,N,00000.4402,E,1.08,132.50,180516,,,A*6D,51.5011405944,0.0073365998,14:11:18,18/5/2016,13,0,2.08,20,14.94,648.72,0,7
$GPRMC,141119.000,A,5130.0678,N,00000.4404,E,0.93,112.72,180516,,,A*6F,51.5011329650,0.0073399996,14:11:19,18/5/2016,14,1,1.76,14,14.94,517.83,0,7
$GPRMC,141120.000,A,5130.0675,N,00000.4407,E,0.85,171.68,180516,,,A*62,51.5011215209,0.0073449997,14:11:20,18/5/2016,14,11,6.34,29,14.94,698.99,1,8
$GPRMC,141121.000,A,5130.0671,N,00000.4410,E,0.45,184.33,180516,,,A*69,51.5011138916,0.0073500003,14:11:20,18/5/2016,15,6,3.14,22,14.94,755.56,0,8
$GPRMC,141122.000,A,5130.0662,N,00000.4418,E,2.14,165.71,180516,,,A*6F,51.5011062622,0.0073633003,14:11:22,18/5/2016,15,1,3.58,30,14.94,758.23,0,8
$GPRMC,141123.000,A,5130.0625,N,00000.4441,E,3.98,158.67,180516,,,A*6D,51.5010414123,0.0074016003,14:11:23,18/5/2016,15,2,5.49,28,14.94,761.34,0,8
$GPRMC,141124.000,A,5130.0601,N,00000.4452,E,5.45,167.94,180516,,,A*68,51.5009994506,0.0074200005,14:11:24,18/5/2016,15,0,6.97,43,14.94,761.21,0,8
$GPRMC,141125.000,A,5130.0566,N,00000.4464,E,7.17,175.78,180516,,,A*6A,51.5009422302,0.0074400000,14:11:24,18/5/2016,16,2,5.91,26,14.94,762.31,0,8
$GPRMC,141126.000,A,5130.0547,N,00000.4471,E,6.52,173.82,180516,,,A*6D,51.5009117126,0.0074516005,14:11:26,18/5/2016,15,7,3.67,21,14.94,748.29,0,8
$GPRMC,141127.000,A,5130.0530,N,00000.4485,E,4.44,178.51,180516,,,A*67,51.5008888244,0.0074750003,14:11:27,18/5/2016,15,0,1.89,18,14.94,733.73,0,8
$GPRMC,141128.000,A,5130.0529,N,00000.4500,E,3.72,136.65,180516,,,A*63,51.5008773803,0.0075000000,14:11:28,18/5/2016,14,0,3.33,19,14.94,736.74,0,8
$GPRMC,141129.000,A,5130.0531,N,00000.4512,E,2.47,144.23,180516,,,A*68,51.5008888244,0.0075199995,14:11:28,18/5/2016,15,3,5.45,28,14.94,732.87,0,8
$GPRMC,141130.000,A,5130.0535,N,00000.4513,E,1.79,187.75,180516,,,A*67,51.5008964538,0.0075216002,14:11:30,18/5/2016,14,1,3.45,20,14.94,732.78,0,8
$GPRMC,141131.000,A,5130.0531,N,00000.4515,E,1.92,181.74,180516,,,A*66,51.5008888244,0.0075250000,14:11:31,18/5/2016,13,2,3.21,18,14.94,729.85,0,8
$GPRMC,141132.000,A,5130.0526,N,00000.4514,E,1.92,149.67,180516,,,A*64,51.5008773803,0.0075232992,14:11:32,18/5/2016,13,33,5.55,43,14.94,733.16,0,8
$GPRMC,141133.000,A,5130.0520,N,00000.4517,E,2.15,142.86,180516,,,A*68,51.5008621215,0.0075282998,14:11:32,18/5/2016,13,0,8.68,43,14.94,732.42,0,8
$GPRMC,141134.000,A,5130.0517,N,00000.4521,E,1.99,144.45,180516,,,A*60,51.5008621215,0.0075349998,14:11:34,18/5/2016,12,4,5.01,22,14.94,732.93,0,8
$GPRMC,141135.000,A,5130.0511,N,00000.4524,E,2.03,165.88,180516,,,A*60,51.5008544921,0.0075400009,14:11:35,18/5/2016,12,0,4.44,24,14.94,727.97,0,8
$GPRMC,141136.000,A,5130.0514,N,00000.4530,E,1.57,153.00,180516,,,A*64,51.5008544921,0.0075500006,14:11:36,18/5/2016,11,1,4.02,30,14.94,734.34,0,8
$GPRMC,141137.000,A,5130.0514,N,00000.4533,E,1.13,158.33,180516,,,A*6D,51.5008544921,0.0075550007,14:11:36,18/5/2016,11,0,3.35,25,14.94,742.69,0,8
$GPRMC,141138.000,A,5130.0507,N,00000.4535,E,1.86,168.58,180516,,,A*64,51.5008468627,0.0075583004,14:11:38,18/5/2016,11,10,14.46,52,14.94,728.27,0,8
$GPRMC,141139.000,A,5130.0474,N,00000.4523,E,2.51,173.05,180516,,,A*6C,51.5007896423,0.0075383005,14:11:39,18/5/2016,11,8,7.45,29,14.94,732.39,0,8
$GPRMC,141140.000,A,5130.0444,N,00000.4515,E,2.73,158.89,180516,,,A*69,51.5007400512,0.0075250000,14:11:40,18/5/2016,11,0,3.27,17,14.94,739.83,0,8
$GPRMC,141141.000,A,5130.0452,N,00000.4523,E,2.67,142.53,180516,,,A*63,51.5007553100,0.0075383005,14:11:40,18/5/2016,11,6,6.61,37,14.94,754.86,0,8
$GPRMC,141142.000,A,5130.0447,N,00000.4528,E,2.13,146.20,180516,,,A*6C,51.5007476806,0.0075466008,14:11:42,18/5/2016,11,2,6.21,30,14.94,778.36,0,8
$GPRMC,141143.000,A,5130.0448,N,00000.4539,E,3.53,144.08,180516,,,A*6F,51.5007476806,0.0075650000,14:11:43,18/5/2016,11,7,5.46,29,14.94,772.79,1,9
$GPRMC,141144.000,A,5130.0455,N,00000.4544,E,2.86,142.19,180516,,,A*61,51.5007553100,0.0075732998,14:11:44,18/5/2016,11,0,4.45,28,14.94,781.44,0,9
$GPRMC,141145.000,A,5130.0458,N,00000.4546,E,2.25,140.23,180516,,,A*6D,51.5007667541,0.0075766000,14:11:44,18/5/2016,11,5,6.64,35,14.94,774.87,0,9
$GPRMC,141146.000,A,5130.0456,N,00000.4552,E,2.30,146.51,180516,,,A*62,51.5007553100,0.0075865993,14:11:46,18/5/2016,11,14,5.99,26,14.94,769.33,0,9
$GPRMC,141147.000,A,5130.0458,N,00000.4556,E,1.43,117.22,180516,,,A*6E,51.5007667541,0.0075933008,14:11:47,18/5/2016,11,1,3.86,20,14.94,765.95,0,9
$GPRMC,141148.000,A,5130.0467,N,00000.4559,E,0.98,88.63,180516,,,A*57,51.5007820129,0.0075982999,14:11:48,18/5/2016,11,0,2.63,24,14.94,766.89,0,9
$GPRMC,141149.000,A,5130.0465,N,00000.4553,E,1.00,173.38,180516,,,A*65,51.5007743835,0.0075883002,14:11:48,18/5/2016,11,10,4.86,23,14.94,765.22,0,9
$GPRMC,141150.000,A,5130.0465,N,00000.4546,E,1.63,147.22,180516,,,A*60,51.5007743835,0.0075766000,14:11:50,18/5/2016,10,1,7.21,31,14.94,760.13,0,9
$GPRMC,141151.000,A,5130.0468,N,00000.4537,E,1.44,131.78,180516,,,A*61,51.5007820129,0.0075616002,14:11:51,18/5/2016,11,5,8.29,35,14.94,755.99,0,9
$GPRMC,141152.000,A,5130.0467,N,00000.4543,E,1.67,136.92,180516,,,A*6C,51.5007820129,0.0075716009,14:11:52,18/5/2016,11,0,5.02,29,14.94,751.78,0,9
$GPRMC,141153.000,A,5130.0465,N,00000.4543,E,1.32,138.37,180516,,,A*6E,51.5007743835,0.0075716009,14:11:52,18/5/2016,11,7,3.97,19,14.94,747.76,0,9
$GPRMC,141154.000,A,5130.0469,N,00000.4537,E,0.93,148.28,180516,,,A*65,51.5007820129,0.0075616002,14:11:54,18/5/2016,10,7,3.16,22,14.94,746.37,0,9
$GPRMC,141155.000,A,5130.0463,N,00000.4539,E,0.85,127.99,180516,,,A*64,51.5007743835,0.0075650000,14:11:55,18/5/2016,10,4,8.07,34,15.43,742.72,0,9
$GPRMC,141156.000,A,5130.0464,N,00000.4535,E,0.66,105.47,180516,,,A*62,51.5007743835,0.0075583004,14:11:56,18/5/2016,10,0,3.06,18,15.43,744.17,0,9
$GPRMC,141157.000,A,5130.0454,N,00000.4541,E,0.71,175.59,180516,,,A*6D,51.5007553100,0.0075683002,14:11:56,18/5/2016,11,1,6.64,24,15.43,746.87,0,9
$GPRMC,141158.000,A,5130.0447,N,00000.4543,E,0.70,179.93,180516,,,A*69,51.5007476806,0.0075716009,14:11:58,18/5/2016,11,19,4.27,23,14.94,743.45,0,9
$GPRMC,141159.000,A,5130.0437,N,00000.4544,E,0.82,190.13,180516,,,A*6A,51.5007247924,0.0075732998,14:11:59,18/5/2016,11,7,9.19,39,15.43,741.90,0,9
$GPRMC,141200.000,A,5130.0429,N,00000.4547,E,0.89,200.20,180516,,,A*68,51.5007171630,0.0075783004,14:12:0,18/5/2016,11,0,3.70,18,15.43,743.40,0,9
$GPRMC,141201.000,A,5130.0428,N,00000.4545,E,0.57,211.39,180516,,,A*61,51.5007171630,0.0075749998,14:12:0,18/5/2016,10,0,3.52,23,15.43,743.25,0,9
$GPRMC,141202.000,A,5130.0428,N,00000.4543,E,0.58,194.08,180516,,,A*67,51.5007171630,0.0075716009,14:12:2,18/5/2016,10,0,3.93,30,15.43,740.97,0,9
$GPRMC,141203.000,A,5130.0422,N,00000.4550,E,1.16,168.33,180516,,,A*6E,51.5006980895,0.0075832996,14:12:3,18/5/2016,10,0,4.73,27,15.43,740.19,0,9
$GPRMC,141204.000,A,5130.0410,N,00000.4561,E,1.65,151.63,180516,,,A*61,51.5006828308,0.0076016006,14:12:4,18/5/2016,10,0,1.98,15,15.43,737.51,0,9
$GPRMC,141205.000,A,5130.0373,N,00000.4588,E,2.56,150.40,180516,,,A*66,51.5006179809,0.0076465997,14:12:4,18/5/2016,10,3,4.75,21,15.43,731.51,0,9
$GPRMC,141206.000,A,5130.0358,N,00000.4600,E,2.72,153.75,180516,,,A*6C,51.5005950927,0.0076666002,14:12:6,18/5/2016,10,8,7.98,33,15.43,729.05,0,9
$GPRMC,141207.000,A,5130.0328,N,00000.4623,E,2.89,152.32,180516,,,A*6D,51.5005455017,0.0077049999,14:12:7,18/5/2016,11,0,7.05,59,15.43,727.08,0,9
$GPRMC,141208.000,A,5130.0316,N,00000.4635,E,2.46,147.35,180516,,,A*68,51.5005302429,0.0077250003,14:12:8,18/5/2016,10,15,8.65,55,15.43,724.79,0,9
$GPRMC,141209.000,A,5130.0301,N,00000.4650,E,3.25,145.34,180516,,,A*6B,51.5005035400,0.0077500000,14:12:8,18/5/2016,10,3,5.17,28,15.43,722.80,0,9
$GPRMC,141210.000,A,5130.0287,N,00000.4660,E,3.08,153.48,180516,,,A*6C,51.5004806518,0.0077665996,14:12:10,18/5/2016,9,8,5.57,29,15.43,724.28,0,9
$GPRMC,141211.000,A,5130.0284,N,00000.4667,E,2.45,137.72,180516,,,A*6A,51.5004730224,0.0077783002,14:12:11,18/5/2016,10,0,3.48,25,15.43,723.51,0,9
$GPRMC,141212.000,A,5130.0275,N,00000.4676,E,2.75,145.64,180516,,,A*66,51.5004539489,0.0077933006,14:12:12,18/5/2016,9,6,5.34,26,15.43,716.92,0,9
$GPRMC,141213.000,A,5130.0266,N,00000.4686,E,2.76,144.31,180516,,,A*68,51.5004386901,0.0078099994,14:12:12,18/5/2016,10,4,4.00,22,15.43,715.93,0,9
$GPRMC,141214.000,A,5130.0249,N,00000.4698,E,3.02,153.47,180516,,,A*68,51.5004158020,0.0078300004,14:12:14,18/5/2016,9,0,3.89,33,15.43,716.03,0,9
$GPRMC,141215.000,A,5130.0235,N,00000.4711,E,3.12,155.09,180516,,,A*6F,51.5003890991,0.0078516001,14:12:15,18/5/2016,9,0,3.69,20,15.43,714.09,0,9
$GPRMC,141216.000,A,5130.0218,N,00000.4723,E,3.93,152.80,180516,,,A*6D,51.5003662109,0.0078716011,14:12:16,18/5/2016,9,2,2.27,16,15.43,711.91,0,9
$GPRMC,141217.000,A,5130.0201,N,00000.4735,E,4.13,156.25,180516,,,A*67,51.5003318786,0.0078916001,14:12:16,18/5/2016,10,17,3.76,25,15.43,709.65,0,9
$GPRMC,141218.000,A,5130.0194,N,00000.4740,E,3.91,157.91,180516,,,A*66,51.5003242492,0.0079000000,14:12:18,18/5/2016,9,7,6.01,34,15.43,705.07,0,9
$GPRMC,141219.000,A,5130.0188,N,00000.4747,E,3.29,152.10,180516,,,A*62,51.5003089904,0.0079116001,14:12:19,18/5/2016,9,4,3.58,21,15.43,700.36,0,9
$GPRMC,141220.000,A,5130.0181,N,00000.4754,E,3.03,148.35,180516,,,A*67,51.5003013610,0.0079233002,14:12:20,18/5/2016,9,1,3.16,17,15.43,695.08,0,9
$GPRMC,141221.000,A,5130.0181,N,00000.4757,E,2.69,148.14,180516,,,A*6B,51.5003013610,0.0079283003,14:12:20,18/5/2016,9,2,3.40,20,15.43,694.61,0,9
$GPRMC,141222.000,A,5130.0197,N,00000.4752,E,1.21,134.21,180516,,,A*68,51.5003242492,0.0079200005,14:12:22,18/5/2016,9,23,5.04,43,15.43,691.23,0,9
$GPRMC,141223.000,A,5130.0202,N,00000.4751,E,0.59,127.13,180516,,,A*68,51.5003318786,0.0079182996,14:12:23,18/5/2016,9,0,4.92,23,15.43,691.44,0,9
$GPRMC,141224.000,A,5130.0196,N,00000.4757,E,1.43,145.41,180516,,,A*6E,51.5003242492,0.0079283003,14:12:24,18/5/2016,9,2,3.99,29,15.43,691.54,0,9
$GPRMC,141225.000,A,5130.0191,N,00000.4762,E,1.82,151.35,180516,,,A*65,51.5003166198,0.0079366006,14:12:24,18/5/2016,9,4,1.48,17,15.43,696.64,0,9
$GPRMC,141226.000,A,5130.0189,N,00000.4767,E,1.64,132.69,180516,,,A*6E,51.5003166198,0.0079450006,14:12:26,18/5/2016,9,2,2.01,14,15.43,695.20,0,9
$GPRMC,141227.000,A,5130.0194,N,00000.4768,E,1.37,132.44,180516,,,A*65,51.5003242492,0.0079465999,14:12:27,18/5/2016,9,4,3.14,20,15.43,695.28,0,9
$GPRMC,141228.000,A,5130.0194,N,00000.4768,E,2.22,146.69,180516,,,A*61,51.5003242492,0.0079465999,14:12:28,18/5/2016,9,7,3.65,16,15.43,696.32,0,9
$GPRMC,141229.000,A,5130.0200,N,00000.4771,E,1.48,123.30,180516,,,A*66,51.5003318786,0.0079516005,14:12:28,18/5/2016,9,11,8.28,38,15.92,691.07,0,9
$GPRMC,141230.000,A,5130.0209,N,00000.4771,E,0.41,109.17,180516,,,A*62,51.5003509521,0.0079516005,14:12:30,18/5/2016,9,14,12.01,52,15.43,689.42,0,9
$GPRMC,141231.000,A,5130.0215,N,00000.4770,E,0.63,64.25,180516,,,A*54,51.5003585815,0.0079500007,14:12:31,18/5/2016,9,5,10.69,36,15.43,688.93,0,9
$GPRMC,141232.000,A,5130.0222,N,00000.4765,E,1.00,326.82,180516,,,A*6B,51.5003662109,0.0079415998,14:12:32,18/5/2016,9,3,6.79,22,15.43,685.91,0,9
$GPRMC,141233.000,A,5130.0234,N,00000.4757,E,0.43,263.75,180516,,,A*62,51.5003890991,0.0079283003,14:12:32,18/5/2016,9,6,5.95,25,15.92,677.69,0,9
$GPRMC,141234.000,A,5130.0241,N,00000.4753,E,0.68,98.59,180516,,,A*52,51.5004005432,0.0079216003,14:12:34,18/5/2016,9,0,7.90,34,15.92,682.74,0,9
$GPRMC,141235.000,A,5130.0252,N,00000.4750,E,1.00,105.09,180516,,,A*6D,51.5004234313,0.0079166002,14:12:35,18/5/2016,9,4,14.13,49,15.92,675.67,0,9
$GPRMC,141236.000,A,5130.0256,N,00000.4751,E,0.80,116.51,180516,,,A*6D,51.5004234313,0.0079182996,14:12:36,18/5/2016,9,10,7.15,27,15.43,653.96,0,9
$GPRMC,141237.000,A,5130.0262,N,00000.4750,E,0.65,132.52,180516,,,A*64,51.5004386901,0.0079166002,14:12:36,18/5/2016,9,12,10.18,31,15.43,713.67,0,9
$GPRMC,141238.000,A,5130.0267,N,00000.4751,E,1.14,111.90,180516,,,A*67,51.5004463195,0.0079182996,14:12:38,18/5/2016,10,17,8.91,36,15.92,741.60,0,9
$GPRMC,141239.000,A,5130.0268,N,00000.4754,E,1.11,119.41,180516,,,A*6D,51.5004463195,0.0079233002,14:12:39,18/5/2016,10,9,6.68,31,15.43,753.92,0,9
$GPRMC,141240.000,A,5130.0268,N,00000.4757,E,1.23,135.42,180516,,,A*6C,51.5004463195,0.0079283003,14:12:40,18/5/2016,9,7,5.46,26,15.43,754.99,0,9
$GPRMC,141241.000,A,5130.0265,N,00000.4762,E,2.11,140.91,180516,,,A*68,51.5004386901,0.0079366006,14:12:40,18/5/2016,9,3,6.39,34,15.43,738.61,1,10
$GPRMC,141242.000,A,5130.0261,N,00000.4768,E,2.56,152.74,180516,,,A*6E,51.5004310607,0.0079465999,14:12:42,18/5/2016,9,5,6.29,33,15.43,745.47,0,10
$GPRMC,141243.000,A,5130.0259,N,00000.4769,E,1.26,187.75,180516,,,A*68,51.5004310607,0.0079483003,14:12:43,18/5/2016,9,5,6.52,26,15.43,740.06,0,10
$GPRMC,141244.000,A,5130.0257,N,00000.4772,E,0.13,199.45,180516,,,A*60,51.5004310607,0.0079533004,14:12:44,18/5/2016,9,2,5.81,28,15.43,737.88,0,10
$GPRMC,141245.000,A,5130.0254,N,00000.4777,E,0.73,119.37,180516,,,A*6C,51.5004234313,0.0079616003,14:12:44,18/5/2016,9,8,4.66,24,15.43,737.14,0,10
$GPRMC,141246.000,A,5130.0253,N,00000.4783,E,1.26,108.79,180516,,,A*68,51.5004234313,0.0079716005,14:12:46,18/5/2016,9,6,5.20,27,15.43,733.95,0,10
$GPRMC,141247.000,A,5130.0250,N,00000.4788,E,1.41,112.32,180516,,,A*64,51.5004158020,0.0079800004,14:12:47,18/5/2016,9,1,6.23,30,15.43,730.77,0,10
$GPRMC,141248.000,A,5130.0248,N,00000.4793,E,1.28,133.04,180516,,,A*61,51.5004158020,0.0079883003,14:12:48,18/5/2016,9,3,3.28,18,15.43,729.64,0,10
$GPRMC,141249.000,A,5130.0246,N,00000.4797,E,1.26,150.38,180516,,,A*6E,51.5004081726,0.0079950003,14:12:48,18/5/2016,9,2,5.29,33,15.43,727.23,0,10
$GPRMC,141250.000,A,5130.0242,N,00000.4800,E,1.50,142.30,180516,,,A*69,51.5004081726,0.0080000009,14:12:50,18/5/2016,9,21,5.63,45,15.43,723.91,0,10
$GPRMC,141251.000,A,5130.0235,N,00000.4806,E,1.98,140.93,180516,,,A*61,51.5003890991,0.0080100002,14:12:51,18/5/2016,9,0,9.30,41,15.43,721.52,0,10
$GPRMC,141252.000,A,5130.0233,N,00000.4809,E,1.47,144.90,180516,,,A*6E,51.5003890991,0.0080150003,14:12:52,18/5/2016,9,7,4.62,24,15.43,721.90,0,10
$GPRMC,141253.000,A,5130.0230,N,00000.4812,E,1.66,148.32,180516,,,A*61,51.5003814697,0.0080200004,14:12:52,18/5/2016,9,8,6.90,33,15.43,718.49,0,10
$GPRMC,141254.000,A,5130.0228,N,00000.4817,E,1.61,156.50,180516,,,A*66,51.5003814697,0.0080282993,14:12:54,18/5/2016,9,3,10.20,34,15.43,721.72,0,10
$GPRMC,141255.000,A,5130.0222,N,00000.4824,E,2.52,140.41,180516,,,A*69,51.5003662109,0.0080399999,14:12:55,18/5/2016,9,0,5.02,24,15.43,721.51,0,10
$GPRMC,141256.000,A,5130.0220,N,00000.4830,E,2.11,133.02,180516,,,A*69,51.5003662109,0.0080500011,14:12:56,18/5/2016,9,13,12.19,53,15.43,720.94,0,10
$GPRMC,141257.000,A,5130.0217,N,00000.4836,E,1.71,135.07,180516,,,A*6C,51.5003585815,0.0080599994,14:12:56,18/5/2016,9,4,4.18,23,15.92,722.45,0,10
$GPRMC,141258.000,A,5130.0216,N,00000.4841,E,1.29,128.64,180516,,,A*66,51.5003585815,0.0080683002,14:12:58,18/5/2016,9,6,10.02,68,15.92,722.60,0,10
$GPRMC,141259.000,A,5130.0214,N,00000.4845,E,1.02,139.00,180516,,,A*6A,51.5003585815,0.0080749998,14:12:59,18/5/2016,9,10,12.39,51,15.92,720.17,0,10
$GPRMC,141300.000,A,5130.0212,N,00000.4849,E,1.42,127.26,180516,,,A*62,51.5003509521,0.0080816001,14:13:0,18/5/2016,9,5,7.63,28,15.43,722.63,0,10
$GPRMC,141301.000,A,5130.0207,N,00000.4855,E,2.12,149.93,180516,,,A*6A,51.5003433227,0.0080916004,14:13:0,18/5/2016,9,15,7.55,39,15.43,731.70,0,10
$GPRMC,141302.000,A,5130.0203,N,00000.4860,E,1.95,143.03,180516,,,A*64,51.5003433227,0.0081000003,14:13:2,18/5/2016,9,15,12.58,55,15.43,727.36,0,10
$GPRMC,141303.000,A,5130.0200,N,00000.4864,E,1.50,142.39,180516,,,A*63,51.5003318786,0.0081066007,14:13:3,18/5/2016,9,8,4.94,25,15.43,732.03,0,10
$GPRMC,141304.000,A,5130.0194,N,00000.4869,E,2.27,141.64,180516,,,A*6F,51.5003242492,0.0081149997,14:13:4,18/5/2016,9,9,7.75,52,15.43,731.43,0,10
$GPRMC,141305.000,A,5130.0191,N,00000.4874,E,1.86,133.79,180516,,,A*66,51.5003166198,0.0081233005,14:13:4,18/5/2016,9,11,6.99,27,15.92,731.80,0,10
$GPRMC,141306.000,A,5130.0187,N,00000.4880,E,1.63,139.81,180516,,,A*6F,51.5003089904,0.0081333007,14:13:6,18/5/2016,9,10,16.04,45,15.92,726.28,0,10
$GPRMC,141307.000,A,5130.0183,N,00000.4886,E,2.12,128.36,180516,,,A*65,51.5003013610,0.0081433000,14:13:7,18/5/2016,9,19,8.65,39,15.43,720.76,0,10
$GPRMC,141308.000,A,5130.0180,N,00000.4892,E,1.76,136.94,180516,,,A*6A,51.5003013610,0.0081533012,14:13:8,18/5/2016,9,18,9.33,36,15.43,717.44,0,10
$GPRMC,141309.000,A,5130.0176,N,00000.4897,E,1.61,140.83,180516,,,A*66,51.5002937316,0.0081616010,14:13:8,18/5/2016,9,7,15.07,65,15.43,716.41,0,10
$GPRMC,141310.000,A,5130.0171,N,00000.4903,E,1.98,138.31,180516,,,A*65,51.5002861022,0.0081716003,14:13:10,18/5/2016,9,13,12.51,46,15.43,710.25,0,10
$GPRMC,141311.000,A,5130.0166,N,00000.4912,E,2.28,130.66,180516,,,A*60,51.5002784729,0.0081865997,14:13:11,18/5/2016,9,5,12.66,34,15.43,705.36,0,10
$GPRMC,141312.000,A,5130.0163,N,00000.4918,E,1.49,125.77,180516,,,A*6C,51.5002670288,0.0081966009,14:13:12,18/5/2016,9,26,7.91,29,15.43,709.29,0,10
$GPRMC,141313.000,A,5130.0158,N,00000.4925,E,1.78,148.07,180516,,,A*65,51.5002593994,0.0082082996,14:13:12,18/5/2016,9,33,16.16,44,15.43,707.00,0,10
$GPRMC,141314.000,A,5130.0153,N,00000.4929,E,1.76,164.04,180516,,,A*66,51.5002517700,0.0082149991,14:13:14,18/5/2016,9,10,8.49,56,15.43,692.26,0,10
$GPRMC,141315.000,A,5130.0148,N,00000.4932,E,1.66,153.80,180516,,,A*6E,51.5002441406,0.0082200002,14:13:15,18/5/2016,9,10,13.59,81,15.43,700.20,0,10
$GPRMC,141316.000,A,5130.0141,N,00000.4935,E,1.93,166.16,180516,,,A*60,51.5002365112,0.0082250003,14:13:16,18/5/2016,9,10,9.03,42,15.43,703.50,0,10
$GPRMC,141317.000,A,5130.0139,N,00000.4936,E,1.10,170.53,180516,,,A*60,51.5002288818,0.0082266006,14:13:16,18/5/2016,9,11,9.34,42,14.94,701.01,0,10
$GPRMC,141318.000,A,5130.0140,N,00000.4935,E,0.54,253.43,180516,,,A*60,51.5002365112,0.0082250003,14:13:18,18/5/2016,9,6,10.25,50,14.94,701.30,0,10
$GPRMC,141319.000,A,5130.0140,N,00000.4934,E,0.21,133.30,180516,,,A*63,51.5002365112,0.0082232999,14:13:19,18/5/2016,9,5,8.26,33,14.94,697.96,0,10
$GPRMC,141320.000,A,5130.0138,N,00000.4937,E,0.82,123.81,180516,,,A*67,51.5002288818,0.0082283010,14:13:20,18/5/2016,9,2,10.26,40,14.94,699.03,0,10
$GPRMC,141321.000,A,5130.0137,N,00000.4941,E,1.33,123.43,180516,,,A*6D,51.5002288818,0.0082350006,14:13:20,18/5/2016,9,3,8.23,30,14.94,695.07,0,10
$GPRMC,141322.000,A,5130.0137,N,00000.4944,E,0.91,134.53,180516,,,A*65,51.5002288818,0.0082399997,14:13:22,18/5/2016,9,4,6.78,43,14.94,696.54,0,10
$GPRMC,141323.000,A,5130.0135,N,00000.4947,E,1.01,146.52,180516,,,A*69,51.5002288818,0.0082449998,14:13:23,18/5/2016,9,21,8.09,31,15.43,697.43,0,10
$GPRMC,141324.000,A,5130.0132,N,00000.4950,E,1.04,156.69,180516,,,A*63,51.5002212524,0.0082499990,14:13:24,18/5/2016,9,7,11.97,60,15.43,698.81,0,10
$GPRMC,141325.000,A,5130.0127,N,00000.4952,E,1.47,166.52,180516,,,A*68,51.5002098083,0.0082532997,14:13:24,18/5/2016,9,1,5.88,30,15.43,703.98,0,10
$GPRMC,141326.000,A,5130.0121,N,00000.4952,E,1.95,188.41,180516,,,A*60,51.5002021789,0.0082532997,14:13:26,18/5/2016,9,9,4.61,27,15.43,702.98,1,11
$GPRMC,141327.000,A,5130.0114,N,00000.4953,E,2.42,178.68,180516,,,A*6B,51.5001869201,0.0082550001,14:13:27,18/5/2016,9,0,9.15,37,15.43,695.37,0,11
$GPRMC,141328.000,A,5130.0110,N,00000.4954,E,2.11,175.93,180516,,,A*68,51.5001869201,0.0082565994,14:13:28,18/5/2016,9,0,3.22,18,15.43,686.51,0,11
$GPRMC,141329.000,A,5130.0107,N,00000.4947,E,3.30,225.62,180516,,,A*67,51.5001792907,0.0082449998,14:13:28,18/5/2016,9,3,2.61,16,15.43,684.05,0,11
$GPRMC,141330.000,A,5130.0101,N,00000.4941,E,2.86,216.04,180516,,,A*63,51.5001716613,0.0082350006,14:13:30,18/5/2016,10,5,2.25,16,15.43,680.02,0,11
$GPRMC,141331.000,A,5130.0096,N,00000.4938,E,2.05,208.19,180516,,,A*6B,51.5001640319,0.0082300004,14:13:31,18/5/2016,10,8,3.03,27,15.43,678.77,0,11
$GPRMC,141332.000,A,5130.0095,N,00000.4934,E,0.66,207.16,180516,,,A*60,51.5001564025,0.0082232999,14:13:32,18/5/2016,10,0,2.52,18,15.43,678.54,0,11
$GPRMC,141333.000,A,5130.0099,N,00000.4926,E,1.21,314.41,180516,,,A*6D,51.5001640319,0.0082100000,14:13:32,18/5/2016,10,0,13.08,78,15.43,677.18,0,11
$GPRMC,141334.000,A,5130.0094,N,00000.4921,E,3.42,229.74,180516,,,A*6E,51.5001564025,0.0082016000,14:13:34,18/5/2016,10,10,7.94,38,15.43,678.74,0,11
$GPRMC,141335.000,A,5130.0087,N,00000.4915,E,2.85,217.35,180516,,,A*68,51.5001449584,0.0081916007,14:13:35,18/5/2016,9,14,7.13,33,15.43,681.07,0,11
$GPRMC,141336.000,A,5130.0082,N,00000.4908,E,1.79,219.39,180516,,,A*60,51.5001373291,0.0081800003,14:13:36,18/5/2016,9,6,3.26,21,15.43,683.68,0,11
$GPRMC,141337.000,A,5130.0073,N,00000.4904,E,1.26,185.74,180516,,,A*66,51.5001220703,0.0081732997,14:13:36,18/5/2016,10,6,4.57,22,15.43,682.02,0,11
$GPRMC,141338.000,A,5130.0070,N,00000.4896,E,1.31,231.17,180516,,,A*6F,51.5001144409,0.0081599998,14:13:38,18/5/2016,10,0,6.11,33,15.43,676.86,0,11
$GPRMC,141339.000,A,5130.0068,N,00000.4890,E,1.91,238.04,180516,,,A*60,51.5001144409,0.0081499996,14:13:39,18/5/2016,9,0,2.16,16,15.43,672.02,0,11
$GPRMC,141340.000,A,5130.0061,N,00000.4884,E,3.20,225.03,180516,,,A*61,51.5000991821,0.0081400003,14:13:40,18/5/2016,10,0,3.09,28,15.43,666.36,0,11
$GPRMC,141341.000,A,5130.0058,N,00000.4873,E,2.54,241.33,180516,,,A*61,51.5000991821,0.0081216011,14:13:40,18/5/2016,10,14,4.02,38,15.43,662.39,0,11
$GPRMC,141342.000,A,5130.0055,N,00000.4864,E,2.19,246.15,180516,,,A*63,51.5000877380,0.0081066007,14:13:42,18/5/2016,10,2,2.21,16,15.43,663.68,0,11
$GPRMC,141343.000,A,5130.0051,N,00000.4856,E,2.17,238.73,180516,,,A*60,51.5000801086,0.0080933008,14:13:43,18/5/2016,9,0,0.89,8,15.43,661.13,0,11
$GPRMC,141344.000,A,5130.0050,N,00000.4848,E,2.74,247.43,180516,,,A*67,51.5000801086,0.0080799999,14:13:44,18/5/2016,9,0,2.42,22,15.43,658.12,0,11
$GPRMC,141345.000,A,5130.0046,N,00000.4842,E,2.25,232.21,180516,,,A*69,51.5000724792,0.0080700006,14:13:44,18/5/2016,10,0,1.04,12,15.43,658.03,0,11
$GPRMC,141346.000,A,5130.0045,N,00000.4835,E,1.17,266.63,180516,,,A*6C,51.5000724792,0.0080583009,14:13:46,18/5/2016,10,0,0.65,9,15.43,657.14,0,11
$GPRMC,141347.000,A,5130.0044,N,00000.4828,E,1.54,266.27,180516,,,A*67,51.5000724792,0.0080466003,14:13:47,18/5/2016,10,0,3.36,24,15.43,659.47,0,11
$GPRMC,141348.000,A,5130.0042,N,00000.4821,E,1.73,250.56,180516,,,A*61,51.5000724792,0.0080350008,14:13:48,18/5/2016,10,0,2.25,22,15.43,657.42,0,11
$GPRMC,141349.000,A,5130.0040,N,00000.4810,E,1.95,264.64,180516,,,A*6E,51.5000648498,0.0080166006,14:13:48,18/5/2016,10,1,4.83,46,15.43,658.43,0,11
$GPRMC,141350.000,A,5130.0038,N,00000.4798,E,2.28,258.17,180516,,,A*68,51.5000648498,0.0079966001,14:13:50,18/5/2016,10,0,1.03,10,15.43,662.77,0,11
$GPRMC,141351.000,A,5130.0033,N,00000.4789,E,2.02,274.94,180516,,,A*6F,51.5000572204,0.0079815998,14:13:51,18/5/2016,10,0,0.29,8,15.43,662.67,0,11
$GPRMC,141352.000,A,5130.0031,N,00000.4779,E,1.70,268.66,180516,,,A*67,51.5000495910,0.0079649996,14:13:52,18/5/2016,10,1,0.32,9,15.43,660.72,0,11
$GPRMC,141353.000,A,5130.0029,N,00000.4770,E,2.33,251.41,180516,,,A*6D,51.5000495910,0.0079500007,14:13:52,18/5/2016,9,0,0.26,6,15.43,658.87,0,11
$GPRMC,141354.000,A,5130.0024,N,00000.4761,E,2.91,235.08,180516,,,A*60,51.5000419616,0.0079350004,14:13:54,18/5/2016,10,0,0.34,9,15.43,654.22,0,11
$GPRMC,141355.000,A,5130.0022,N,00000.4754,E,1.43,243.97,180516,,,A*6A,51.5000343322,0.0079233002,14:13:55,18/5/2016,11,4,3.18,23,15.43,651.76,0,11
$GPRMC,141356.000,A,5130.0007,N,00000.4751,E,3.44,89.39,180516,,,A*5E,51.5000076293,0.0079182996,14:13:56,18/5/2016,11,26,6.26,60,15.43,654.36,0,11
$GPRMC,141357.000,A,5130.0004,N,00000.4763,E,3.48,101.21,180516,,,A*69,51.5000076293,0.0079383001,14:13:56,18/5/2016,10,6,5.91,43,15.43,649.52,0,11
$GPRMC,141358.000,A,5130.0001,N,00000.4771,E,2.46,120.34,180516,,,A*68,51.5000000000,0.0079516005,14:13:58,18/5/2016,9,0,2.84,32,15.43,655.55,0,11
$GPRMC,141359.000,A,5129.9997,N,00000.4769,E,1.38,177.49,180516,,,A*65,51.4999923706,0.0079483003,14:13:59,18/5/2016,10,0,0.37,7,15.43,652.36,0,11
$GPRMC,141400.000,A,5129.9990,N,00000.4777,E,2.23,140.70,180516,,,A*61,51.4999847412,0.0079616003,14:14:0,18/5/2016,11,0,0.65,12,15.43,653.99,0,11
$GPRMC,141401.000,A,5129.9991,N,00000.4776,E,0.64,82.26,180516,,,A*5D,51.4999847412,0.0079600000,14:14:0,18/5/2016,11,0,0.33,7,15.43,661.75,0,11
$GPRMC,141402.000,A,5129.9988,N,00000.4774,E,0.52,189.92,180516,,,A*64,51.4999847412,0.0079566001,14:14:2,18/5/2016,11,0,0.58,9,15.43,664.16,0,11
$GPRMC,141403.000,A,5129.9988,N,00000.4773,E,0.37,89.66,180516,,,A*5B,51.4999847412,0.0079550004,14:14:3,18/5/2016,11,0,0.34,11,15.43,663.35,0,11
$GPRMC,141404.000,A,5129.9987,N,00000.4771,E,0.59,193.68,180516,,,A*6D,51.4999771118,0.0079516005,14:14:4,18/5/2016,9,0,0.89,12,15.43,656.71,0,11
$GPRMC,141405.000,A,5129.9986,N,00000.4768,E,0.53,213.79,180516,,,A*64,51.4999771118,0.0079465999,14:14:4,18/5/2016,9,1,0.25,7,15.43,655.06,0,11
$GPRMC,141406.000,A,5129.9987,N,00000.4767,E,0.05,122.88,180516,,,A*65,51.4999771118,0.0079450006,14:14:6,18/5/2016,9,0,0.34,10,15.43,654.13,0,11
$GPRMC,141407.000,A,5129.9988,N,00000.4766,E,0.42,44.41,180516,,,A*5D,51.4999847412,0.0079433012,14:14:7,18/5/2016,9,2,1.45,17,15.43,666.04,0,11
$GPRMC,141408.000,A,5129.9990,N,00000.4767,E,0.23,60.84,180516,,,A*52,51.4999847412,0.0079450006,14:14:8,18/5/2016,10,0,0.30,8,15.43,664.74,0,11
$GPRMC,141409.000,A,5129.9990,N,00000.4768,E,0.71,148.49,180516,,,A*61,51.4999847412,0.0079465999,14:14:8,18/5/2016,10,0,0.59,8,15.43,664.26,0,11
$GPRMC,141410.000,A,5129.9988,N,00000.4772,E,0.57,163.32,180516,,,A*6A,51.4999847412,0.0079533004,14:14:10,18/5/2016,9,0,0.34,6,15.43,663.80,0,11
$GPRMC,141411.000,A,5129.9987,N,00000.4772,E,0.50,169.60,180516,,,A*6E,51.4999771118,0.0079533004,14:14:11,18/5/2016,9,0,0.31,8,15.43,664.22,0,11
$GPRMC,141412.000,A,5129.9986,N,00000.4774,E,0.71,166.99,180516,,,A*60,51.4999771118,0.0079566001,14:14:12,18/5/2016,9,0,0.41,7,15.43,658.20,0,11
$GPRMC,141413.000,A,5129.9987,N,00000.4774,E,0.28,144.78,180516,,,A*63,51.4999771118,0.0079566001,14:14:12,18/5/2016,10,0,0.13,5,15.43,653.50,0,11
$GPRMC,141414.000,A,5129.9989,N,00000.4773,E,0.31,280.05,180516,,,A*64,51.4999847412,0.0079550004,14:14:14,18/5/2016,10,0,0.27,9,15.43,652.60,0,11
$GPRMC,141415.000,A,5129.9988,N,00000.4775,E,0.33,124.98,180516,,,A*69,51.4999847412,0.0079583001,14:14:15,18/5/2016,10,0,0.16,7,15.43,652.31,0,11
$GPRMC,141416.000,A,5129.9989,N,00000.4775,E,0.07,117.40,180516,,,A*69,51.4999847412,0.0079583001,14:14:16,18/5/2016,10,0,0.51,12,15.43,652.16,0,11
$GPRMC,141417.000,A,5129.9989,N,00000.4775,E,0.64,23.01,180516,,,A*5E,51.4999847412,0.0079583001,14:14:16,18/5/2016,10,0,0.53,7,15.43,662.78,0,11
$GPRMC,141418.000,A,5129.9991,N,00000.4774,E,0.69,333.21,180516,,,A*64,51.4999847412,0.0079566001,14:14:18,18/5/2016,10,0,1.45,9,15.43,662.49,0,11
$GPRMC,141419.000,A,5129.9995,N,00000.4770,E,1.10,326.62,180516,,,A*69,51.4999923706,0.0079500007,14:14:19,18/5/2016,10,0,0.21,6,15.43,663.72,0,11
$GPRMC,141420.000,A,5129.9998,N,00000.4769,E,0.73,354.84,180516,,,A*6F,51.5000000000,0.0079483003,14:14:20,18/5/2016,10,0,0.12,6,15.43,663.89,0,11
$GPRMC,141421.000,A,5129.9999,N,00000.4770,E,0.31,5.39,180516,,,A*60,51.5000000000,0.0079500007,14:14:20,18/5/2016,10,2,1.37,10,15.43,656.87,0,11
$GPRMC,141422.000,A,5129.9997,N,00000.4769,E,0.54,313.11,180516,,,A*68,51.4999923706,0.0079483003,14:14:22,18/5/2016,11,0,0.73,11,15.43,646.17,0,11
$GPRMC,141423.000,A,5129.9994,N,00000.4767,E,0.47,306.65,180516,,,A*61,51.4999923706,0.0079450006,14:14:23,18/5/2016,10,0,1.05,11,15.43,649.78,0,11
$GPRMC,141424.000,A,5129.9993,N,00000.4766,E,0.35,3.72,180516,,,A*65,51.4999923706,0.0079433012,14:14:24,18/5/2016,10,0,1.32,15,15.43,658.25,0,11
$GPRMC,141425.000,A,5129.9994,N,00000.4766,E,0.93,311.89,180516,,,A*6B,51.4999923706,0.0079433012,14:14:24,18/5/2016,10,6,1.82,17,15.43,662.22,0,11
$GPRMC,141426.000,A,5129.9990,N,00000.4767,E,0.70,192.55,180516,,,A*68,51.4999847412,0.0079450006,14:14:26,18/5/2016,10,0,0.67,10,15.43,661.85,0,11
$GPRMC,141427.000,A,5129.9992,N,00000.4765,E,0.79,353.24,180516,,,A*69,51.4999847412,0.0079415998,14:14:27,18/5/2016,10,0,1.24,14,15.43,660.84,0,11
$GPRMC,141428.000,A,5129.9994,N,00000.4765,E,0.41,354.94,180516,,,A*67,51.4999923706,0.0079415998,14:14:28,18/5/2016,10,0,0.73,13,15.43,660.57,0,11
$GPRMC,141429.000,A,5129.9995,N,00000.4765,E,0.39,345.29,180516,,,A*6E,51.4999923706,0.0079415998,14:14:28,18/5/2016,11,0,0.42,7,15.43,660.57,0,11
$GPRMC,141430.000,A,5129.9993,N,00000.4766,E,0.74,157.73,180516,,,A*64,51.4999923706,0.0079433012,14:14:30,18/5/2016,11,0,0.61,7,15.43,660.29,0,11
$GPRMC,141431.000,A,5129.9994,N,00000.4766,E,0.27,64.14,180516,,,A*54,51.4999923706,0.0079433012,14:14:31,18/5/2016,11,0,0.50,7,15.43,661.74,0,11
$GPRMC,141432.000,A,5129.9994,N,00000.4768,E,0.41,51.77,180516,,,A*5A,51.4999923706,0.0079465999,14:14:32,18/5/2016,10,2,3.34,19,15.43,655.35,0,11
$GPRMC,141433.000,A,5129.9995,N,00000.4768,E,0.31,337.73,180516,,,A*6A,51.4999923706,0.0079465999,14:14:32,18/5/2016,10,1,0.78,10,15.43,661.56,0,11
$GPRMC,141434.000,A,5129.9995,N,00000.4769,E,0.06,21.25,180516,,,A*5F,51.4999923706,0.0079483003,14:14:34,18/5/2016,10,0,0.18,5,15.43,661.64,0,11
$GPRMC,141435.000,A,5129.9995,N,00000.4769,E,0.11,80.71,180516,,,A*52,51.4999923706,0.0079483003,14:14:35,18/5/2016,10,7,7.74,45,15.43,661.49,0,11
$GPRMC,141436.000,A,5129.9995,N,00000.4769,E,0.10,303.22,180516,,,A*6E,51.4999923706,0.0079483003,14:14:36,18/5/2016,10,10,9.41,67,15.43,660.90,0,11
$GPRMC,141437.000,A,5129.9995,N,00000.4769,E,0.26,348.00,180516,,,A*65,51.4999923706,0.0079483003,14:14:36,18/5/2016,10,16,12.99,79,15.43,660.11,0,11
$GPRMC,141438.000,A,5129.9996,N,00000.4769,E,0.08,311.32,180516,,,A*68,51.4999923706,0.0079483003,14:14:38,18/5/2016,10,0,1.96,19,15.43,659.84,0,11
$GPRMC,141439.000,A,5129.9996,N,00000.4768,E,0.15,264.37,180516,,,A*62,51.4999923706,0.0079465999,14:14:39,18/5/2016,10,0,0.87,26,15.43,659.95,0,11
$GPRMC,141440.000,A,5129.9996,N,00000.4768,E,0.11,268.34,180516,,,A*67,51.4999923706,0.0079465999,14:14:40,18/5/2016,10,0,1.03,11,15.43,660.33,0,11
$GPRMC,141441.000,A,5129.9996,N,00000.4767,E,0.02,50.33,180516,,,A*55,51.4999923706,0.0079450006,14:14:40,18/5/2016,10,0,4.05,28,15.43,660.65,0,11
$GPRMC,141442.000,A,5129.9996,N,00000.4767,E,0.14,250.48,180516,,,A*6F,51.4999923706,0.0079450006,14:14:42,18/5/2016,10,0,1.16,15,15.43,651.18,0,11
$GPRMC,141443.000,A,5129.9996,N,00000.4767,E,0.07,223.19,180516,,,A*6C,51.4999923706,0.0079450006,14:14:43,18/5/2016,10,3,1.29,15,15.43,654.07,0,11
$GPRMC,141444.000,A,5129.9995,N,00000.4767,E,0.16,259.98,180516,,,A*6C,51.4999923706,0.0079450006,14:14:44,18/5/2016,10,0,1.30,13,15.43,653.59,0,11
$GPRMC,141445.000,A,5129.9995,N,00000.4766,E,0.09,343.98,180516,,,A*68,51.4999923706,0.0079433012,14:14:44,18/5/2016,10,0,2.55,20,15.43,652.71,0,11
$GPRMC,141446.000,A,5129.9996,N,00000.4766,E,0.19,357.11,180516,,,A*6D,51.4999923706,0.0079433012,14:14:46,18/5/2016,9,1,0.98,12,15.43,648.88,0,11
$GPRMC,141447.000,A,5129.9996,N,00000.4766,E,0.13,59.67,180516,,,A*5A,51.4999923706,0.0079433012,14:14:47,18/5/2016,9,0,1.55,17,15.43,646.53,0,11
$GPRMC,141448.000,A,5129.9996,N,00000.4766,E,0.01,168.00,180516,,,A*64,51.4999923706,0.0079433012,14:14:48,18/5/2016,9,8,1.83,19,15.43,651.17,0,11
$GPRMC,141449.000,A,5129.9996,N,00000.4766,E,0.09,293.80,180516,,,A*62,51.4999923706,0.0079433012,14:14:48,18/5/2016,9,8,4.15,27,15.43,643.90,0,11
$GPRMC,141450.000,A,5129.9996,N,00000.4766,E,0.25,274.78,180516,,,A*6A,51.4999923706,0.0079433012,14:14:50,18/5/2016,9,3,6.67,37,15.43,642.95,0,11
$GPRMC,141451.000,A,5129.9996,N,00000.4765,E,0.25,241.45,180516,,,A*60,51.4999923706,0.0079415998,14:14:51,18/5/2016,9,0,1.49,16,15.43,642.87,0,11
$GPRMC,141452.000,A,5129.9996,N,00000.4764,E,0.32,197.09,180516,,,A*64,51.4999923706,0.0079400005,14:14:52,18/5/2016,10,0,1.21,15,15.43,645.71,0,11
$GPRMC,141453.000,A,5129.9995,N,00000.4764,E,0.40,162.25,180516,,,A*67,51.4999923706,0.0079400005,14:14:52,18/5/2016,10,1,5.13,28,15.43,642.37,0,11
$GPRMC,141454.000,A,5129.9994,N,00000.4764,E,0.28,152.02,180516,,,A*69,51.4999923706,0.0079400005,14:14:54,18/5/2016,10,4,1.67,16,15.43,641.04,0,11
