$GPRMC,134534.000,A,5130.0999,N,00000.3431,E,0.81,116.40,240216,,,A*69,51.5016670227,0.0057183003,13:45:34,24/2/2016,0,487,494.01,495,-50.00,0,0
$GPRMC,134535.000,A,5130.0991,N,00000.3438,E,0.62,112.46,240216,,,A*66,51.5016517639,0.0057300000,13:45:35,24/2/2016,0,486,492.46,495,-50.00,0,0
$GPRMC,134536.000,A,5130.0988,N,00000.3445,E,0.32,150.03,240216,,,A*65,51.5016441345,0.0057416005,13:45:36,24/2/2016,0,495,492.48,495,-50.00,0,0
$GPRMC,134537.000,A,5130.0993,N,00000.3442,E,0.20,141.19,240216,,,A*61,51.5016517639,0.0057365999,13:45:36,24/2/2016,69,481,492.63,495,-8.98,0,0
$GPRMC,134538.000,A,5130.0995,N,00000.3444,E,0.30,139.77,240216,,,A*68,51.5016593933,0.0057399997,13:45:38,24/2/2016,0,495,492.60,495,-50.00,0,0
$GPRMC,134539.000,A,5130.0996,N,00000.3446,E,0.29,127.21,240216,,,A*6C,51.5016593933,0.0057433004,13:45:39,24/2/2016,0,484,492.64,495,-43.65,0,0
$GPRMC,134540.000,A,5130.0997,N,00000.3444,E,0.29,149.80,240216,,,A*62,51.5016593933,0.0057399997,13:45:40,24/2/2016,0,495,492.52,495,-50.00,0,0
$GPRMC,134541.000,A,5130.0998,N,00000.3443,E,0.40,122.40,240216,,,A*65,51.5016593933,0.0057383003,13:45:40,24/2/2016,0,487,492.61,495,-50.00,0,0
$GPRMC,134542.000,A,5130.1000,N,00000.3438,E,0.37,141.64,240216,,,A*60,51.5016670227,0.0057300000,13:45:42,24/2/2016,0,495,492.53,495,-50.00,0,0
$GPRMC,134543.000,A,5130.1002,N,00000.3435,E,0.14,134.94,240216,,,A*62,51.5016670227,0.0057250003,13:45:43,24/2/2016,0,487,492.63,495,-50.00,0,0
$GPRMC,134544.000,A,5130.1001,N,00000.3437,E,0.05,345.70,240216,,,A*6A,51.5016670227,0.0057283000,13:45:44,24/2/2016,0,495,492.53,495,-50.00,0,0
$GPRMC,134545.000,A,5130.1001,N,00000.3435,E,0.18,331.24,240216,,,A*67,51.5016670227,0.0057250003,13:45:44,24/2/2016,0,495,492.63,495,-50.00,0,0
$GPRMC,134546.000,A,5130.1004,N,00000.3426,E,0.33,281.85,240216,,,A*6B,51.5016746520,0.0057100005,13:45:46,24/2/2016,0,495,492.57,495,-50.00,0,0
$GPRMC,134547.000,A,5130.1007,N,00000.3419,E,0.37,288.81,240216,,,A*6C,51.5016746520,0.0056983003,13:45:47,24/2/2016,0,495,492.67,495,-50.00,0,0
$GPRMC,134548.000,A,5130.1010,N,00000.3411,E,0.20,242.00,240216,,,A*64,51.5016860961,0.0056850004,13:45:48,24/2/2016,0,490,492.64,495,-50.00,0,0
$GPRMC,134549.000,A,5130.1011,N,00000.3405,E,0.17,201.86,240216,,,A*6C,51.5016860961,0.0056750006,13:45:48,24/2/2016,0,495,492.61,495,-50.00,0,0
$GPRMC,134550.000,A,5130.1013,N,00000.3400,E,0.20,232.38,240216,,,A*62,51.5016860961,0.0056666002,13:45:50,24/2/2016,0,487,492.32,495,-50.00,0,0
$GPRMC,134551.000,A,5130.1015,N,00000.3396,E,0.16,182.50,240216,,,A*6E,51.5016937255,0.0056600003,13:45:51,24/2/2016,0,485,491.93,495,-43.65,0,0
$GPRMC,134552.000,A,5130.1015,N,00000.3394,E,0.18,204.95,240216,,,A*65,51.5016937255,0.0056565999,13:45:52,24/2/2016,65,482,492.49,495,-11.43,0,0
$GPRMC,134553.000,A,5130.1016,N,00000.3385,E,0.54,260.68,240216,,,A*6F,51.5016937255,0.0056415996,13:45:52,24/2/2016,0,495,492.63,495,-50.00,0,0
$GPRMC,134554.000,A,5130.1019,N,00000.3381,E,0.41,286.83,240216,,,A*6A,51.5017013549,0.0056350002,13:45:54,24/2/2016,0,495,492.10,495,-50.00,0,0
$GPRMC,134555.000,A,5130.1020,N,00000.3383,E,0.28,98.53,240216,,,A*5C,51.5017013549,0.0056383008,13:45:55,24/2/2016,1,482,492.61,495,-42.68,0,0
$GPRMC,134556.000,A,5130.1023,N,00000.3380,E,0.23,328.55,240216,,,A*6A,51.5017089843,0.0056332998,13:45:56,24/2/2016,0,495,490.91,495,-50.00,0,0
$GPRMC,134557.000,A,5130.1027,N,00000.3381,E,0.46,11.68,240216,,,A*5A,51.5017089843,0.0056350002,13:45:56,24/2/2016,0,490,492.85,495,-50.00,0,0
$GPRMC,134558.000,A,5130.1029,N,00000.3379,E,0.23,303.49,240216,,,A*6C,51.5017166137,0.0056316003,13:45:58,24/2/2016,0,488,492.61,495,-50.00,0,0
$GPRMC,134559.000,A,5130.1031,N,00000.3379,E,0.16,315.32,240216,,,A*69,51.5017166137,0.0056316003,13:45:59,24/2/2016,0,488,492.21,495,-50.00,0,0
$GPRMC,134600.000,A,5130.1033,N,00000.3381,E,0.19,16.26,240216,,,A*59,51.5017242431,0.0056350002,13:46:0,24/2/2016,0,483,492.71,495,-43.16,0,0
$GPRMC,134601.000,A,5130.1034,N,00000.3384,E,0.30,64.14,240216,,,A*55,51.5017242431,0.0056400003,13:46:0,24/2/2016,0,491,492.59,495,-50.00,0,0
$GPRMC,134602.000,A,5130.1034,N,00000.3386,E,0.30,64.58,240216,,,A*5C,51.5017242431,0.0056433005,13:46:2,24/2/2016,1,485,492.86,495,-50.00,0,0
$GPRMC,134603.000,A,5130.1035,N,00000.3385,E,0.20,40.59,240216,,,A*59,51.5017242431,0.0056415996,13:46:3,24/2/2016,1,495,492.38,495,-50.00,0,0
$GPRMC,134604.000,A,5130.1033,N,00000.3385,E,0.09,1.81,240216,,,A*63,51.5017242431,0.0056415996,13:46:4,24/2/2016,0,486,492.39,495,-42.68,0,0
$GPRMC,134605.000,A,5130.1029,N,00000.3388,E,0.23,138.01,240216,,,A*6F,51.5017166137,0.0056466007,13:46:4,24/2/2016,0,486,492.45,495,-50.00,0,0
$GPRMC,134606.000,A,5130.1027,N,00000.3387,E,0.23,188.47,240216,,,A*64,51.5017089843,0.0056450004,13:46:6,24/2/2016,0,495,492.26,495,-50.00,0,0
$GPRMC,134607.000,A,5130.1026,N,00000.3389,E,0.10,128.81,240216,,,A*6A,51.5017089843,0.0056483001,13:46:7,24/2/2016,71,481,492.56,495,-8.50,0,0
$GPRMC,134608.000,A,5130.1023,N,00000.3391,E,0.08,144.13,240216,,,A*61,51.5017089843,0.0056516003,13:46:8,24/2/2016,0,483,492.47,495,-43.16,0,0
$GPRMC,134608.000,A,5130.1021,N,00000.3390,E,0.12,246.29,240216,,,A*61,51.5017013549,0.0056500005,13:46:8,24/2/2016,0,487,492.60,495,-50.00,0,0
$GPRMC,134609.000,A,5130.1016,N,00000.3392,E,0.13,135.47,240216,,,A*68,51.5016937255,0.0056533002,13:46:8,24/2/2016,0,495,492.58,495,-50.00,0,0
$GPRMC,134610.000,A,5130.1016,N,00000.3391,E,0.04,113.62,240216,,,A*66,51.5016937255,0.0056516003,13:46:10,24/2/2016,0,490,492.50,495,-50.00,0,0
$GPRMC,134611.000,A,5130.1011,N,00000.3389,E,0.12,173.37,240216,,,A*68,51.5016860961,0.0056483001,13:46:11,24/2/2016,0,495,492.64,495,-50.00,0,0
$GPRMC,134612.000,A,5130.1009,N,00000.3381,E,0.23,196.41,240216,,,A*62,51.5016860961,0.0056350002,13:46:12,24/2/2016,0,495,491.71,495,-50.00,0,0
$GPRMC,134613.000,A,5130.1009,N,00000.3380,E,0.12,200.67,240216,,,A*68,51.5016860961,0.0056332998,13:46:12,24/2/2016,0,495,493.73,495,-50.00,0,0
$GPRMC,134614.000,A,5130.1013,N,00000.3375,E,0.15,317.21,240216,,,A*6C,51.5016860961,0.0056250000,13:46:14,24/2/2016,12,479,492.64,495,-36.82,0,0
$GPRMC,134615.000,A,5130.1017,N,00000.3373,E,0.34,330.39,240216,,,A*60,51.5016937255,0.0056216001,13:46:15,24/2/2016,0,495,492.45,495,-50.00,0,0
$GPRMC,134616.000,A,5130.1027,N,00000.3368,E,0.43,5.57,240216,,,A*67,51.5017089843,0.0056133003,13:46:16,24/2/2016,0,488,491.82,495,-50.00,0,0
$GPRMC,134617.000,A,5130.1034,N,00000.3371,E,0.80,6.16,240216,,,A*65,51.5017242431,0.0056182999,13:46:16,24/2/2016,1,495,492.90,495,-50.00,0,0
$GPRMC,134618.000,A,5130.1041,N,00000.3375,E,0.87,20.19,240216,,,A*50,51.5017318725,0.0056250000,13:46:18,24/2/2016,0,483,492.47,495,-43.65,0,0
$GPRMC,134619.000,A,5130.1045,N,00000.3377,E,0.96,29.27,240216,,,A*53,51.5017433166,0.0056283001,13:46:19,24/2/2016,0,487,492.38,495,-50.00,1,1
$GPRMC,134620.000,A,5130.1055,N,00000.3380,E,1.26,26.26,240216,,,A*54,51.5017585754,0.0056332998,13:46:20,24/2/2016,0,485,492.57,495,-43.16,1,2
$GPRMC,134621.000,A,5130.1064,N,00000.3385,E,1.45,38.08,240216,,,A*54,51.5017738342,0.0056415996,13:46:20,24/2/2016,0,495,491.78,495,-50.00,0,2
$GPRMC,134622.000,A,5130.1074,N,00000.3387,E,1.41,42.59,240216,,,A*59,51.5017890930,0.0056450004,13:46:22,24/2/2016,1,487,492.84,495,-50.00,0,2
$GPRMC,134623.000,A,5130.1086,N,00000.3392,E,1.61,36.58,240216,,,A*51,51.5018081665,0.0056533002,13:46:23,24/2/2016,0,484,492.43,495,-43.65,0,2
$GPRMC,134624.000,A,5130.1100,N,00000.3393,E,1.85,33.30,240216,,,A*59,51.5018310546,0.0056550002,13:46:24,24/2/2016,0,495,492.45,495,-50.00,0,2
$GPRMC,134625.000,A,5130.1110,N,00000.3395,E,1.74,25.29,240216,,,A*5E,51.5018463134,0.0056582999,13:46:24,24/2/2016,65,479,492.79,495,-13.38,0,2
$GPRMC,134626.000,A,5130.1119,N,00000.3399,E,1.63,34.91,240216,,,A*5D,51.5018653869,0.0056649999,13:46:26,24/2/2016,56,481,493.29,495,-18.26,0,2
$GPRMC,134627.000,A,5130.1129,N,00000.3403,E,1.88,26.08,240216,,,A*5D,51.5018806457,0.0056716003,13:46:27,24/2/2016,74,479,493.10,495,-7.52,0,2
$GPRMC,134628.000,A,5130.1139,N,00000.3410,E,2.11,28.97,240216,,,A*5A,51.5018959045,0.0056833004,13:46:28,24/2/2016,67,479,488.41,495,-12.40,0,2
$GPRMC,134629.000,A,5130.1148,N,00000.3416,E,2.32,26.83,240216,,,A*51,51.5019111633,0.0056932997,13:46:28,24/2/2016,66,479,493.07,495,-12.40,0,2
$GPRMC,134630.000,A,5130.1158,N,00000.3420,E,2.27,23.36,240216,,,A*52,51.5019302368,0.0056999998,13:46:30,24/2/2016,48,484,492.47,495,-21.19,0,2
$GPRMC,134631.000,A,5130.1165,N,00000.3427,E,2.20,25.69,240216,,,A*51,51.5019454956,0.0057116003,13:46:31,24/2/2016,47,485,492.38,495,-22.17,0,2
$GPRMC,134632.000,A,5130.1170,N,00000.3433,E,2.09,24.71,240216,,,A*50,51.5019531250,0.0057216000,13:46:32,24/2/2016,60,480,492.88,495,-15.82,0,2
$GPRMC,134633.000,A,5130.1177,N,00000.3439,E,2.25,26.35,240216,,,A*50,51.5019607543,0.0057315998,13:46:32,24/2/2016,54,483,492.92,495,-17.77,0,2
$GPRMC,134634.000,A,5130.1182,N,00000.3445,E,2.20,27.71,240216,,,A*52,51.5019683837,0.0057416005,13:46:34,24/2/2016,57,482,492.54,495,-16.80,1,3
$GPRMC,134635.000,A,5130.1188,N,00000.3448,E,2.13,28.27,240216,,,A*58,51.5019760131,0.0057466001,13:46:35,24/2/2016,68,479,492.49,495,-12.40,1,4
$GPRMC,134636.000,A,5130.1193,N,00000.3453,E,2.06,30.29,240216,,,A*58,51.5019874572,0.0057550001,13:46:36,24/2/2016,48,484,492.24,495,-21.68,0,4
$GPRMC,134637.000,A,5130.1200,N,00000.3457,E,2.11,27.78,240216,,,A*50,51.5020027160,0.0057616000,13:46:36,24/2/2016,57,481,492.43,495,-18.26,0,4
$GPRMC,134638.000,A,5130.1208,N,00000.3460,E,2.26,25.09,240216,,,A*53,51.5020103454,0.0057666006,13:46:38,24/2/2016,47,485,492.84,495,-21.68,0,4
$GPRMC,134639.000,A,5130.1213,N,00000.3466,E,2.25,26.89,240216,,,A*56,51.5020179748,0.0057765998,13:46:39,24/2/2016,64,479,493.01,495,-13.87,0,4
$GPRMC,134640.000,A,5130.1221,N,00000.3470,E,2.36,24.46,240216,,,A*5D,51.5020332336,0.0057833003,13:46:40,24/2/2016,48,484,493.00,495,-21.19,0,4
$GPRMC,134641.000,A,5130.1227,N,00000.3475,E,2.26,33.37,240216,,,A*5E,51.5020408630,0.0057915997,13:46:40,24/2/2016,50,484,492.94,495,-20.21,0,4
$GPRMC,134642.000,A,5130.1233,N,00000.3480,E,2.25,32.87,240216,,,A*5B,51.5020599365,0.0058000001,13:46:42,24/2/2016,69,478,492.93,495,-11.43,0,4
$GPRMC,134643.000,A,5130.1239,N,00000.3485,E,2.25,33.73,240216,,,A*5F,51.5020675659,0.0058083004,13:46:43,24/2/2016,68,478,492.52,495,-11.43,0,4
$GPRMC,134644.000,A,5130.1246,N,00000.3490,E,2.35,33.58,240216,,,A*5C,51.5020751953,0.0058166003,13:46:44,24/2/2016,63,480,492.68,495,-13.87,2,6
$GPRMC,134645.000,A,5130.1251,N,00000.3498,E,2.43,38.90,240216,,,A*5D,51.5020828247,0.0058300008,13:46:44,24/2/2016,49,484,492.48,495,-20.21,0,6
$GPRMC,134646.000,A,5130.1256,N,00000.3502,E,2.12,37.89,240216,,,A*58,51.5020904541,0.0058366003,13:46:46,24/2/2016,50,484,492.57,495,-19.73,0,6
$GPRMC,134647.000,A,5130.1260,N,00000.3512,E,2.32,48.81,240216,,,A*5F,51.5020980834,0.0058533005,13:46:47,24/2/2016,51,484,492.53,495,-19.73,0,6
$GPRMC,134648.000,A,5130.1265,N,00000.3520,E,2.32,48.52,240216,,,A*5A,51.5021095275,0.0058666000,13:46:48,24/2/2016,67,479,492.97,495,-13.38,1,7
$GPRMC,134649.000,A,5130.1274,N,00000.3523,E,2.34,46.32,240216,,,A*56,51.5021247863,0.0058716006,13:46:48,24/2/2016,63,479,492.57,495,-14.36,0,7
$GPRMC,134650.000,A,5130.1298,N,00000.3528,E,3.63,35.38,240216,,,A*5A,51.5021629333,0.0058800001,13:46:50,24/2/2016,52,484,492.95,495,-19.24,0,7
$GPRMC,134651.000,A,5130.1302,N,00000.3534,E,5.35,356.69,240216,,,A*63,51.5021743774,0.0058900003,13:46:51,24/2/2016,67,478,492.80,495,-11.43,0,7
$GPRMC,134652.000,A,5130.1314,N,00000.3539,E,4.22,1.74,240216,,,A*60,51.5021896362,0.0058983001,13:46:52,24/2/2016,51,484,492.28,495,-18.75,0,7
$GPRMC,134653.000,A,5130.1323,N,00000.3541,E,3.91,333.78,240216,,,A*6B,51.5022048950,0.0059015998,13:46:52,24/2/2016,48,485,492.29,495,-21.68,0,7
$GPRMC,134654.000,A,5130.1336,N,00000.3539,E,5.15,11.40,240216,,,A*55,51.5022315979,0.0058983001,13:46:54,24/2/2016,54,482,492.38,495,-19.24,0,7
$GPRMC,134655.000,A,5130.1345,N,00000.3540,E,4.51,358.78,240216,,,A*6A,51.5022392272,0.0059000005,13:46:55,24/2/2016,47,485,492.97,495,-22.17,0,7
$GPRMC,134656.000,A,5130.1353,N,00000.3538,E,2.14,29.96,240216,,,A*53,51.5022544860,0.0058965997,13:46:56,24/2/2016,59,481,493.26,495,-16.80,0,7
$GPRMC,134657.000,A,5130.1357,N,00000.3539,E,1.95,19.10,240216,,,A*50,51.5022621154,0.0058983001,13:46:56,24/2/2016,50,484,492.84,495,-20.21,0,7
$GPRMC,134658.000,A,5130.1359,N,00000.3534,E,4.34,341.50,240216,,,A*68,51.5022621154,0.0058900003,13:46:58,24/2/2016,67,479,492.77,495,-12.40,0,7
$GPRMC,134659.000,A,5130.1363,N,00000.3529,E,3.19,355.19,240216,,,A*6C,51.5022697448,0.0058816003,13:46:59,24/2/2016,66,479,492.73,495,-12.40,0,7
$GPRMC,134700.000,A,5130.1369,N,00000.3527,E,2.63,6.62,240216,,,A*60,51.5022773742,0.0058783001,13:47:0,24/2/2016,50,484,492.56,495,-20.21,0,7
$GPRMC,134701.000,A,5130.1374,N,00000.3530,E,2.41,15.97,240216,,,A*53,51.5022850036,0.0058833003,13:47:0,24/2/2016,49,484,492.50,495,-20.70,0,7
$GPRMC,134702.000,A,5130.1378,N,00000.3528,E,1.62,40.68,240216,,,A*57,51.5022964477,0.0058800001,13:47:2,24/2/2016,53,481,492.40,495,-19.73,0,7
$GPRMC,134703.000,A,5130.1380,N,00000.3533,E,2.71,16.70,240216,,,A*50,51.5023040771,0.0058882999,13:47:3,24/2/2016,47,485,492.86,495,-22.17,0,7
$GPRMC,134704.000,A,5130.1387,N,00000.3536,E,3.55,4.11,240216,,,A*66,51.5023117065,0.0058932995,13:47:4,24/2/2016,61,480,493.10,495,-15.33,0,7
$GPRMC,134705.000,A,5130.1396,N,00000.3539,E,3.23,11.77,240216,,,A*5D,51.5023269653,0.0058983001,13:47:4,24/2/2016,47,484,492.99,495,-22.17,0,7
$GPRMC,134706.000,A,5130.1404,N,00000.3541,E,2.79,14.62,240216,,,A*52,51.5023422241,0.0059015998,13:47:6,24/2/2016,67,479,493.01,495,-12.40,0,7
$GPRMC,134707.000,A,5130.1413,N,00000.3541,E,3.16,1.04,240216,,,A*69,51.5023536682,0.0059015998,13:47:7,24/2/2016,52,483,492.78,495,-18.26,0,7
$GPRMC,134708.000,A,5130.1423,N,00000.3539,E,3.09,5.71,240216,,,A*62,51.5023689270,0.0058983001,13:47:8,24/2/2016,50,484,492.53,495,-19.24,0,7
$GPRMC,134709.000,A,5130.1431,N,00000.3539,E,3.23,4.59,240216,,,A*63,51.5023841857,0.0058983001,13:47:8,24/2/2016,45,485,492.61,495,-22.66,0,7
$GPRMC,134710.000,A,5130.1441,N,00000.3540,E,2.88,9.36,240216,,,A*66,51.5023994445,0.0059000005,13:47:10,24/2/2016,61,480,492.68,495,-14.84,0,7
$GPRMC,134711.000,A,5130.1450,N,00000.3540,E,2.58,12.88,240216,,,A*55,51.5024185180,0.0059000005,13:47:11,24/2/2016,58,481,492.49,495,-16.80,0,7
$GPRMC,134712.000,A,5130.1461,N,00000.3540,E,2.93,359.24,240216,,,A*69,51.5024337768,0.0059000005,13:47:12,24/2/2016,40,486,492.54,495,-26.07,0,7
$GPRMC,134713.000,A,5130.1471,N,00000.3541,E,3.53,8.74,240216,,,A*67,51.5024490356,0.0059015998,13:47:12,24/2/2016,43,486,492.26,495,-24.61,0,7
$GPRMC,134714.000,A,5130.1481,N,00000.3544,E,2.89,16.46,240216,,,A*52,51.5024642944,0.0059066004,13:47:14,24/2/2016,49,484,493.42,495,-20.70,0,7
$GPRMC,134715.000,A,5130.1490,N,00000.3546,E,2.76,14.60,240216,,,A*57,51.5024833679,0.0059100003,13:47:15,24/2/2016,68,478,493.17,495,-11.43,0,7
$GPRMC,134716.000,A,5130.1500,N,00000.3548,E,2.96,0.83,240216,,,A*64,51.5024986267,0.0059133005,13:47:16,24/2/2016,49,484,492.70,495,-20.21,0,7
$GPRMC,134717.000,A,5130.1514,N,00000.3549,E,2.75,10.15,240216,,,A*52,51.5025215148,0.0059150004,13:47:16,24/2/2016,60,482,492.67,495,-15.82,0,7
$GPRMC,134718.000,A,5130.1521,N,00000.3551,E,1.95,20.75,240216,,,A*5A,51.5025405883,0.0059183001,13:47:18,24/2/2016,51,484,492.17,495,-19.73,0,7
$GPRMC,134719.000,A,5130.1529,N,00000.3553,E,2.50,13.71,240216,,,A*5F,51.5025482177,0.0059216003,13:47:19,24/2/2016,47,484,492.25,495,-21.68,0,7
$GPRMC,134720.000,A,5130.1536,N,00000.3557,E,2.81,11.24,240216,,,A*51,51.5025634765,0.0059283008,13:47:20,24/2/2016,60,480,492.26,495,-15.82,0,7
$GPRMC,134721.000,A,5130.1544,N,00000.3560,E,2.24,32.49,240216,,,A*54,51.5025711059,0.0059333000,13:47:20,24/2/2016,54,481,492.54,495,-18.75,0,7
$GPRMC,134722.000,A,5130.1552,N,00000.3563,E,2.83,4.05,240216,,,A*63,51.5025863647,0.0059383001,13:47:22,24/2/2016,53,481,492.98,495,-19.73,0,7
$GPRMC,134723.000,A,5130.1561,N,00000.3565,E,3.21,9.84,240216,,,A*69,51.5026054382,0.0059416003,13:47:23,24/2/2016,60,480,493.03,495,-16.31,0,7
$GPRMC,134724.000,A,5130.1570,N,00000.3567,E,3.17,6.54,240216,,,A*6B,51.5026206970,0.0059450001,13:47:24,24/2/2016,50,484,493.03,495,-20.21,0,7
$GPRMC,134725.000,A,5130.1579,N,00000.3567,E,2.87,8.25,240216,,,A*63,51.5026283264,0.0059450001,13:47:24,24/2/2016,50,484,492.96,495,-20.21,0,7
$GPRMC,134726.000,A,5130.1588,N,00000.3569,E,3.00,11.18,240216,,,A*58,51.5026435852,0.0059482998,13:47:26,24/2/2016,0,495,493.01,495,-50.00,0,7
$GPRMC,134727.000,A,5130.1596,N,00000.3570,E,2.66,16.00,240216,,,A*51,51.5026626586,0.0059500002,13:47:27,24/2/2016,0,485,491.73,495,-45.12,0,7
$GPRMC,134728.000,A,5130.1603,N,00000.3573,E,3.45,354.11,240216,,,A*67,51.5026702880,0.0059549999,13:47:28,24/2/2016,0,495,492.48,495,-50.00,0,7
$GPRMC,134729.000,A,5130.1609,N,00000.3578,E,3.35,10.49,240216,,,A*5E,51.5026855468,0.0059633007,13:47:28,24/2/2016,0,495,492.75,495,-50.00,0,7
$GPRMC,134730.000,A,5130.1618,N,00000.3580,E,2.95,4.14,240216,,,A*67,51.5026931762,0.0059666004,13:47:30,24/2/2016,0,495,493.01,495,-50.00,0,7
$GPRMC,134731.000,A,5130.1626,N,00000.3581,E,2.37,27.52,240216,,,A*51,51.5027084350,0.0059682998,13:47:31,24/2/2016,0,486,492.89,495,-50.00,0,7
$GPRMC,134732.000,A,5130.1633,N,00000.3582,E,1.98,20.49,240216,,,A*5E,51.5027198791,0.0059700007,13:47:32,24/2/2016,0,495,492.96,495,-50.00,0,7
$GPRMC,134733.000,A,5130.1640,N,00000.3585,E,2.88,12.51,240216,,,A*56,51.5027351379,0.0059750003,13:47:32,24/2/2016,0,495,493.15,495,-50.00,0,7
$GPRMC,134734.000,A,5130.1649,N,00000.3585,E,3.12,1.70,240216,,,A*6B,51.5027503967,0.0059750003,13:47:34,24/2/2016,0,486,492.86,495,-50.00,0,7
$GPRMC,134735.000,A,5130.1657,N,00000.3585,E,2.83,11.51,240216,,,A*5E,51.5027580261,0.0059750003,13:47:35,24/2/2016,0,483,492.02,495,-43.65,0,7
$GPRMC,134736.000,A,5130.1665,N,00000.3585,E,2.28,4.53,240216,,,A*6B,51.5027732849,0.0059750003,13:47:36,24/2/2016,0,495,492.48,495,-50.00,0,7
$GPRMC,134737.000,A,5130.1672,N,00000.3585,E,2.43,8.63,240216,,,A*6E,51.5027847290,0.0059750003,13:47:36,24/2/2016,0,495,493.39,495,-50.00,0,7
$GPRMC,134738.000,A,5130.1680,N,00000.3586,E,2.74,7.83,240216,,,A*6A,51.5027999877,0.0059766006,13:47:38,24/2/2016,0,485,492.84,495,-45.12,0,7
$GPRMC,134739.000,A,5130.1688,N,00000.3588,E,3.00,30.43,240216,,,A*57,51.5028152465,0.0059800004,13:47:39,24/2/2016,0,489,493.21,495,-50.00,0,7
$GPRMC,134740.000,A,5130.1696,N,00000.3591,E,2.60,6.27,240216,,,A*6E,51.5028228759,0.0059850001,13:47:40,24/2/2016,0,495,493.58,495,-50.00,0,7
$GPRMC,134741.000,A,5130.1703,N,00000.3591,E,2.59,356.19,240216,,,A*63,51.5028419494,0.0059850001,13:47:40,24/2/2016,0,484,493.37,495,-43.16,0,7
$GPRMC,134742.000,A,5130.1713,N,00000.3590,E,3.17,1.17,240216,,,A*64,51.5028572082,0.0059833002,13:47:42,24/2/2016,0,488,492.70,495,-50.00,0,7
$GPRMC,134743.000,A,5130.1724,N,00000.3589,E,3.21,2.87,240216,,,A*66,51.5028724670,0.0059816002,13:47:43,24/2/2016,0,495,492.78,495,-50.00,0,7
$GPRMC,134744.000,A,5130.1732,N,00000.3589,E,2.94,359.13,240216,,,A*69,51.5028877258,0.0059816002,13:47:44,24/2/2016,0,495,492.93,495,-50.00,0,7
$GPRMC,134745.000,A,5130.1741,N,00000.3587,E,3.21,7.05,240216,,,A*62,51.5029067993,0.0059783005,13:47:44,24/2/2016,0,488,492.46,495,-50.00,0,7
$GPRMC,134746.000,A,5130.1748,N,00000.3587,E,2.74,14.08,240216,,,A*56,51.5029144287,0.0059783005,13:47:46,24/2/2016,0,487,492.72,495,-50.00,0,7
$GPRMC,134747.000,A,5130.1755,N,00000.3590,E,2.97,356.72,240216,,,A*68,51.5029220581,0.0059833002,13:47:47,24/2/2016,0,484,492.60,495,-43.16,0,7
$GPRMC,134748.000,A,5130.1762,N,00000.3589,E,2.72,352.27,240216,,,A*64,51.5029373168,0.0059816002,13:47:48,24/2/2016,0,483,492.38,495,-44.63,0,7
$GPRMC,134749.000,A,5130.1769,N,00000.3589,E,2.28,8.41,240216,,,A*6D,51.5029449462,0.0059816002,13:47:48,24/2/2016,0,485,492.37,495,-44.63,0,7
$GPRMC,134750.000,A,5130.1773,N,00000.3591,E,2.45,1.14,240216,,,A*65,51.5029525756,0.0059850001,13:47:50,24/2/2016,0,485,492.96,495,-44.14,0,7
$GPRMC,134751.000,A,5130.1780,N,00000.3590,E,2.21,4.77,240216,,,A*6B,51.5029716491,0.0059833002,13:47:51,24/2/2016,0,495,493.07,495,-50.00,0,7
$GPRMC,134752.000,A,5130.1786,N,00000.3592,E,2.47,5.76,240216,,,A*6C,51.5029792785,0.0059866003,13:47:52,24/2/2016,0,483,492.99,495,-43.16,0,7
$GPRMC,134753.000,A,5130.1793,N,00000.3595,E,3.07,3.23,240216,,,A*6D,51.5029869079,0.0059916009,13:47:52,24/2/2016,1,479,492.79,495,-42.68,0,7
$GPRMC,134754.000,A,5130.1800,N,00000.3595,E,2.34,359.45,240216,,,A*62,51.5030021667,0.0059916009,13:47:54,24/2/2016,0,487,492.00,495,-50.00,0,7
$GPRMC,134755.000,A,5130.1806,N,00000.3597,E,2.58,1.79,240216,,,A*6C,51.5030097961,0.0059949998,13:47:55,24/2/2016,81,482,492.72,495,-3.12,0,7
$GPRMC,134756.000,A,5130.1815,N,00000.3596,E,2.65,350.11,240216,,,A*6B,51.5030288696,0.0059932999,13:47:56,24/2/2016,0,483,492.68,495,-43.16,0,7
$GPRMC,134757.000,A,5130.1821,N,00000.3594,E,2.43,357.23,240216,,,A*6D,51.5030364990,0.0059899997,13:47:56,24/2/2016,0,486,492.40,495,-50.00,0,7
$GPRMC,134758.000,A,5130.1829,N,00000.3595,E,2.80,1.48,240216,,,A*69,51.5030517578,0.0059916009,13:47:58,24/2/2016,0,495,492.44,495,-50.00,0,7
$GPRMC,134759.000,A,5130.1836,N,00000.3594,E,2.95,352.72,240216,,,A*6F,51.5030593872,0.0059899997,13:47:59,24/2/2016,0,484,492.92,495,-43.65,0,7
$GPRMC,134800.000,A,5130.1843,N,00000.3594,E,2.58,3.74,240216,,,A*6E,51.5030670166,0.0059899997,13:48:0,24/2/2016,0,483,492.67,495,-44.14,0,7
$GPRMC,134801.000,A,5130.1849,N,00000.3596,E,2.59,8.08,240216,,,A*66,51.5030860900,0.0059932999,13:48:0,24/2/2016,0,483,492.84,495,-44.14,0,7
$GPRMC,134802.000,A,5130.1856,N,00000.3598,E,2.25,8.20,240216,,,A*64,51.5030937194,0.0059966001,13:48:2,24/2/2016,0,495,493.11,495,-50.00,0,7
$GPRMC,134803.000,A,5130.1862,N,00000.3600,E,2.61,13.60,240216,,,A*5E,51.5031013488,0.0060000000,13:48:3,24/2/2016,0,495,492.70,495,-50.00,0,7
$GPRMC,134804.000,A,5130.1869,N,00000.3604,E,2.71,20.23,240216,,,A*50,51.5031166076,0.0060066003,13:48:4,24/2/2016,0,495,492.69,495,-50.00,0,7
$GPRMC,134805.000,A,5130.1874,N,00000.3606,E,1.88,9.53,240216,,,A*66,51.5031242370,0.0060100007,13:48:4,24/2/2016,0,482,492.75,495,-43.65,0,7
$GPRMC,134806.000,A,5130.1878,N,00000.3609,E,1.60,31.04,240216,,,A*59,51.5031318664,0.0060150003,13:48:6,24/2/2016,0,486,492.69,495,-50.00,1,8
$GPRMC,134807.000,A,5130.1882,N,00000.3616,E,2.43,36.90,240216,,,A*5B,51.5031318664,0.0060266008,13:48:7,24/2/2016,0,495,492.50,495,-50.00,0,8
$GPRMC,134808.000,A,5130.1889,N,00000.3623,E,2.93,39.13,240216,,,A*50,51.5031509399,0.0060383005,13:48:8,24/2/2016,49,482,492.90,495,-19.24,0,8
$GPRMC,134809.000,A,5130.1892,N,00000.3633,E,2.43,56.96,240216,,,A*53,51.5031509399,0.0060550003,13:48:8,24/2/2016,0,485,492.42,495,-44.14,0,8
$GPRMC,134810.000,A,5130.1893,N,00000.3642,E,2.07,77.63,240216,,,A*55,51.5031585693,0.0060700006,13:48:10,24/2/2016,0,495,493.30,495,-50.00,0,8
$GPRMC,134811.000,A,5130.1896,N,00000.3652,E,2.38,61.40,240216,,,A*5A,51.5031585693,0.0060866003,13:48:11,24/2/2016,0,491,493.11,495,-50.00,0,8
$GPRMC,134812.000,A,5130.1899,N,00000.3663,E,2.77,66.65,240216,,,A*5F,51.5031661987,0.0061050004,13:48:12,24/2/2016,0,486,492.83,495,-50.00,0,8
$GPRMC,134813.000,A,5130.1900,N,00000.3674,E,2.61,81.07,240216,,,A*53,51.5031661987,0.0061233000,13:48:12,24/2/2016,0,495,492.63,495,-50.00,0,8
$GPRMC,134814.000,A,5130.1902,N,00000.3684,E,2.03,67.03,240216,,,A*51,51.5031738281,0.0061400003,13:48:14,24/2/2016,0,484,492.53,495,-43.65,0,8
$GPRMC,134815.000,A,5130.1903,N,00000.3694,E,2.06,90.54,240216,,,A*5F,51.5031738281,0.0061565999,13:48:15,24/2/2016,0,488,492.61,495,-50.00,0,8
$GPRMC,134816.000,A,5130.1905,N,00000.3704,E,1.71,101.58,240216,,,A*64,51.5031738281,0.0061733002,13:48:16,24/2/2016,48,485,493.32,495,-22.17,0,8
$GPRMC,134817.000,A,5130.1909,N,00000.3715,E,2.00,82.75,240216,,,A*59,51.5031814575,0.0061916007,13:48:16,24/2/2016,63,480,493.25,495,-14.36,0,8
$GPRMC,134818.000,A,5130.1913,N,00000.3725,E,2.66,75.10,240216,,,A*55,51.5031890869,0.0062083001,13:48:18,24/2/2016,50,484,492.87,495,-19.73,0,8
$GPRMC,134819.000,A,5130.1916,N,00000.3736,E,2.15,62.95,240216,,,A*5C,51.5031890869,0.0062265996,13:48:19,24/2/2016,63,479,492.67,495,-14.36,0,8
$GPRMC,134820.000,A,5130.1914,N,00000.3746,E,3.67,93.19,240216,,,A*5D,51.5031890869,0.0062433004,13:48:20,24/2/2016,61,480,492.62,495,-14.84,0,8
$GPRMC,134821.000,A,5130.1900,N,00000.3754,E,4.25,148.91,240216,,,A*6C,51.5031661987,0.0062566003,13:48:20,24/2/2016,51,484,492.57,495,-19.73,0,8
$GPRMC,134822.000,A,5130.1898,N,00000.3766,E,2.93,129.22,240216,,,A*6A,51.5031661987,0.0062766003,13:48:22,24/2/2016,61,480,492.65,495,-14.84,0,8
$GPRMC,134823.000,A,5130.1895,N,00000.3775,E,2.32,131.97,240216,,,A*68,51.5031585693,0.0062915992,13:48:23,24/2/2016,61,480,492.56,495,-15.33,0,8
$GPRMC,134824.000,A,5130.1889,N,00000.3783,E,3.16,157.10,240216,,,A*63,51.5031509399,0.0063050003,13:48:24,24/2/2016,49,484,492.59,495,-21.19,0,8
$GPRMC,134825.000,A,5130.1882,N,00000.3791,E,3.36,150.47,240216,,,A*6D,51.5031318664,0.0063183002,13:48:24,24/2/2016,49,484,492.48,495,-20.21,0,8
$GPRMC,134826.000,A,5130.1876,N,00000.3801,E,3.14,133.87,240216,,,A*6A,51.5031242370,0.0063350000,13:48:26,24/2/2016,48,484,492.66,495,-21.19,0,8
$GPRMC,134827.000,A,5130.1870,N,00000.3811,E,2.91,139.19,240216,,,A*6D,51.5031166076,0.0063515996,13:48:27,24/2/2016,54,481,492.61,495,-18.75,0,8
$GPRMC,134828.000,A,5130.1865,N,00000.3820,E,2.67,132.76,240216,,,A*6F,51.5031089782,0.0063666000,13:48:28,24/2/2016,44,485,492.67,495,-23.63,0,8
$GPRMC,134829.000,A,5130.1857,N,00000.3830,E,3.81,137.04,240216,,,A*67,51.5030937194,0.0063833003,13:48:28,24/2/2016,54,481,493.21,495,-18.75,0,8
$GPRMC,134830.000,A,5130.1855,N,00000.3842,E,1.96,126.94,240216,,,A*65,51.5030937194,0.0064033002,13:48:30,24/2/2016,44,486,493.00,495,-23.63,0,8
$GPRMC,134831.000,A,5130.1853,N,00000.3850,E,2.32,102.64,240216,,,A*65,51.5030860900,0.0064166011,13:48:31,24/2/2016,57,481,492.67,495,-17.77,0,8
$GPRMC,134832.000,A,5130.1850,N,00000.3860,E,2.75,119.81,240216,,,A*64,51.5030860900,0.0064333000,13:48:32,24/2/2016,0,488,493.26,495,-50.00,0,8
$GPRMC,134833.000,A,5130.1848,N,00000.3870,E,2.46,112.14,240216,,,A*6A,51.5030746459,0.0064500002,13:48:32,24/2/2016,0,484,491.49,495,-44.63,0,8
$GPRMC,134834.000,A,5130.1844,N,00000.3880,E,3.50,112.17,240216,,,A*6B,51.5030746459,0.0064666004,13:48:34,24/2/2016,0,495,492.66,495,-50.00,0,8
$GPRMC,134835.000,A,5130.1841,N,00000.3892,E,3.31,99.02,240216,,,A*5D,51.5030670166,0.0064866008,13:48:35,24/2/2016,0,484,492.81,495,-44.14,0,8
$GPRMC,134836.000,A,5130.1839,N,00000.3904,E,2.08,87.32,240216,,,A*58,51.5030670166,0.0065066003,13:48:36,24/2/2016,0,495,493.09,495,-50.00,0,8
$GPRMC,134837.000,A,5130.1839,N,00000.3908,E,1.58,42.12,240216,,,A*58,51.5030670166,0.0065132999,13:48:36,24/2/2016,0,483,493.19,495,-43.65,0,8
$GPRMC,134838.000,A,5130.1842,N,00000.3909,E,2.30,13.42,240216,,,A*56,51.5030670166,0.0065150012,13:48:38,24/2/2016,0,495,492.77,495,-50.00,0,8
$GPRMC,134839.000,A,5130.1848,N,00000.3910,E,2.99,3.49,240216,,,A*6C,51.5030746459,0.0065165996,13:48:39,24/2/2016,72,483,492.88,495,-7.52,0,8
$GPRMC,134840.000,A,5130.1855,N,00000.3912,E,2.01,12.38,240216,,,A*5B,51.5030937194,0.0065199999,13:48:40,24/2/2016,0,495,492.95,495,-50.00,0,8
$GPRMC,134841.000,A,5130.1860,N,00000.3911,E,1.77,359.95,240216,,,A*66,51.5031013488,0.0065182995,13:48:40,24/2/2016,28,483,492.99,495,-30.47,0,8
$GPRMC,134842.000,A,5130.1867,N,00000.3909,E,1.65,358.03,240216,,,A*66,51.5031089782,0.0065150012,13:48:42,24/2/2016,0,487,492.99,495,-50.00,0,8
$GPRMC,134843.000,A,5130.1873,N,00000.3908,E,1.85,357.82,240216,,,A*6B,51.5031242370,0.0065132999,13:48:43,24/2/2016,58,482,492.86,495,-14.84,0,8
$GPRMC,134844.000,A,5130.1879,N,00000.3907,E,1.16,9.29,240216,,,A*6A,51.5031318664,0.0065116000,13:48:44,24/2/2016,0,487,492.82,495,-50.00,0,8
$GPRMC,134845.000,A,5130.1882,N,00000.3907,E,0.86,9.39,240216,,,A*66,51.5031318664,0.0065116000,13:48:44,24/2/2016,0,487,492.94,495,-50.00,0,8
$GPRMC,134846.000,A,5130.1884,N,00000.3904,E,0.71,318.80,240216,,,A*69,51.5031394958,0.0065066003,13:48:46,24/2/2016,0,488,492.86,495,-50.00,0,8
$GPRMC,134847.000,A,5130.1887,N,00000.3900,E,1.14,291.75,240216,,,A*67,51.5031394958,0.0065000000,13:48:47,24/2/2016,0,487,492.98,495,-50.00,0,8
$GPRMC,134848.000,A,5130.1891,N,00000.3896,E,1.21,310.96,240216,,,A*62,51.5031509399,0.0064933004,13:48:48,24/2/2016,0,489,492.83,495,-50.00,0,8
$GPRMC,134849.000,A,5130.1895,N,00000.3890,E,1.61,316.76,240216,,,A*6D,51.5031585693,0.0064832997,13:48:48,24/2/2016,0,485,492.99,495,-44.14,0,8
$GPRMC,134850.000,A,5130.1903,N,00000.3884,E,2.28,326.08,240216,,,A*6A,51.5031738281,0.0064733004,13:48:50,24/2/2016,0,486,492.86,495,-50.00,0,8
$GPRMC,134851.000,A,5130.1909,N,00000.3878,E,1.72,316.37,240216,,,A*61,51.5031814575,0.0064632997,13:48:51,24/2/2016,59,481,493.41,495,-16.31,0,8
$GPRMC,134852.000,A,5130.1914,N,00000.3875,E,1.81,328.44,240216,,,A*66,51.5031890869,0.0064583005,13:48:52,24/2/2016,63,479,492.63,495,-13.87,0,8
$GPRMC,134853.000,A,5130.1919,N,00000.3870,E,1.84,324.67,240216,,,A*67,51.5031967163,0.0064500002,13:48:52,24/2/2016,58,481,492.71,495,-16.80,0,8
$GPRMC,134854.000,A,5130.1927,N,00000.3865,E,2.48,328.80,240216,,,A*6F,51.5032157897,0.0064415998,13:48:54,24/2/2016,44,486,492.79,495,-22.66,0,8
$GPRMC,134855.000,A,5130.1933,N,00000.3860,E,2.54,332.15,240216,,,A*64,51.5032234191,0.0064333000,13:48:55,24/2/2016,45,485,492.91,495,-23.14,0,8
$GPRMC,134856.000,A,5130.1940,N,00000.3854,E,2.57,329.77,240216,,,A*69,51.5032310485,0.0064233007,13:48:56,24/2/2016,47,485,493.06,495,-22.66,0,8
$GPRMC,134857.000,A,5130.1946,N,00000.3849,E,2.41,331.20,240216,,,A*6E,51.5032463073,0.0064150004,13:48:56,24/2/2016,49,484,492.90,495,-20.21,0,8
$GPRMC,134858.000,A,5130.1952,N,00000.3843,E,2.44,326.40,240216,,,A*6B,51.5032539367,0.0064050006,13:48:58,24/2/2016,59,481,492.85,495,-16.31,0,8
$GPRMC,134859.000,A,5130.1958,N,00000.3838,E,2.40,332.07,240216,,,A*6E,51.5032615661,0.0063965997,13:48:59,24/2/2016,58,481,492.74,495,-16.80,0,8
$GPRMC,134900.000,A,5130.1964,N,00000.3832,E,2.48,326.27,240216,,,A*69,51.5032730102,0.0063866004,13:49:0,24/2/2016,48,484,492.61,495,-21.19,0,8
$GPRMC,134901.000,A,5130.1971,N,00000.3826,E,2.58,329.04,240216,,,A*66,51.5032882690,0.0063766002,13:49:0,24/2/2016,57,481,493.01,495,-17.29,0,8
$GPRMC,134902.000,A,5130.1977,N,00000.3820,E,2.65,329.15,240216,,,A*6B,51.5032958984,0.0063666000,13:49:2,24/2/2016,60,480,492.96,495,-16.31,0,8
$GPRMC,134903.000,A,5130.1984,N,00000.3814,E,2.65,324.73,240216,,,A*6C,51.5033035278,0.0063565998,13:49:3,24/2/2016,48,484,492.80,495,-20.70,0,8
$GPRMC,134904.000,A,5130.1990,N,00000.3807,E,2.09,319.62,240216,,,A*68,51.5033187866,0.0063450007,13:49:4,24/2/2016,57,481,492.70,495,-17.77,0,8
$GPRMC,134905.000,A,5130.1995,N,00000.3801,E,2.07,314.18,240216,,,A*64,51.5033302307,0.0063350000,13:49:4,24/2/2016,45,485,492.72,495,-23.14,0,8
$GPRMC,134906.000,A,5130.2001,N,00000.3793,E,3.10,324.29,240216,,,A*62,51.5033378601,0.0063215999,13:49:6,24/2/2016,56,481,493.00,495,-18.26,0,8
$GPRMC,134907.000,A,5130.2008,N,00000.3785,E,3.03,324.96,240216,,,A*6B,51.5033454895,0.0063083004,13:49:7,24/2/2016,56,481,492.84,495,-17.77,0,8
$GPRMC,134908.000,A,5130.2014,N,00000.3778,E,2.85,324.32,240216,,,A*6A,51.5033531188,0.0062966003,13:49:8,24/2/2016,44,485,493.00,495,-23.14,0,8
$GPRMC,134909.000,A,5130.2020,N,00000.3770,E,2.69,320.87,240216,,,A*6C,51.5033683776,0.0062832999,13:49:8,24/2/2016,59,481,492.97,495,-16.80,0,8
$GPRMC,134910.000,A,5130.2027,N,00000.3763,E,2.69,322.71,240216,,,A*6A,51.5033760070,0.0062716002,13:49:10,24/2/2016,64,479,493.53,495,-13.38,0,8
$GPRMC,134911.000,A,5130.2032,N,00000.3758,E,1.50,331.31,240216,,,A*68,51.5033836364,0.0062632999,13:49:11,24/2/2016,64,479,492.89,495,-14.36,0,8
$GPRMC,134912.000,A,5130.2037,N,00000.3752,E,2.39,319.35,240216,,,A*66,51.5033950805,0.0062533006,13:49:12,24/2/2016,44,485,492.71,495,-23.63,0,8
$GPRMC,134913.000,A,5130.2042,N,00000.3745,E,2.70,322.42,240216,,,A*66,51.5034027099,0.0062416005,13:49:12,24/2/2016,50,484,492.83,495,-19.73,0,8
$GPRMC,134914.000,A,5130.2047,N,00000.3739,E,2.16,315.22,240216,,,A*6D,51.5034103393,0.0062315998,13:49:14,24/2/2016,50,484,492.68,495,-20.21,0,8
$GPRMC,134915.000,A,5130.2052,N,00000.3732,E,2.01,321.71,240216,,,A*64,51.5034179687,0.0062199997,13:49:15,24/2/2016,58,481,492.72,495,-16.80,0,8
$GPRMC,134916.000,A,5130.2058,N,00000.3726,E,3.06,327.20,240216,,,A*6C,51.5034255981,0.0062100000,13:49:16,24/2/2016,57,481,492.87,495,-17.77,0,8
$GPRMC,134917.000,A,5130.2065,N,00000.3718,E,3.40,326.29,240216,,,A*64,51.5034408569,0.0061965999,13:49:16,24/2/2016,64,479,493.14,495,-13.87,0,8
$GPRMC,134918.000,A,5130.2075,N,00000.3708,E,2.69,324.03,240216,,,A*6B,51.5034599304,0.0061800003,13:49:18,24/2/2016,61,480,492.90,495,-15.33,0,8
$GPRMC,134919.000,A,5130.2082,N,00000.3701,E,2.62,326.80,240216,,,A*69,51.5034675598,0.0061683006,13:49:19,24/2/2016,45,485,492.65,495,-22.66,0,8
$GPRMC,134920.000,A,5130.2089,N,00000.3695,E,2.46,328.76,240216,,,A*65,51.5034828186,0.0061582999,13:49:20,24/2/2016,45,485,492.97,495,-23.63,0,8
$GPRMC,134921.000,A,5130.2095,N,00000.3688,E,2.51,322.06,240216,,,A*6E,51.5034904479,0.0061466002,13:49:20,24/2/2016,57,481,492.86,495,-17.29,0,8
$GPRMC,134922.000,A,5130.2101,N,00000.3680,E,3.22,326.01,240216,,,A*6F,51.5034980773,0.0061332998,13:49:22,24/2/2016,47,484,493.03,495,-21.68,0,8
$GPRMC,134923.000,A,5130.2108,N,00000.3671,E,2.84,321.59,240216,,,A*6E,51.5035171508,0.0061182999,13:49:23,24/2/2016,59,480,493.13,495,-15.82,0,8
$GPRMC,134924.000,A,5130.2115,N,00000.3663,E,2.71,322.69,240216,,,A*6C,51.5035247802,0.0061050004,13:49:24,24/2/2016,58,480,492.94,495,-16.31,0,8
$GPRMC,134925.000,A,5130.2121,N,00000.3656,E,2.75,326.30,240216,,,A*60,51.5035324096,0.0060933008,13:49:24,24/2/2016,47,485,492.75,495,-22.17,0,8
$GPRMC,134926.000,A,5130.2126,N,00000.3649,E,1.74,305.74,240216,,,A*69,51.5035400390,0.0060816001,13:49:26,24/2/2016,0,495,493.04,495,-50.00,0,8
$GPRMC,134927.000,A,5130.2131,N,00000.3642,E,3.34,323.56,240216,,,A*67,51.5035476684,0.0060700006,13:49:27,24/2/2016,1,494,490.94,495,-50.00,0,8
$GPRMC,134928.000,A,5130.2138,N,00000.3634,E,2.10,320.98,240216,,,A*66,51.5035629272,0.0060566000,13:49:28,24/2/2016,0,485,491.36,495,-43.16,0,8
$GPRMC,134929.000,A,5130.2144,N,00000.3628,E,3.13,328.01,240216,,,A*6B,51.5035743713,0.0060466003,13:49:28,24/2/2016,0,483,492.89,495,-44.14,0,8
$GPRMC,134930.000,A,5130.2150,N,00000.3622,E,3.52,329.34,240216,,,A*6E,51.5035820007,0.0060366001,13:49:30,24/2/2016,0,495,492.73,495,-50.00,0,8
$GPRMC,134931.000,A,5130.2158,N,00000.3615,E,2.96,330.69,240216,,,A*6A,51.5035972595,0.0060250005,13:49:31,24/2/2016,0,487,492.93,495,-50.00,0,8
$GPRMC,134932.000,A,5130.2165,N,00000.3609,E,2.44,336.17,240216,,,A*6A,51.5036048889,0.0060150003,13:49:32,24/2/2016,0,495,492.97,495,-50.00,0,8
$GPRMC,134933.000,A,5130.2171,N,00000.3604,E,2.52,325.53,240216,,,A*66,51.5036201477,0.0060066003,13:49:32,24/2/2016,0,487,492.75,495,-50.00,0,8
$GPRMC,134934.000,A,5130.2176,N,00000.3599,E,1.18,312.58,240216,,,A*63,51.5036277770,0.0059983005,13:49:34,24/2/2016,0,487,493.01,495,-50.00,0,8
$GPRMC,134935.000,A,5130.2182,N,00000.3593,E,2.16,321.60,240216,,,A*65,51.5036392211,0.0059883003,13:49:35,24/2/2016,0,484,493.10,495,-43.65,0,8
$GPRMC,134936.000,A,5130.2188,N,00000.3586,E,1.77,314.52,240216,,,A*6B,51.5036468505,0.0059766006,13:49:36,24/2/2016,0,486,493.00,495,-50.00,0,8
$GPRMC,134937.000,A,5130.2193,N,00000.3579,E,3.13,325.74,240216,,,A*66,51.5036544799,0.0059650001,13:49:36,24/2/2016,0,495,492.74,495,-50.00,0,8
$GPRMC,134938.000,A,5130.2198,N,00000.3572,E,3.00,326.89,240216,,,A*6A,51.5036621093,0.0059532999,13:49:38,24/2/2016,0,483,492.93,495,-44.63,0,8
$GPRMC,134939.000,A,5130.2205,N,00000.3564,E,3.07,329.61,240216,,,A*65,51.5036773681,0.0059399995,13:49:39,24/2/2016,0,487,492.74,495,-50.00,0,8
$GPRMC,134940.000,A,5130.2212,N,00000.3557,E,2.77,324.37,240216,,,A*65,51.5036849975,0.0059283008,13:49:40,24/2/2016,0,487,492.95,495,-50.00,0,8
$GPRMC,134941.000,A,5130.2217,N,00000.3550,E,2.65,326.09,240216,,,A*6A,51.5036964416,0.0059166007,13:49:40,24/2/2016,0,495,492.98,495,-50.00,0,8
$GPRMC,134942.000,A,5130.2224,N,00000.3542,E,2.68,322.50,240216,,,A*6F,51.5037040710,0.0059033002,13:49:42,24/2/2016,0,485,492.93,495,-44.63,0,8
$GPRMC,134943.000,A,5130.2230,N,00000.3535,E,2.23,316.74,240216,,,A*65,51.5037193298,0.0058916001,13:49:43,24/2/2016,0,495,493.04,495,-50.00,0,8
$GPRMC,134944.000,A,5130.2235,N,00000.3528,E,2.67,322.96,240216,,,A*60,51.5037269592,0.0058800001,13:49:44,24/2/2016,0,484,493.20,495,-43.65,0,8
$GPRMC,134945.000,A,5130.2241,N,00000.3521,E,3.07,325.31,240216,,,A*66,51.5037345886,0.0058683004,13:49:44,24/2/2016,0,486,492.90,495,-44.14,0,8
$GPRMC,134946.000,A,5130.2249,N,00000.3513,E,2.24,324.19,240216,,,A*67,51.5037498474,0.0058550000,13:49:46,24/2/2016,57,481,493.01,495,-17.77,0,8
$GPRMC,134947.000,A,5130.2255,N,00000.3506,E,2.37,321.75,240216,,,A*62,51.5037612915,0.0058433003,13:49:47,24/2/2016,46,485,493.60,495,-26.07,0,8
$GPRMC,134948.000,A,5130.2262,N,00000.3498,E,2.17,311.73,240216,,,A*68,51.5037689208,0.0058300008,13:49:48,24/2/2016,48,484,492.71,495,-21.19,0,8
$GPRMC,134949.000,A,5130.2267,N,00000.3490,E,2.82,323.57,240216,,,A*6F,51.5037765502,0.0058166003,13:49:48,24/2/2016,57,481,492.61,495,-17.77,0,8
$GPRMC,134950.000,A,5130.2273,N,00000.3483,E,2.10,321.88,240216,,,A*6B,51.5037918090,0.0058050003,13:49:50,24/2/2016,43,486,492.85,495,-23.63,0,8
$GPRMC,134951.000,A,5130.2278,N,00000.3476,E,2.40,321.75,240216,,,A*6C,51.5037994384,0.0057933001,13:49:51,24/2/2016,50,484,493.04,495,-25.10,0,8
$GPRMC,134952.000,A,5130.2284,N,00000.3469,E,2.47,321.00,240216,,,A*67,51.5038070678,0.0057816004,13:49:52,24/2/2016,56,481,493.33,495,-18.75,0,8
$GPRMC,134953.000,A,5130.2290,N,00000.3462,E,2.64,322.65,240216,,,A*69,51.5038185119,0.0057700004,13:49:52,24/2/2016,58,481,493.30,495,-17.29,0,8
$GPRMC,134954.000,A,5130.2296,N,00000.3455,E,2.66,322.76,240216,,,A*6C,51.5038261413,0.0057583003,13:49:54,24/2/2016,60,481,493.17,495,-16.80,0,8
$GPRMC,134955.000,A,5130.2302,N,00000.3449,E,2.44,332.62,240216,,,A*68,51.5038337707,0.0057483005,13:49:55,24/2/2016,40,486,492.89,495,-25.10,0,8
$GPRMC,134956.000,A,5130.2309,N,00000.3442,E,3.25,321.61,240216,,,A*6C,51.5038490295,0.0057365999,13:49:56,24/2/2016,44,485,492.82,495,-23.63,0,8
$GPRMC,134957.000,A,5130.2317,N,00000.3435,E,3.00,333.04,240216,,,A*65,51.5038642883,0.0057250003,13:49:56,24/2/2016,45,485,492.91,495,-23.63,0,8
$GPRMC,134958.000,A,5130.2325,N,00000.3427,E,3.68,327.69,240216,,,A*68,51.5038719177,0.0057116003,13:49:58,24/2/2016,46,485,493.07,495,-23.14,0,8
$GPRMC,134959.000,A,5130.2332,N,00000.3420,E,3.41,326.92,240216,,,A*66,51.5038909912,0.0056999998,13:49:59,24/2/2016,44,485,492.90,495,-23.14,0,8
$GPRMC,135000.000,A,5130.2340,N,00000.3413,E,3.25,328.38,240216,,,A*6B,51.5038986206,0.0056883001,13:50:0,24/2/2016,59,481,493.08,495,-17.29,0,8
$GPRMC,135001.000,A,5130.2346,N,00000.3405,E,2.90,326.16,240216,,,A*66,51.5039062500,0.0056750006,13:50:0,24/2/2016,55,482,492.99,495,-19.24,0,8
$GPRMC,135002.000,A,5130.2353,N,00000.3397,E,2.78,325.48,240216,,,A*63,51.5039215087,0.0056616001,13:50:2,24/2/2016,54,481,493.37,495,-19.24,0,8
$GPRMC,135003.000,A,5130.2359,N,00000.3390,E,2.76,326.51,240216,,,A*6A,51.5039291381,0.0056500005,13:50:3,24/2/2016,46,485,492.67,495,-22.17,0,8
$GPRMC,135004.000,A,5130.2366,N,00000.3383,E,2.71,324.96,240216,,,A*6D,51.5039482116,0.0056383008,13:50:4,24/2/2016,47,484,492.91,495,-21.19,0,8
$GPRMC,135005.000,A,5130.2372,N,00000.3375,E,2.68,322.66,240216,,,A*61,51.5039558410,0.0056250000,13:50:4,24/2/2016,41,486,492.67,495,-25.10,0,8
$GPRMC,135006.000,A,5130.2378,N,00000.3368,E,2.76,323.91,240216,,,A*62,51.5039634704,0.0056133003,13:50:6,24/2/2016,42,486,493.10,495,-24.61,0,8
$GPRMC,135007.000,A,5130.2384,N,00000.3360,E,2.73,324.47,240216,,,A*61,51.5039710998,0.0055999999,13:50:7,24/2/2016,47,485,493.15,495,-22.66,0,8
$GPRMC,135008.000,A,5130.2390,N,00000.3352,E,2.75,319.53,240216,,,A*67,51.5039787292,0.0055866003,13:50:8,24/2/2016,46,484,493.34,495,-23.14,0,8
$GPRMC,135009.000,A,5130.2396,N,00000.3344,E,2.82,321.11,240216,,,A*62,51.5039939880,0.0055733003,13:50:8,24/2/2016,43,485,493.03,495,-24.12,0,8
$GPRMC,135010.000,A,5130.2403,N,00000.3336,E,2.84,323.53,240216,,,A*66,51.5040054321,0.0055599999,13:50:10,24/2/2016,47,485,493.09,495,-21.68,0,8
$GPRMC,135011.000,A,5130.2410,N,00000.3327,E,2.81,323.53,240216,,,A*60,51.5040206909,0.0055450000,13:50:11,24/2/2016,58,480,493.05,495,-16.80,0,8
$GPRMC,135012.000,A,5130.2416,N,00000.3320,E,2.76,324.42,240216,,,A*6D,51.5040283203,0.0055333003,13:50:12,24/2/2016,45,485,492.88,495,-23.14,0,8
$GPRMC,135013.000,A,5130.2422,N,00000.3314,E,1.99,336.01,240216,,,A*6A,51.5040359497,0.0055233001,13:50:12,24/2/2016,57,481,493.06,495,-18.26,0,8
$GPRMC,135014.000,A,5130.2426,N,00000.3307,E,2.58,311.75,240216,,,A*63,51.5040435791,0.0055116004,13:50:14,24/2/2016,47,485,492.97,495,-22.66,0,8
$GPRMC,135015.000,A,5130.2431,N,00000.3299,E,2.62,322.24,240216,,,A*6F,51.5040512084,0.0054982995,13:50:15,24/2/2016,56,481,493.01,495,-17.29,0,8
$GPRMC,135016.000,A,5130.2437,N,00000.3292,E,2.63,324.05,240216,,,A*65,51.5040626525,0.0054866003,13:50:16,24/2/2016,58,481,493.03,495,-16.80,0,8
$GPRMC,135017.000,A,5130.2442,N,00000.3286,E,2.24,318.81,240216,,,A*63,51.5040702819,0.0054766006,13:50:16,24/2/2016,69,479,492.76,495,-12.40,0,8
$GPRMC,135018.000,A,5130.2446,N,00000.3278,E,2.08,306.11,240216,,,A*61,51.5040779113,0.0054633002,13:50:18,24/2/2016,47,484,493.01,495,-20.70,0,8
$GPRMC,135019.000,A,5130.2449,N,00000.3270,E,2.71,321.13,240216,,,A*6E,51.5040855407,0.0054500007,13:50:19,24/2/2016,43,485,492.52,495,-23.63,0,8
$GPRMC,135020.000,A,5130.2455,N,00000.3262,E,2.61,322.88,240216,,,A*6A,51.5040931701,0.0054365997,13:50:20,24/2/2016,40,486,492.77,495,-25.10,0,8
$GPRMC,135021.000,A,5130.2462,N,00000.3254,E,2.72,320.29,240216,,,A*61,51.5041007995,0.0054233002,13:50:20,24/2/2016,36,487,493.09,495,-28.03,0,8
$GPRMC,135022.000,A,5130.2468,N,00000.3247,E,2.64,323.11,240216,,,A*65,51.5041084289,0.0054116005,13:50:22,24/2/2016,47,485,493.41,495,-22.17,0,8
$GPRMC,135023.000,A,5130.2475,N,00000.3239,E,2.82,319.12,240216,,,A*63,51.5041275024,0.0053983001,13:50:23,24/2/2016,63,480,493.62,495,-14.84,0,8
$GPRMC,135024.000,A,5130.2481,N,00000.3231,E,2.74,319.96,240216,,,A*62,51.5041351318,0.0053850002,13:50:24,24/2/2016,47,484,493.24,495,-21.19,0,8
$GPRMC,135025.000,A,5130.2488,N,00000.3223,E,2.68,320.19,240216,,,A*69,51.5041503906,0.0053716001,13:50:24,24/2/2016,61,480,492.87,495,-15.33,0,8
$GPRMC,135026.000,A,5130.2494,N,00000.3216,E,2.75,315.36,240216,,,A*66,51.5041580200,0.0053600001,13:50:26,24/2/2016,41,486,492.52,495,-24.61,0,8
$GPRMC,135027.000,A,5130.2500,N,00000.3207,E,2.76,318.79,240216,,,A*6E,51.5041656494,0.0053450002,13:50:27,24/2/2016,54,481,492.53,495,-19.73,0,8
$GPRMC,135028.000,A,5130.2506,N,00000.3199,E,2.83,318.87,240216,,,A*68,51.5041732788,0.0053316001,13:50:28,24/2/2016,46,485,493.03,495,-22.17,0,8
$GPRMC,135029.000,A,5130.2513,N,00000.3191,E,2.82,318.64,240216,,,A*69,51.5041923522,0.0053183007,13:50:28,24/2/2016,55,481,493.23,495,-18.75,0,8
$GPRMC,135030.000,A,5130.2519,N,00000.3182,E,2.83,318.82,240216,,,A*60,51.5041999816,0.0053033008,13:50:30,24/2/2016,40,486,492.88,495,-25.10,0,8
$GPRMC,135031.000,A,5130.2525,N,00000.3174,E,2.82,318.46,240216,,,A*6E,51.5042076110,0.0052900004,13:50:31,24/2/2016,38,486,492.98,495,-26.07,0,8
$GPRMC,135032.000,A,5130.2530,N,00000.3166,E,2.82,314.25,240216,,,A*63,51.5042152404,0.0052765998,13:50:32,24/2/2016,0,495,493.07,495,-50.00,0,8
$GPRMC,135033.000,A,5130.2535,N,00000.3157,E,2.68,313.81,240216,,,A*68,51.5042228698,0.0052616000,13:50:32,24/2/2016,0,490,491.72,495,-50.00,0,8
$GPRMC,135034.000,A,5130.2539,N,00000.3148,E,2.71,314.36,240216,,,A*6E,51.5042304992,0.0052466001,13:50:34,24/2/2016,0,495,493.50,495,-50.00,0,8
$GPRMC,135035.000,A,5130.2543,N,00000.3139,E,2.89,315.75,240216,,,A*65,51.5042381286,0.0052315998,13:50:35,24/2/2016,0,495,493.96,495,-50.00,0,8
$GPRMC,135036.000,A,5130.2548,N,00000.3131,E,2.78,315.27,240216,,,A*6C,51.5042495727,0.0052183003,13:50:36,24/2/2016,0,490,493.63,495,-45.61,0,8
$GPRMC,135037.000,A,5130.2553,N,00000.3122,E,2.99,316.51,240216,,,A*68,51.5042572021,0.0052032999,13:50:36,24/2/2016,1,495,494.31,495,-50.00,0,8
$GPRMC,135038.000,A,5130.2559,N,00000.3114,E,2.56,313.76,240216,,,A*6B,51.5042648315,0.0051900000,13:50:38,24/2/2016,10,486,490.96,495,-45.61,0,8
$GPRMC,135039.000,A,5130.2563,N,00000.3106,E,2.38,317.47,240216,,,A*6E,51.5042724609,0.0051766004,13:50:39,24/2/2016,0,487,494.77,495,-50.00,0,8
$GPRMC,135040.000,A,5130.2569,N,00000.3097,E,2.79,314.29,240216,,,A*6D,51.5042800903,0.0051616001,13:50:40,24/2/2016,0,487,492.99,495,-50.00,0,8
$GPRMC,135041.000,A,5130.2575,N,00000.3091,E,1.95,337.65,240216,,,A*6F,51.5042877197,0.0051516003,13:50:40,24/2/2016,0,495,493.12,495,-50.00,0,8
$GPRMC,135042.000,A,5130.2582,N,00000.3081,E,3.96,313.86,240216,,,A*6F,51.5043067932,0.0051350002,13:50:42,24/2/2016,0,482,491.96,495,-43.16,0,8
$GPRMC,135043.000,A,5130.2589,N,00000.3069,E,3.98,309.93,240216,,,A*62,51.5043144226,0.0051150007,13:50:43,24/2/2016,0,485,492.39,495,-50.00,0,8
$GPRMC,135044.000,A,5130.2594,N,00000.3059,E,2.71,313.90,240216,,,A*64,51.5043220520,0.0050982999,13:50:44,24/2/2016,0,485,492.77,495,-50.00,0,8
$GPRMC,135045.000,A,5130.2600,N,00000.3051,E,2.71,315.88,240216,,,A*6C,51.5043296813,0.0050850005,13:50:44,24/2/2016,0,478,492.14,495,-48.54,0,8
$GPRMC,135046.000,A,5130.2604,N,00000.3044,E,2.01,316.29,240216,,,A*60,51.5043373107,0.0050732998,13:50:46,24/2/2016,1,490,489.56,495,-48.54,0,8
$GPRMC,135047.000,A,5130.2609,N,00000.3040,E,2.02,331.50,240216,,,A*60,51.5043449401,0.0050665998,13:50:47,24/2/2016,38,483,493.14,495,-25.10,0,8
$GPRMC,135048.000,A,5130.2613,N,00000.3032,E,2.28,314.80,240216,,,A*63,51.5043525695,0.0050533003,13:50:48,24/2/2016,9,493,493.66,495,-46.09,0,8
$GPRMC,135049.000,A,5130.2617,N,00000.3026,E,1.58,336.54,240216,,,A*6E,51.5043601989,0.0050432996,13:50:48,24/2/2016,0,485,492.95,495,-50.00,0,8
$GPRMC,135050.000,A,5130.2622,N,00000.3021,E,1.06,54.05,240216,,,A*5F,51.5043716430,0.0050349998,13:50:50,24/2/2016,0,491,491.60,495,-50.00,0,8
$GPRMC,135051.000,A,5130.2622,N,00000.3022,E,2.14,287.75,240216,,,A*66,51.5043716430,0.0050365996,13:50:51,24/2/2016,0,485,491.04,495,-44.63,0,8
$GPRMC,135052.000,A,5130.2624,N,00000.3010,E,3.66,290.65,240216,,,A*61,51.5043716430,0.0050166006,13:50:52,24/2/2016,42,483,489.73,495,-25.59,0,8
$GPRMC,135053.000,A,5130.2628,N,00000.3002,E,2.60,315.24,240216,,,A*61,51.5043792724,0.0050033001,13:50:52,24/2/2016,91,472,492.65,495,1.27,0,8
$GPRMC,135054.000,A,5130.2634,N,00000.3004,E,3.30,36.34,240216,,,A*5A,51.5043869018,0.0050066003,13:50:54,24/2/2016,49,483,491.11,495,-18.26,0,8
$GPRMC,135055.000,A,5130.2640,N,00000.2997,E,1.59,9.89,240216,,,A*6D,51.5044021606,0.0049950003,13:50:55,24/2/2016,44,486,491.14,495,-24.12,0,8
$GPRMC,135056.000,A,5130.2645,N,00000.2992,E,2.23,308.40,240216,,,A*67,51.5044097900,0.0049865999,13:50:56,24/2/2016,37,487,489.08,495,-28.03,0,8
$GPRMC,135057.000,A,5130.2649,N,00000.2985,E,2.75,317.61,240216,,,A*62,51.5044174194,0.0049749999,13:50:56,24/2/2016,43,484,490.68,495,-25.59,0,8
$GPRMC,135058.000,A,5130.2656,N,00000.2976,E,4.32,309.85,240216,,,A*6F,51.5044288635,0.0049600000,13:50:58,24/2/2016,24,490,491.06,495,-35.35,0,8
$GPRMC,135059.000,A,5130.2663,N,00000.2965,E,4.59,312.81,240216,,,A*69,51.5044364929,0.0049415998,13:50:59,24/2/2016,90,473,493.23,495,0.29,0,8
$GPRMC,135100.000,A,5130.2671,N,00000.2954,E,3.65,314.77,240216,,,A*62,51.5044517517,0.0049232997,13:51:0,24/2/2016,108,469,492.95,495,11.04,0,8
$GPRMC,135101.000,A,5130.2679,N,00000.2946,E,2.71,328.11,240216,,,A*63,51.5044670104,0.0049099998,13:51:0,24/2/2016,89,473,491.36,495,0.29,0,8
$GPRMC,135102.000,A,5130.2686,N,00000.2937,E,1.99,336.14,240216,,,A*69,51.5044746398,0.0048949999,13:51:2,24/2/2016,76,475,490.89,495,-7.52,0,8
$GPRMC,135103.000,A,5130.2692,N,00000.2928,E,2.90,313.39,240216,,,A*61,51.5044822692,0.0048800001,13:51:3,24/2/2016,87,473,492.66,495,-3.61,0,8
$GPRMC,135104.000,A,5130.2699,N,00000.2922,E,2.62,343.36,240216,,,A*60,51.5045013427,0.0048699998,13:51:4,24/2/2016,73,477,492.13,495,-7.03,0,8
$GPRMC,135105.000,A,5130.2705,N,00000.2916,E,2.22,317.92,240216,,,A*69,51.5045089721,0.0048600001,13:51:4,24/2/2016,43,486,490.51,495,-23.14,0,8
$GPRMC,135106.000,A,5130.2709,N,00000.2908,E,2.79,288.65,240216,,,A*68,51.5045166015,0.0048466005,13:51:6,24/2/2016,54,481,491.47,495,-18.75,0,8
$GPRMC,135107.000,A,5130.2714,N,00000.2894,E,3.46,299.94,240216,,,A*62,51.5045242309,0.0048233003,13:51:7,24/2/2016,54,481,492.04,495,-18.75,0,8
$GPRMC,135108.000,A,5130.2719,N,00000.2880,E,2.91,295.14,240216,,,A*6A,51.5045318603,0.0048000001,13:51:8,24/2/2016,49,484,492.18,495,-21.19,0,8
$GPRMC,135109.000,A,5130.2724,N,00000.2866,E,4.00,294.14,240216,,,A*62,51.5045394897,0.0047765998,13:51:8,24/2/2016,43,485,491.74,495,-24.61,0,8
$GPRMC,135110.000,A,5130.2727,N,00000.2854,E,1.84,307.59,240216,,,A*63,51.5045394897,0.0047565999,13:51:10,24/2/2016,5,494,491.47,495,-44.63,0,8
$GPRMC,135111.000,A,5130.2731,N,00000.2845,E,3.11,306.11,240216,,,A*66,51.5045509338,0.0047416000,13:51:11,24/2/2016,27,489,494.27,495,-32.42,0,8
$GPRMC,135112.000,A,5130.2738,N,00000.2835,E,2.93,307.11,240216,,,A*61,51.5045661926,0.0047250003,13:51:12,24/2/2016,46,485,493.73,495,-21.68,0,8
$GPRMC,135113.000,A,5130.2743,N,00000.2825,E,2.96,310.76,240216,,,A*6F,51.5045738220,0.0047082996,13:51:12,24/2/2016,47,484,493.46,495,-22.66,0,8
$GPRMC,135114.000,A,5130.2748,N,00000.2813,E,2.76,304.44,240216,,,A*6C,51.5045814514,0.0046883001,13:51:14,24/2/2016,61,482,493.13,495,-14.84,0,8
$GPRMC,135115.000,A,5130.2753,N,00000.2802,E,2.47,307.53,240216,,,A*60,51.5045890808,0.0046700000,13:51:15,24/2/2016,26,489,493.32,495,-32.42,0,8
$GPRMC,135116.000,A,5130.2755,N,00000.2788,E,2.23,304.20,240216,,,A*6D,51.5045890808,0.0046465997,13:51:16,24/2/2016,60,481,491.88,495,-15.82,0,8
$GPRMC,135117.000,A,5130.2761,N,00000.2776,E,3.17,301.91,240216,,,A*63,51.5045967102,0.0046266002,13:51:16,24/2/2016,36,487,493.10,495,-28.03,0,8
$GPRMC,135118.000,A,5130.2767,N,00000.2763,E,3.15,297.82,240216,,,A*60,51.5046157836,0.0046050004,13:51:18,24/2/2016,82,477,492.81,495,-2.64,0,8
$GPRMC,135119.000,A,5130.2771,N,00000.2750,E,3.23,287.08,240216,,,A*60,51.5046234130,0.0045832996,13:51:19,24/2/2016,45,486,493.26,495,-22.66,0,8
$GPRMC,135120.000,A,5130.2774,N,00000.2735,E,3.75,281.94,240216,,,A*6C,51.5046234130,0.0045583004,13:51:20,24/2/2016,48,485,493.08,495,-22.17,0,8
$GPRMC,135121.000,A,5130.2777,N,00000.2719,E,3.12,288.76,240216,,,A*64,51.5046310424,0.0045315999,13:51:20,24/2/2016,52,484,493.35,495,-18.75,0,8
$GPRMC,135122.000,A,5130.2784,N,00000.2707,E,3.07,302.99,240216,,,A*62,51.5046386718,0.0045116004,13:51:22,24/2/2016,76,478,493.46,495,-5.08,0,8
$GPRMC,135123.000,A,5130.2791,N,00000.2701,E,1.99,345.10,240216,,,A*66,51.5046539306,0.0045016002,13:51:23,24/2/2016,44,486,492.46,495,-23.14,0,8
$GPRMC,135124.000,A,5130.2794,N,00000.2699,E,1.85,324.37,240216,,,A*6B,51.5046539306,0.0044983000,13:51:24,24/2/2016,35,486,492.80,495,-29.00,0,8
$GPRMC,135125.000,A,5130.2797,N,00000.2686,E,3.27,298.61,240216,,,A*68,51.5046615600,0.0044766001,13:51:24,24/2/2016,57,481,493.29,495,-17.77,0,8
$GPRMC,135126.000,A,5130.2802,N,00000.2672,E,3.19,303.38,240216,,,A*61,51.5046730041,0.0044532999,13:51:26,24/2/2016,47,485,492.85,495,-22.17,0,8
$GPRMC,135127.000,A,5130.2808,N,00000.2657,E,3.49,310.92,240216,,,A*6A,51.5046806335,0.0044283003,13:51:27,24/2/2016,56,481,492.95,495,-17.77,0,8
$GPRMC,135128.000,A,5130.2813,N,00000.2647,E,2.62,300.65,240216,,,A*6F,51.5046882629,0.0044116001,13:51:28,24/2/2016,57,481,492.92,495,-17.77,0,8
$GPRMC,135129.000,A,5130.2817,N,00000.2641,E,1.48,326.55,240216,,,A*60,51.5046958923,0.0044016003,13:51:28,24/2/2016,49,484,493.09,495,-19.73,0,8
$GPRMC,135130.000,A,5130.2822,N,00000.2630,E,1.45,332.36,240216,,,A*65,51.5047035217,0.0043833003,13:51:30,24/2/2016,62,480,491.33,495,-14.36,0,8
$GPRMC,135131.000,A,5130.2827,N,00000.2623,E,2.07,321.02,240216,,,A*63,51.5047111511,0.0043716001,13:51:31,24/2/2016,54,481,492.26,495,-19.24,0,8
$GPRMC,135132.000,A,5130.2833,N,00000.2614,E,2.65,313.58,240216,,,A*6B,51.5047187805,0.0043566002,13:51:32,24/2/2016,46,485,493.17,495,-22.66,0,8
$GPRMC,135133.000,A,5130.2838,N,00000.2605,E,2.63,311.87,240216,,,A*67,51.5047264099,0.0043416004,13:51:32,24/2/2016,43,486,493.10,495,-24.12,0,8
$GPRMC,135134.000,A,5130.2842,N,00000.2596,E,2.57,310.89,240216,,,A*6C,51.5047378540,0.0043266000,13:51:34,24/2/2016,29,487,493.10,495,-31.93,0,8
$GPRMC,135135.000,A,5130.2847,N,00000.2585,E,2.70,308.74,240216,,,A*64,51.5047454833,0.0043083000,13:51:35,24/2/2016,36,487,493.63,495,-29.49,0,8
$GPRMC,135136.000,A,5130.2851,N,00000.2576,E,2.69,306.64,240216,,,A*6B,51.5047531127,0.0042933001,13:51:36,24/2/2016,40,486,493.54,495,-25.10,0,8
$GPRMC,135137.000,A,5130.2857,N,00000.2559,E,3.45,300.56,240216,,,A*69,51.5047607421,0.0042649998,13:51:36,24/2/2016,46,485,494.16,495,-23.63,0,8
$GPRMC,135138.000,A,5130.2860,N,00000.2551,E,2.13,307.93,240216,,,A*66,51.5047683715,0.0042515997,13:51:38,24/2/2016,57,481,493.58,495,-18.26,0,8
$GPRMC,135139.000,A,5130.2865,N,00000.2540,E,2.82,304.75,240216,,,A*61,51.5047760009,0.0042333002,13:51:39,24/2/2016,54,484,493.04,495,-17.77,0,8
$GPRMC,135140.000,A,5130.2870,N,00000.2531,E,2.84,313.09,240216,,,A*66,51.5047836303,0.0042183008,13:51:40,24/2/2016,48,483,493.17,495,-21.68,0,8
$GPRMC,135141.000,A,5130.2874,N,00000.2522,E,2.63,295.59,240216,,,A*62,51.5047950744,0.0042032999,13:51:40,24/2/2016,47,485,493.19,495,-21.68,0,8
$GPRMC,135142.000,A,5130.2878,N,00000.2511,E,2.51,306.41,240216,,,A*6E,51.5047950744,0.0041849999,13:51:42,24/2/2016,43,485,492.83,495,-23.63,0,8
$GPRMC,135143.000,A,5130.2882,N,00000.2502,E,2.41,309.85,240216,,,A*6E,51.5048027038,0.0041700000,13:51:43,24/2/2016,46,485,493.07,495,-23.14,0,8
$GPRMC,135144.000,A,5130.2886,N,00000.2493,E,2.98,300.31,240216,,,A*66,51.5048103332,0.0041550006,13:51:44,24/2/2016,47,485,493.08,495,-22.66,0,8
$GPRMC,135145.000,A,5130.2890,N,00000.2481,E,4.25,298.59,240216,,,A*6D,51.5048179626,0.0041350002,13:51:44,24/2/2016,34,487,492.99,495,-28.52,0,8
$GPRMC,135146.000,A,5130.2893,N,00000.2469,E,2.54,289.55,240216,,,A*67,51.5048179626,0.0041150002,13:51:46,24/2/2016,58,481,493.10,495,-20.70,0,8
$GPRMC,135147.000,A,5130.2895,N,00000.2458,E,3.13,282.60,240216,,,A*6D,51.5048255920,0.0040966005,13:51:47,24/2/2016,54,481,493.40,495,-19.24,0,8
$GPRMC,135148.000,A,5130.2896,N,00000.2446,E,2.67,273.25,240216,,,A*63,51.5048255920,0.0040766000,13:51:48,24/2/2016,57,481,493.11,495,-17.77,0,8
$GPRMC,135149.000,A,5130.2898,N,00000.2436,E,2.66,279.80,240216,,,A*6F,51.5048332214,0.0040600004,13:51:48,24/2/2016,46,485,492.99,495,-22.66,0,8
$GPRMC,135150.000,A,5130.2899,N,00000.2424,E,2.65,278.21,240216,,,A*6C,51.5048332214,0.0040399999,13:51:50,24/2/2016,0,488,493.09,495,-50.00,0,8
$GPRMC,135151.000,A,5130.2900,N,00000.2413,E,2.47,273.58,240216,,,A*6D,51.5048332214,0.0040216002,13:51:51,24/2/2016,0,487,491.27,495,-50.00,0,8
$GPRMC,135152.000,A,5130.2899,N,00000.2404,E,2.60,273.09,240216,,,A*68,51.5048332214,0.0040065999,13:51:52,24/2/2016,0,495,492.66,495,-50.00,0,8
$GPRMC,135153.000,A,5130.2899,N,00000.2393,E,3.00,267.66,240216,,,A*6B,51.5048332214,0.0039883003,13:51:52,24/2/2016,0,495,492.98,495,-50.00,0,8
$GPRMC,135154.000,A,5130.2899,N,00000.2381,E,3.04,284.02,240216,,,A*64,51.5048332214,0.0039683003,13:51:54,24/2/2016,0,488,493.08,495,-50.00,0,8
$GPRMC,135155.000,A,5130.2901,N,00000.2370,E,2.47,288.72,240216,,,A*66,51.5048332214,0.0039500000,13:51:55,24/2/2016,43,483,493.29,495,-23.14,0,8
$GPRMC,135156.000,A,5130.2901,N,00000.2360,E,2.06,285.67,240216,,,A*68,51.5048332214,0.0039333000,13:51:56,24/2/2016,6,483,493.04,495,-40.72,0,8
$GPRMC,135157.000,A,5130.2901,N,00000.2351,E,2.48,282.21,240216,,,A*64,51.5048332214,0.0039182996,13:51:56,24/2/2016,0,493,492.83,495,-50.00,0,8
$GPRMC,135158.000,A,5130.2901,N,00000.2339,E,2.68,281.05,240216,,,A*62,51.5048332214,0.0038983001,13:51:58,24/2/2016,0,484,492.87,495,-44.63,0,8
$GPRMC,135159.000,A,5130.2902,N,00000.2329,E,2.73,276.53,240216,,,A*60,51.5048332214,0.0038816001,13:51:59,24/2/2016,0,485,492.96,495,-45.12,0,8
$GPRMC,135200.000,A,5130.2902,N,00000.2321,E,2.15,283.53,240216,,,A*6D,51.5048332214,0.0038682999,13:52:0,24/2/2016,0,495,493.38,495,-50.00,0,8
$GPRMC,135201.000,A,5130.2901,N,00000.2308,E,2.69,280.61,240216,,,A*6D,51.5048332214,0.0038466003,13:52:0,24/2/2016,0,495,493.48,495,-50.00,0,8
$GPRMC,135202.000,A,5130.2901,N,00000.2298,E,2.45,287.42,240216,,,A*6E,51.5048332214,0.0038300001,13:52:2,24/2/2016,0,495,493.37,495,-50.00,0,8
$GPRMC,135203.000,A,5130.2902,N,00000.2288,E,2.52,279.37,240216,,,A*68,51.5048332214,0.0038132999,13:52:3,24/2/2016,0,487,492.93,495,-50.00,0,8
$GPRMC,135204.000,A,5130.2903,N,00000.2277,E,2.60,282.61,240216,,,A*68,51.5048408508,0.0037950003,13:52:4,24/2/2016,0,495,492.96,495,-50.00,0,8
$GPRMC,135205.000,A,5130.2904,N,00000.2266,E,2.61,286.87,240216,,,A*63,51.5048408508,0.0037766003,13:52:4,24/2/2016,0,495,493.07,495,-50.00,0,8
$GPRMC,135206.000,A,5130.2906,N,00000.2255,E,2.69,279.51,240216,,,A*61,51.5048408508,0.0037582998,13:52:6,24/2/2016,28,483,493.00,495,-30.47,0,8
$GPRMC,135207.000,A,5130.2907,N,00000.2243,E,2.49,280.53,240216,,,A*60,51.5048408508,0.0037383003,13:52:7,24/2/2016,0,484,492.81,495,-44.63,0,8
$GPRMC,135208.000,A,5130.2909,N,00000.2231,E,2.72,283.57,240216,,,A*6B,51.5048484802,0.0037183001,13:52:8,24/2/2016,0,495,493.23,495,-50.00,0,8
$GPRMC,135209.000,A,5130.2910,N,00000.2219,E,2.81,278.92,240216,,,A*69,51.5048484802,0.0036983001,13:52:8,24/2/2016,0,483,493.24,495,-44.14,0,8
$GPRMC,135210.000,A,5130.2911,N,00000.2209,E,2.39,280.45,240216,,,A*6F,51.5048484802,0.0036816000,13:52:10,24/2/2016,0,485,493.03,495,-45.12,0,8
$GPRMC,135211.000,A,5130.2913,N,00000.2199,E,2.24,291.48,240216,,,A*67,51.5048599243,0.0036650002,13:52:11,24/2/2016,43,486,493.78,495,-24.61,0,8
$GPRMC,135212.000,A,5130.2914,N,00000.2188,E,1.93,302.57,240216,,,A*69,51.5048599243,0.0036466002,13:52:12,24/2/2016,40,486,493.03,495,-26.07,0,8
$GPRMC,135213.000,A,5130.2916,N,00000.2177,E,2.35,290.51,240216,,,A*69,51.5048599243,0.0036283001,13:52:12,24/2/2016,43,485,493.24,495,-24.12,0,8
$GPRMC,135214.000,A,5130.2919,N,00000.2166,E,2.84,288.17,240216,,,A*60,51.5048675537,0.0036100001,13:52:14,24/2/2016,47,485,493.15,495,-22.17,0,8
$GPRMC,135215.000,A,5130.2920,N,00000.2155,E,2.74,275.68,240216,,,A*6E,51.5048675537,0.0035915999,13:52:15,24/2/2016,46,485,492.96,495,-22.17,0,8
$GPRMC,135216.000,A,5130.2920,N,00000.2143,E,3.19,265.29,240216,,,A*64,51.5048675537,0.0035715999,13:52:16,24/2/2016,57,481,493.26,495,-17.29,0,8
$GPRMC,135217.000,A,5130.2920,N,00000.2130,E,2.95,276.53,240216,,,A*6B,51.5048675537,0.0035500001,13:52:16,24/2/2016,44,485,493.11,495,-23.63,0,8
$GPRMC,135218.000,A,5130.2923,N,00000.2119,E,2.51,292.38,240216,,,A*63,51.5048751831,0.0035316002,13:52:18,24/2/2016,55,481,492.67,495,-18.75,0,8
$GPRMC,135219.000,A,5130.2924,N,00000.2108,E,2.64,280.92,240216,,,A*60,51.5048751831,0.0035133001,13:52:19,24/2/2016,54,481,493.08,495,-18.75,0,8
$GPRMC,135220.000,A,5130.2925,N,00000.2098,E,2.35,277.30,240216,,,A*67,51.5048751831,0.0034965996,13:52:20,24/2/2016,54,481,493.13,495,-19.24,0,8
$GPRMC,135221.000,A,5130.2926,N,00000.2087,E,2.51,273.33,240216,,,A*6E,51.5048751831,0.0034783003,13:52:20,24/2/2016,57,481,492.98,495,-17.29,0,8
$GPRMC,135222.000,A,5130.2926,N,00000.2076,E,2.64,278.28,240216,,,A*64,51.5048751831,0.0034600005,13:52:22,24/2/2016,58,481,493.21,495,-16.80,0,8
$GPRMC,135223.000,A,5130.2927,N,00000.2064,E,2.59,275.76,240216,,,A*6F,51.5048751831,0.0034400000,13:52:23,24/2/2016,57,481,492.98,495,-17.29,0,8
$GPRMC,135224.000,A,5130.2928,N,00000.2053,E,2.40,284.06,240216,,,A*62,51.5048828125,0.0034216001,13:52:24,24/2/2016,56,481,493.07,495,-18.26,0,8
$GPRMC,135225.000,A,5130.2930,N,00000.2042,E,2.41,289.92,240216,,,A*6B,51.5048828125,0.0034033000,13:52:24,24/2/2016,56,481,493.00,495,-18.26,0,8
