
$GPRMC,235944.800,V,,,,,0.00,0.00,050180,,,N*44,0.0000000000,0.0000000000,23:59:44,0/0/200,95,0,0.60,10,25.68,521.58,0,0,0.00
$GPGGA,235945.799,,,,,0,00,,,M,,M,,*73,0.0000000000,0.0000000000,23:59:45,0/0/200,96,0,1.27,64,26.17,514.80,0,0,0.00
$GPRMC,235945.799,V,,,,,0.00,0.00,050180,,,N*4A,0.0000000000,0.0000000000,23:59:45,5/1/2080,96,23,23.00,23,26.17,649.00,0,0,0.00
$GPRMC,235946.799,V,,,,,0.00,0.00,050180,,,N*49,0.0000000000,0.0000000000,23:59:46,5/1/2080,96,0,1.64,69,25.68,516.03,0,0,0.00
$GPGGA,235947.799,,,,,0,00,,,M,,M,,*71,0.0000000000,0.0000000000,23:59:47,5/1/2080,96,3,1.40,62,25.20,511.71,0,0,0.00
$GPRMC,235947.799,V,,,,,0.00,0.00,050180,,,N*48,0.0000000000,0.0000000000,23:59:47,5/1/2080,96,18,18.00,18,25.20,221.00,0,0,0.00
$GPGGA,235948.799,,,,,0,00,,,M,,M,,*7E,0.0000000000,0.0000000000,23:59:48,5/1/2080,93,2,1.65,67,24.71,512.65,0,0,0.00
$GPRMC,235948.799,V,,,,,0.00,0.00,050180,,,N*47,0.0000000000,0.0000000000,23:59:48,5/1/2080,94,15,15.00,15,24.71,956.00,0,0,0.00
$GPGGA,235949.799,,,,,0,00,,,M,,M,,*7F,0.0000000000,0.0000000000,23:59:49,5/1/2080,93,0,1.74,73,25.20,512.56,0,0,0.00
$GPRMC,235949.799,V,,,,,0.00,0.00,050180,,,N*46,0.0000000000,0.0000000000,23:59:49,5/1/2080,94,13,13.00,13,25.20,120.00,0,0,0.00
$GPGGA,235950.799,,,,,0,00,,,M,,M,,*77,0.0000000000,0.0000000000,23:59:50,5/1/2080,95,2,1.54,58,26.17,513.67,0,0,0.00
$GPRMC,235950.799,V,,,,,0.00,0.00,050180,,,N*4E,0.0000000000,0.0000000000,23:59:50,5/1/2080,96,15,15.00,15,26.66,987.00,0,0,0.00
$GPGGA,235951.800,,,,,0,00,,,M,,M,,*79,0.0000000000,0.0000000000,23:59:51,5/1/2080,94,1,1.65,67,26.17,512.77,0,0,0.00
$GPRMC,235951.800,V,,,,,0.00,0.00,050180,,,N*40,0.0000000000,0.0000000000,23:59:51,5/1/2080,94,13,13.00,13,26.66,840.00,0,0,0.00
$GPRMC,235952.800,V,,,,,0.00,0.00,050180,,,N*43,0.0000000000,0.0000000000,23:59:52,5/1/2080,93,1,1.63,61,25.68,513.53,0,0,0.00
$GPRMC,235953.800,V,,,,,0.00,0.00,050180,,,N*42,0.0000000000,0.0000000000,23:59:53,5/1/2080,94,0,1.48,67,26.17,513.02,0,0,0.00
$GPGGA,235954.800,,,,,0,00,,,M,,M,,*7C,0.0000000000,0.0000000000,23:59:54,5/1/2080,94,2,1.48,66,26.17,511.87,0,0,0.00
$GPRMC,235954.800,V,,,,,0.00,0.00,050180,,,N*45,0.0000000000,0.0000000000,23:59:54,5/1/2080,94,15,15.00,15,26.66,968.00,0,0,0.00
$GPGGA,235955.800,,,,,0,00,,,M,,M,,*7D,0.0000000000,0.0000000000,23:59:55,5/1/2080,94,2,1.63,60,26.17,510.39,0,0,0.00
$GPRMC,235955.800,V,,,,,0.00,0.00,050180,,,N*44,0.0000000000,0.0000000000,23:59:55,5/1/2080,94,14,14.00,14,26.17,481.00,0,0,0.00
$GPRMC,235956.800,V,,,,,0.00,0.00,050180,,,N*47,0.0000000000,0.0000000000,23:59:56,5/1/2080,94,0,1.60,61,26.17,511.26,0,0,0.00
$GPRMC,235957.800,V,,,,,0.00,0.00,050180,,,N*46,0.0000000000,0.0000000000,23:59:57,5/1/2080,94,1,1.52,56,26.17,510.32,0,0,0.00
$GPGGA,235958.800,,,,,0,00,,,M,,M,,*70,0.0000000000,0.0000000000,23:59:58,5/1/2080,94,1,1.39,54,26.17,510.25,0,0,0.00
$GPRMC,235958.800,V,,,,,0.00,0.00,050180,,,N*49,0.0000000000,0.0000000000,23:59:58,5/1/2080,94,14,14.00,14,26.17,435.00,0,0,0.00
$GPRMC,235959.800,V,,,,,0.00,0.00,050180,,,N*48,0.0000000000,0.0000000000,23:59:59,5/1/2080,94,0,1.64,57,26.17,513.64,0,0,0.00
$GPRMC,000000.800,V,,,,,0.00,0.00,060180,,,N*4A,0.0000000000,0.0000000000,0:0:0,5/1/2080,93,0,1.58,54,26.17,513.26,0,0,0.00
$GPRMC,000001.800,V,,,,,0.00,0.00,060180,,,N*4B,0.0000000000,0.0000000000,0:0:1,5/1/2080,94,0,1.33,54,25.68,513.30,0,0,0.00
$GPRMC,000002.800,V,,,,,0.00,0.00,060180,,,N*48,0.0000000000,0.0000000000,0:0:2,5/1/2080,94,0,1.55,64,25.68,513.21,0,0,0.00
$GPRMC,000003.800,V,,,,,0.00,0.00,060180,,,N*49,0.0000000000,0.0000000000,0:0:3,5/1/2080,94,0,1.48,59,25.68,512.67,0,0,0.00
$GPGGA,000004.800,,,,,0,00,,,M,,M,,*74,0.0000000000,0.0000000000,0:0:4,5/1/2080,94,3,1.55,52,25.68,511.62,0,0,0.00
$GPRMC,000004.800,V,,,,,0.00,0.00,060180,,,N*4E,0.0000000000,0.0000000000,0:0:4,6/1/2080,94,17,17.00,17,26.17,106.00,0,0,0.00
$GPGGA,000005.800,,,,,0,00,,,M,,M,,*75,0.0000000000,0.0000000000,0:0:5,6/1/2080,95,1,1.60,64,26.17,510.51,0,0,0.00
$GPRMC,000005.800,V,,,,,0.00,0.00,060180,,,N*4F,0.0000000000,0.0000000000,0:0:5,6/1/2080,95,15,15.00,15,26.17,100.00,0,0,0.00
$GPGGA,000006.800,,,,,0,00,,,M,,M,,*76,0.0000000000,0.0000000000,0:0:6,6/1/2080,95,1,1.59,63,25.68,510.18,0,0,0.00
$GPRMC,000006.800,V,,,,,0.00,0.00,060180,,,N*4C,0.0000000000,0.0000000000,0:0:6,6/1/2080,95,11,11.00,11,25.68,132.00,0,0,0.00
$GPGGA,000007.800,,,,,0,00,,,M,,M,,*77,0.0000000000,0.0000000000,0:0:7,6/1/2080,95,0,1.49,53,26.17,512.18,0,0,0.00
$GPRMC,000007.800,V,,,,,0.00,0.00,060180,,,N*4D,0.0000000000,0.0000000000,0:0:7,6/1/2080,95,12,12.00,12,26.17,112.00,0,0,0.00
$GPGGA,000008.800,,,,,0,00,,,M,,M,,*78,0.0000000000,0.0000000000,0:0:8,6/1/2080,94,0,1.23,60,25.68,510.49,0,0,0.00
$GPRMC,000008.800,V,,,,,0.00,0.00,060180,,,N*42,0.0000000000,0.0000000000,0:0:8,6/1/2080,95,11,11.00,11,26.17,114.00,0,0,0.00
$GPGGA,000009.800,,,,,0,00,,,M,,M,,*79,0.0000000000,0.0000000000,0:0:9,6/1/2080,94,1,1.21,56,25.68,511.01,0,0,0.00
$GPRMC,000009.800,V,,,,,0.00,0.00,060180,,,N*43,0.0000000000,0.0000000000,0:0:9,6/1/2080,94,15,15.00,15,26.17,117.00,0,0,0.00
$GPRMC,000010.800,V,,,,,0.00,0.00,060180,,,N*4B,0.0000000000,0.0000000000,0:0:10,6/1/2080,94,1,1.23,63,25.68,509.43,0,0,0.00
$GPRMC,000011.800,V,,,,,0.00,0.00,060180,,,N*4A,0.0000000000,0.0000000000,0:0:11,6/1/2080,94,0,1.23,54,26.17,510.07,0,0,0.00
$GPRMC,000012.800,V,,,,,0.00,0.00,060180,,,N*49,0.0000000000,0.0000000000,0:0:12,6/1/2080,94,0,1.60,64,25.68,509.33,0,0,0.00
$GPRMC,000013.800,V,,,,,0.00,0.00,060180,,,N*48,0.0000000000,0.0000000000,0:0:13,6/1/2080,94,2,1.63,55,26.17,512.74,0,0,0.00
$GPGGA,000014.800,,,,,0,00,,,M,,M,,*75,0.0000000000,0.0000000000,0:0:14,6/1/2080,95,0,1.51,60,26.17,515.03,0,0,0.00
$GPRMC,000014.800,V,,,,,0.00,0.00,060180,,,N*4F,0.0000000000,0.0000000000,0:0:14,6/1/2080,95,13,13.00,13,26.17,997.00,0,0,0.00
$GPRMC,000015.799,V,,,,,0.00,0.00,060180,,,N*41,0.0000000000,0.0000000000,0:0:15,6/1/2080,96,0,1.67,52,26.17,508.96,0,0,0.00
$GPGGA,000016.799,,,,,0,00,,,M,,M,,*78,0.0000000000,0.0000000000,0:0:16,6/1/2080,95,0,2.00,61,25.68,511.01,0,0,0.00
$GPRMC,000016.799,V,,,,,0.00,0.00,060180,,,N*42,0.0000000000,0.0000000000,0:0:16,6/1/2080,95,14,14.00,14,23.24,435.00,0,0,0.00
$GPGGA,000017.799,,,,,0,00,,,M,,M,,*79,0.0000000000,0.0000000000,0:0:17,6/1/2080,94,1,1.84,61,24.71,512.15,0,0,0.00
$GPRMC,000017.799,V,,,,,0.00,0.00,060180,,,N*43,0.0000000000,0.0000000000,0:0:17,6/1/2080,94,15,15.00,15,25.68,329.00,0,0,0.00
$GPGGA,000018.799,,,,,0,00,,,M,,M,,*76,0.0000000000,0.0000000000,0:0:18,6/1/2080,95,0,1.89,70,26.17,515.23,0,0,0.00
$GPRMC,000018.799,V,,,,,0.00,0.00,060180,,,N*4C,0.0000000000,0.0000000000,0:0:18,6/1/2080,95,14,14.00,14,26.17,188.00,0,0,0.00
$GPGGA,000019.799,,,,,0,00,,,M,,M,,*77,0.0000000000,0.0000000000,0:0:19,6/1/2080,94,2,1.77,62,26.66,514.18,0,0,0.00
$GPRMC,000019.799,V,,,,,0.00,0.00,060180,,,N*4D,0.0000000000,0.0000000000,0:0:19,6/1/2080,95,15,15.00,15,26.66,789.00,0,0,0.00
$GPRMC,000020.799,V,,,,,0.00,0.00,060180,,,N*47,0.0000000000,0.0000000000,0:0:20,6/1/2080,94,1,1.78,60,26.17,513.98,0,0,0.00
$GPRMC,000021.799,V,,,,,0.00,0.00,060180,,,N*46,0.0000000000,0.0000000000,0:0:21,6/1/2080,93,1,1.62,63,26.17,514.54,0,0,0.00
$GPGGA,000022.799,,,,,0,00,,,M,,M,,*7F,0.0000000000,0.0000000000,0:0:22,6/1/2080,93,1,1.62,56,26.17,512.67,0,0,0.00
$GPRMC,000022.799,V,,,,,0.00,0.00,060180,,,N*45,0.0000000000,0.0000000000,0:0:22,6/1/2080,93,14,14.00,14,26.17,359.00,0,0,0.00
$GPRMC,000023.365,V,,,,,0.00,0.00,060180,,,N*43,0.0000000000,0.0000000000,0:0:23,6/1/2080,93,2,2.52,60,26.17,517.44,0,0,0.00
$GPRMC,000024.365,V,,,,,0.00,0.00,060180,,,N*44,0.0000000000,0.0000000000,0:0:24,6/1/2080,92,0,1.98,68,25.68,509.82,0,0,0.00
$GPGGA,091915.087,,,,,0,00,,,M,,M,,*72,0.0000000000,0.0000000000,9:19:15,6/1/2080,93,0,1.75,65,26.17,512.68,0,0,0.00
$GPRMC,091915.087,V,,,,,0.00,0.00,080180,,,N*46,0.0000000000,0.0000000000,9:19:15,8/1/2080,93,14,14.00,14,26.17,124.00,0,0,0.00
$GPRMC,091916.087,V,,,,,0.00,0.00,080180,,,N*45,0.0000000000,0.0000000000,9:19:16,8/1/2080,92,2,2.13,61,26.17,510.89,0,0,0.00
$GPGGA,091917.087,,,,,0,00,,,M,,M,,*70,0.0000000000,0.0000000000,9:19:17,8/1/2080,92,1,2.06,64,26.17,512.58,0,0,0.00
$GPRMC,091917.087,V,,,,,0.00,0.00,080180,,,N*44,0.0000000000,0.0000000000,9:19:17,8/1/2080,92,12,12.00,12,26.66,112.00,0,0,0.00
$GPRMC,091918.087,V,,,,,0.00,0.00,080180,,,N*4B,0.0000000000,0.0000000000,9:19:18,8/1/2080,93,3,2.04,54,26.17,516.06,0,0,0.00
$GPGGA,091919.087,,,,,0,00,,,M,,M,,*7E,0.0000000000,0.0000000000,9:19:19,8/1/2080,92,0,2.07,63,26.17,510.69,0,0,0.00
$GPRMC,091919.087,V,,,,,0.00,0.00,080180,,,N*4A,0.0000000000,0.0000000000,9:19:19,8/1/2080,93,15,15.00,15,26.17,112.00,0,0,0.00
$GPRMC,091920.087,V,,,,,0.00,0.00,080180,,,N*40,0.0000000000,0.0000000000,9:19:20,8/1/2080,92,5,2.15,70,26.17,511.42,0,0,0.00
$GPRMC,091921.087,V,,,,,0.00,0.00,080180,,,N*41,0.0000000000,0.0000000000,9:19:21,8/1/2080,92,0,1.64,62,26.17,511.54,0,0,0.00
$GPGGA,091922.087,,,,,0,00,,,M,,M,,*76,0.0000000000,0.0000000000,9:19:22,8/1/2080,93,1,1.48,64,26.17,512.00,0,0,0.00
$GPRMC,091922.087,V,,,,,0.00,0.00,080180,,,N*42,0.0000000000,0.0000000000,9:19:22,8/1/2080,92,14,14.00,14,26.66,472.00,0,0,0.00
$GPGGA,091923.087,,,,,0,00,,,M,,M,,*77,0.0000000000,0.0000000000,9:19:23,8/1/2080,92,1,1.72,61,26.17,513.09,0,0,0.00
$GPRMC,091923.087,V,,,,,0.00,0.00,080180,,,N*43,0.0000000000,0.0000000000,9:19:23,8/1/2080,93,13,13.00,13,26.17,122.00,0,0,0.00
$GPRMC,091924.087,V,,,,,0.00,0.00,080180,,,N*44,0.0000000000,0.0000000000,9:19:24,8/1/2080,92,1,4.36,63,25.68,504.00,0,0,1157.27
$GPRMC,091925.087,V,,,,,0.00,0.00,080180,,,N*45,0.0000000000,0.0000000000,9:19:25,8/1/2080,92,0,2.04,65,26.17,512.08,0,0,1157.27
$GPGGA,091926.087,,,,,0,00,,,M,,M,,*72,0.0000000000,0.0000000000,9:19:26,8/1/2080,92,0,1.40,70,26.17,512.45,0,0,1157.27
$GPRMC,091926.087,V,,,,,0.00,0.00,080180,,,N*46,0.0000000000,0.0000000000,9:19:26,8/1/2080,93,14,14.00,14,26.17,726.00,0,0,1157.27
$GPGGA,091927.087,,,,,0,00,,,M,,M,,*73,0.0000000000,0.0000000000,9:19:27,8/1/2080,93,1,1.86,62,25.68,508.75,0,0,1157.27
$GPRMC,091927.087,V,,,,,0.00,0.00,080180,,,N*47,0.0000000000,0.0000000000,9:19:27,8/1/2080,92,15,15.00,15,26.17,101.00,0,0,1157.27
$GPRMC,091928.087,V,,,,,0.00,0.00,080180,,,N*48,0.0000000000,0.0000000000,9:19:28,8/1/2080,93,1,1.86,61,26.17,511.32,0,0,1157.27
$GPRMC,091929.087,V,,,,,0.00,0.00,080180,,,N*49,0.0000000000,0.0000000000,9:19:29,8/1/2080,92,0,1.59,58,25.68,516.19,0,0,1157.27
$GPRMC,091930.087,V,,,,,0.00,0.00,080180,,,N*41,0.0000000000,0.0000000000,9:19:30,8/1/2080,93,0,1.77,69,26.17,515.01,0,0,1157.27
$GPRMC,091931.087,V,,,,,0.00,0.00,230816,,,N*4F,0.0000000000,0.0000000000,9:19:31,23/8/2016,93,0,2.02,91,26.17,512.45,0,0,1157.27
$GPRMC,091932.087,V,,,,,0.00,0.00,230816,,,N*4C,0.0000000000,0.0000000000,9:19:32,23/8/2016,93,2,4.58,68,26.17,509.92,0,0,1157.27
$GPRMC,091933.087,V,,,,,0.00,0.00,230816,,,N*4D,0.0000000000,0.0000000000,9:19:33,23/8/2016,93,4,4.50,59,26.17,507.19,0,0,1157.27
$GPRMC,091934.087,V,,,,,0.00,0.00,230816,,,N*4A,0.0000000000,0.0000000000,9:19:34,23/8/2016,93,2,4.25,61,26.17,509.22,0,0,1157.27
$GPRMC,091935.087,V,,,,,0.00,0.00,230816,,,N*4B,0.0000000000,0.0000000000,9:19:35,23/8/2016,93,4,4.80,56,26.17,510.65,0,0,1157.27
$GPRMC,091936.087,V,,,,,0.00,0.00,230816,,,N*48,0.0000000000,0.0000000000,9:19:36,23/8/2016,92,4,5.20,60,26.17,509.74,0,0,1157.27
$GPRMC,091937.087,V,,,,,0.00,0.00,230816,,,N*49,0.0000000000,0.0000000000,9:19:37,23/8/2016,93,8,4.14,56,26.66,509.35,0,0,1157.27
$GPRMC,091938.087,V,,,,,0.00,0.00,230816,,,N*46,0.0000000000,0.0000000000,9:19:38,23/8/2016,93,5,5.32,58,26.17,510.78,0,0,1157.27
$GPRMC,091939.087,V,,,,,0.00,0.00,230816,,,N*47,0.0000000000,0.0000000000,9:19:39,23/8/2016,93,3,4.64,77,26.66,508.09,0,0,1157.27
$GPRMC,091940.087,V,,,,,0.00,0.00,230816,,,N*49,0.0000000000,0.0000000000,9:19:40,23/8/2016,93,5,4.49,64,26.17,511.26,0,0,1157.27
$GPRMC,091941.087,V,,,,,0.00,0.00,230816,,,N*48,0.0000000000,0.0000000000,9:19:41,23/8/2016,93,0,4.49,66,26.66,509.91,0,0,1157.27
$GPRMC,091942.087,V,,,,,0.00,0.00,230816,,,N*4B,0.0000000000,0.0000000000,9:19:42,23/8/2016,93,1,4.78,69,26.17,507.75,0,0,1157.27
$GPRMC,091943.087,V,,,,,0.00,0.00,230816,,,N*4A,0.0000000000,0.0000000000,9:19:43,23/8/2016,93,5,4.82,69,26.66,508.86,0,0,1157.27
$GPRMC,091944.087,V,,,,,0.00,0.00,230816,,,N*4D,0.0000000000,0.0000000000,9:19:44,23/8/2016,92,4,4.25,68,26.66,511.37,0,0,1157.27
$GPRMC,091945.087,V,,,,,0.00,0.00,230816,,,N*4C,0.0000000000,0.0000000000,9:19:45,23/8/2016,93,0,3.99,57,26.66,509.61,0,0,1157.27
$GPGGA,091946.087,,,,,0,00,,,M,,M,,*74,0.0000000000,0.0000000000,9:19:46,23/8/2016,94,3,3.54,60,26.17,511.35,0,0,1157.27
$GPRMC,091946.087,V,,,,,0.00,0.00,230816,,,N*4F,0.0000000000,0.0000000000,9:19:46,23/8/2016,93,15,15.00,15,26.66,637.00,0,0,1157.27
$GPRMC,091947.087,V,,,,,0.00,0.00,230816,,,N*4E,0.0000000000,0.0000000000,9:19:47,23/8/2016,93,2,1.32,56,26.66,509.70,0,0,1157.27
$GPRMC,091948.087,V,,,,,0.00,0.00,230816,,,N*41,0.0000000000,0.0000000000,9:19:48,23/8/2016,93,1,1.53,59,26.17,509.44,0,0,1157.27
$GPRMC,091949.087,V,,,,,0.00,0.00,230816,,,N*40,0.0000000000,0.0000000000,9:19:49,23/8/2016,93,1,1.47,68,26.17,507.86,0,0,1157.27
$GPGGA,091950.087,,,,,0,00,,,M,,M,,*73,0.0000000000,0.0000000000,9:19:50,23/8/2016,93,1,2.22,68,26.17,508.41,0,0,1157.27
$GPRMC,091950.087,V,,,,,0.00,0.00,230816,,,N*48,0.0000000000,0.0000000000,9:19:50,23/8/2016,93,15,15.00,15,26.66,224.00,0,0,1157.27
$GPRMC,091951.087,V,,,,,0.00,0.00,230816,,,N*49,0.0000000000,0.0000000000,9:19:51,23/8/2016,93,2,2.07,60,26.17,508.71,0,0,1157.27
$GPRMC,091952.087,V,,,,,0.00,0.00,230816,,,N*4A,0.0000000000,0.0000000000,9:19:52,23/8/2016,93,0,1.73,63,26.17,511.93,0,0,1157.27
$GPGGA,091953.087,,,,,0,00,,,M,,M,,*70,0.0000000000,0.0000000000,9:19:53,23/8/2016,93,3,2.12,61,25.68,510.16,0,0,1157.27
$GPRMC,091953.087,V,,,,,0.00,0.00,230816,,,N*4B,0.0000000000,0.0000000000,9:19:53,23/8/2016,93,14,14.00,14,26.17,963.00,0,0,1157.27
$GPRMC,091954.087,V,,,,,0.00,0.00,230816,,,N*4C,0.0000000000,0.0000000000,9:19:54,23/8/2016,93,2,2.34,66,26.17,509.78,0,0,694.35
$GPGGA,091955.087,,,,,0,00,,,M,,M,,*76,0.0000000000,0.0000000000,9:19:55,23/8/2016,93,6,33.74,54,26.17,544.05,0,0,694.35
$GPRMC,091955.087,V,,,,,0.00,0.00,230816,,,N*4D,0.0000000000,0.0000000000,9:19:55,23/8/2016,93,20,20.00,20,26.17,121.00,0,0,694.35
$GPGGA,091956.087,,,,,0,00,,,M,,M,,*75,0.0000000000,0.0000000000,9:19:56,23/8/2016,93,3,2.36,58,26.17,514.79,0,0,694.35
$GPRMC,091956.087,V,,,,,0.00,0.00,230816,,,N*4E,0.0000000000,0.0000000000,9:19:56,23/8/2016,93,15,15.00,15,26.17,963.00,0,0,694.35
$GPRMC,091957.087,V,,,,,0.00,0.00,230816,,,N*4F,0.0000000000,0.0000000000,9:19:57,23/8/2016,93,9,2.26,56,26.17,512.21,0,0,694.35
$GPRMC,091958.087,V,,,,,0.00,0.00,230816,,,N*40,0.0000000000,0.0000000000,9:19:58,23/8/2016,93,7,2.06,61,26.17,513.71,0,0,694.35
$GPRMC,091959.087,V,,,,,0.00,0.00,230816,,,N*41,0.0000000000,0.0000000000,9:19:59,23/8/2016,93,6,2.59,61,26.17,514.13,0,0,694.35
$GPGGA,092000.087,,,,,0,00,,,M,,M,,*7C,0.0000000000,0.0000000000,9:20:0,23/8/2016,93,4,2.21,62,26.17,512.90,0,0,694.35
$GPRMC,092000.087,V,,,,,0.00,0.00,230816,,,N*47,0.0000000000,0.0000000000,9:20:0,23/8/2016,93,15,15.00,15,26.17,784.00,0,0,694.35
$GPGGA,092001.087,,,,,0,00,,,M,,M,,*7D,0.0000000000,0.0000000000,9:20:1,23/8/2016,93,0,1.99,58,26.17,510.60,0,0,694.35
$GPRMC,092001.087,V,,,,,0.00,0.00,230816,,,N*46,0.0000000000,0.0000000000,9:20:1,23/8/2016,93,11,11.00,11,26.17,242.00,0,0,694.35
$GPRMC,092002.087,V,,,,,0.00,0.00,230816,,,N*45,0.0000000000,0.0000000000,9:20:2,23/8/2016,93,7,2.23,62,26.17,514.20,0,0,694.35
$GPGGA,092003.087,,,,,0,00,,,M,,M,,*7F,0.0000000000,0.0000000000,9:20:3,23/8/2016,93,0,2.13,53,26.17,513.59,0,0,694.35
$GPRMC,092003.087,V,,,,,0.00,0.00,230816,,,N*44,0.0000000000,0.0000000000,9:20:3,23/8/2016,93,14,14.00,14,26.17,288.00,0,0,694.35
$GPGGA,092004.087,,,,,0,00,,,M,,M,,*78,0.0000000000,0.0000000000,9:20:4,23/8/2016,93,0,2.39,55,26.17,512.85,0,0,694.35
$GPRMC,092004.087,V,,,,,0.00,0.00,230816,,,N*43,0.0000000000,0.0000000000,9:20:4,23/8/2016,93,17,17.00,17,26.17,977.00,0,0,694.35
$GPGGA,092005.087,,,,,0,00,,,M,,M,,*79,0.0000000000,0.0000000000,9:20:5,23/8/2016,93,3,2.18,74,26.17,513.33,0,0,694.35
$GPRMC,092005.087,V,,,,,0.00,0.00,230816,,,N*42,0.0000000000,0.0000000000,9:20:5,23/8/2016,93,23,23.00,23,26.17,999.00,0,0,694.35
$GPRMC,092006.087,V,,,,,0.00,0.00,230816,,,N*41,0.0000000000,0.0000000000,9:20:6,23/8/2016,93,0,2.85,70,26.17,510.67,0,0,694.35
$GPGGA,092007.087,,,,,0,00,,,M,,M,,*7B,0.0000000000,0.0000000000,9:20:7,23/8/2016,93,1,1.93,61,26.17,509.25,0,0,694.35
$GPRMC,092007.087,V,,,,,0.00,0.00,230816,,,N*40,0.0000000000,0.0000000000,9:20:7,23/8/2016,93,13,13.00,13,26.17,147.00,0,0,694.35
$GPRMC,092008.087,V,,,,,0.00,0.00,230816,,,N*4F,0.0000000000,0.0000000000,9:20:8,23/8/2016,93,0,1.62,61,26.17,511.59,0,0,694.35
$GPRMC,092009.087,V,,,,,0.00,0.00,230816,,,N*4E,0.0000000000,0.0000000000,9:20:9,23/8/2016,93,1,1.48,55,26.17,510.64,0,0,694.35
$GPGGA,092010.087,,,,,0,00,,,M,,M,,*7D,0.0000000000,0.0000000000,9:20:10,23/8/2016,92,0,1.67,59,26.66,510.71,0,0,694.35
$GPRMC,092010.087,V,,,,,0.00,0.00,230816,,,N*46,0.0000000000,0.0000000000,9:20:10,23/8/2016,93,13,13.00,13,26.66,250.00,0,0,694.35
$GPRMC,092011.087,V,,,,,0.00,0.00,230816,,,N*47,0.0000000000,0.0000000000,9:20:11,23/8/2016,93,0,1.56,57,26.17,515.18,0,0,694.35
$GPGGA,092012.087,,,,,0,00,,,M,,M,,*7F,0.0000000000,0.0000000000,9:20:12,23/8/2016,93,2,1.42,58,26.17,514.01,0,0,694.35
$GPRMC,092012.087,V,,,,,0.00,0.00,230816,,,N*44,0.0000000000,0.0000000000,9:20:12,23/8/2016,93,13,13.00,13,26.66,975.00,0,0,694.35
$GPRMC,092013.087,V,,,,,0.00,0.00,230816,,,N*45,0.0000000000,0.0000000000,9:20:13,23/8/2016,93,0,2.10,61,26.17,512.47,0,0,694.35
$GPRMC,092014.087,V,,,,,0.00,0.00,230816,,,N*42,0.0000000000,0.0000000000,9:20:14,23/8/2016,93,4,2.24,56,26.17,514.36,0,0,694.35
$GPRMC,092015.087,V,,,,,0.00,0.00,230816,,,N*43,0.0000000000,0.0000000000,9:20:15,23/8/2016,93,4,2.17,64,26.17,512.00,0,0,694.35
$GPGGA,092016.087,,,,,0,00,,,M,,M,,*7B,0.0000000000,0.0000000000,9:20:16,23/8/2016,93,4,2.12,52,26.17,512.90,0,0,694.35
$GPRMC,092016.087,V,,,,,0.00,0.00,230816,,,N*40,0.0000000000,0.0000000000,9:20:16,23/8/2016,93,17,17.00,17,26.17,142.00,0,0,694.35
$GPRMC,092017.087,V,,,,,0.00,0.00,230816,,,N*41,0.0000000000,0.0000000000,9:20:17,23/8/2016,93,2,2.37,66,26.66,511.09,0,0,694.35
$GPGGA,092018.087,,,,,0,00,,,M,,M,,*75,0.0000000000,0.0000000000,9:20:18,23/8/2016,93,2,2.45,72,26.17,509.43,0,0,694.35
$GPRMC,092018.087,V,,,,,0.00,0.00,230816,,,N*4E,0.0000000000,0.0000000000,9:20:18,23/8/2016,93,13,13.00,13,26.66,113.00,0,0,694.35
$GPGGA,092019.087,,,,,0,00,,,M,,M,,*74,0.0000000000,0.0000000000,9:20:19,23/8/2016,93,4,2.23,57,26.17,513.72,0,0,694.35
$GPRMC,092019.087,V,,,,,0.00,0.00,230816,,,N*4F,0.0000000000,0.0000000000,9:20:19,23/8/2016,94,14,14.00,14,26.66,978.00,0,0,694.35
$GPRMC,092020.087,V,,,,,0.00,0.00,230816,,,N*45,0.0000000000,0.0000000000,9:20:20,23/8/2016,93,6,2.68,61,26.17,512.64,0,0,694.35
$GPGGA,092021.087,,,,,0,00,,,M,,M,,*7F,0.0000000000,0.0000000000,9:20:21,23/8/2016,93,1,2.23,59,26.17,509.52,0,0,694.35
$GPRMC,092021.087,V,,,,,0.00,0.00,230816,,,N*44,0.0000000000,0.0000000000,9:20:21,23/8/2016,94,15,15.00,15,26.66,152.00,0,0,694.35
$GPRMC,092022.087,V,,,,,0.00,0.00,230816,,,N*47,0.0000000000,0.0000000000,9:20:22,23/8/2016,94,4,2.41,56,26.17,515.39,0,0,694.35
$GPGGA,092023.087,,,,,0,00,,,M,,M,,*7D,0.0000000000,0.0000000000,9:20:23,23/8/2016,93,2,1.46,61,26.17,508.03,0,0,694.35
$GPRMC,092023.087,V,,,,,0.00,0.00,230816,,,N*46,0.0000000000,0.0000000000,9:20:23,23/8/2016,93,11,11.00,11,26.66,508.00,0,0,694.35
$GPRMC,092024.087,V,,,,,0.00,0.00,230816,,,N*41,0.0000000000,0.0000000000,9:20:24,23/8/2016,93,2,1.56,54,26.17,506.53,0,0,694.35
$GPRMC,092025.087,V,,,,,0.00,0.00,230816,,,N*40,0.0000000000,0.0000000000,9:20:25,23/8/2016,93,1,3.89,67,26.17,509.55,0,0,1121.52
$GPGGA,092026.087,,,,,0,00,,,M,,M,,*78,0.0000000000,0.0000000000,9:20:26,23/8/2016,93,1,1.95,59,26.17,507.02,0,0,1121.52
$GPRMC,092026.087,V,,,,,0.00,0.00,230816,,,N*43,0.0000000000,0.0000000000,9:20:26,23/8/2016,94,12,12.00,12,26.66,555.00,0,0,1121.52
$GPRMC,092027.087,V,,,,,0.00,0.00,230816,,,N*42,0.0000000000,0.0000000000,9:20:27,23/8/2016,94,2,1.41,52,26.66,506.45,0,0,1121.52
$GPGGA,092028.087,,,,,0,00,,,M,,M,,*76,0.0000000000,0.0000000000,9:20:28,23/8/2016,94,2,1.49,59,26.17,506.71,0,0,1121.52
$GPRMC,092028.087,V,,,,,0.00,0.00,230816,,,N*4D,0.0000000000,0.0000000000,9:20:28,23/8/2016,94,13,13.00,13,26.66,556.00,0,0,1121.52
$GPRMC,092029.087,V,,,,,0.00,0.00,230816,,,N*4C,0.0000000000,0.0000000000,9:20:29,23/8/2016,94,0,1.46,58,26.17,506.90,0,0,1121.52
$GPRMC,092030.087,V,,,,,0.00,0.00,230816,,,N*44,0.0000000000,0.0000000000,9:20:30,23/8/2016,94,13,13.00,13,26.66,532.00,0,0,0.00
$GPGGA,092031.087,,,,,0,00,,,M,,M,,*7E,0.0000000000,0.0000000000,9:20:31,23/8/2016,94,0,1.41,63,26.17,505.77,0,0,0.00
$GPRMC,092031.087,V,,,,,0.00,0.00,230816,,,N*45,0.0000000000,0.0000000000,9:20:31,23/8/2016,94,11,11.00,11,26.17,504.00,0,0,0.00
$GPGGA,092032.087,,,,,0,00,,,M,,M,,*7D,0.0000000000,0.0000000000,9:20:32,23/8/2016,93,1,1.33,61,26.66,506.61,0,0,0.00
$GPRMC,092032.087,V,,,,,0.00,0.00,230816,,,N*46,0.0000000000,0.0000000000,9:20:32,23/8/2016,94,13,13.00,13,26.66,549.00,0,0,0.00
$GPGGA,092033.087,,,,,0,00,,,M,,M,,*7C,0.0000000000,0.0000000000,9:20:33,23/8/2016,94,0,1.20,57,26.17,506.22,0,0,0.00
$GPRMC,092033.087,V,,,,,0.00,0.00,230816,,,N*47,0.0000000000,0.0000000000,9:20:33,23/8/2016,94,11,11.00,11,26.66,544.00,0,0,0.00
$GPGGA,092034.087,,,,,0,00,,,M,,M,,*7B,0.0000000000,0.0000000000,9:20:34,23/8/2016,94,0,1.37,62,26.17,506.59,0,0,0.00
$GPRMC,092034.087,V,,,,,0.00,0.00,230816,,,N*40,0.0000000000,0.0000000000,9:20:34,23/8/2016,93,12,12.00,12,26.17,531.00,0,0,0.00
$GPGGA,092035.087,,,,,0,00,,,M,,M,,*7A,0.0000000000,0.0000000000,9:20:35,23/8/2016,93,1,1.35,61,26.17,506.27,0,0,0.00
$GPRMC,092035.087,V,,,,,0.00,0.00,230816,,,N*41,0.0000000000,0.0000000000,9:20:35,23/8/2016,93,11,11.00,11,26.17,538.00,0,0,0.00
$GPGGA,092036.087,,,,,0,00,,,M,,M,,*79,0.0000000000,0.0000000000,9:20:36,23/8/2016,94,0,1.57,63,26.17,506.66,0,0,0.00
$GPRMC,092036.087,V,,,,,0.00,0.00,230816,,,N*42,0.0000000000,0.0000000000,9:20:36,23/8/2016,93,14,14.00,14,26.17,544.00,0,0,0.00
$GPRMC,092037.083,V,,,,,0.00,0.00,230816,,,N*47,0.0000000000,0.0000000000,9:20:37,23/8/2016,93,0,1.54,56,26.17,506.60,0,0,0.00
$GPGGA,092037.303,,,,,0,00,,,M,,M,,*77,0.0000000000,0.0000000000,9:20:37,23/8/2016,93,1,8.61,65,26.17,515.84,0,0,0.00
$GPRMC,092037.303,V,,,,,0.00,0.00,230816,,,N*4C,0.0000000000,0.0000000000,9:20:37,23/8/2016,94,13,13.00,13,26.66,531.00,0,0,0.00
$GPRMC,092038.303,V,,,,,0.00,0.00,230816,,,N*43,0.0000000000,0.0000000000,9:20:38,23/8/2016,93,0,1.46,62,26.17,506.78,0,0,0.00
$GPGGA,092039.303,,,,,0,00,,,M,,M,,*79,0.0000000000,0.0000000000,9:20:39,23/8/2016,95,3,1.58,65,26.17,506.58,0,0,0.00
$GPRMC,092039.303,V,,,,,0.00,0.00,230816,,,N*42,0.0000000000,0.0000000000,9:20:39,23/8/2016,95,14,14.00,14,26.66,520.00,0,0,0.00
$GPGGA,092040.303,,,,,0,00,,,M,,M,,*77,0.0000000000,0.0000000000,9:20:40,23/8/2016,96,1,1.59,64,26.17,506.13,0,0,0.00
$GPRMC,092040.303,V,,,,,0.00,0.00,230816,,,N*4C,0.0000000000,0.0000000000,9:20:40,23/8/2016,96,15,15.00,15,26.66,509.00,0,0,0.00
$GPGGA,092041.303,,,,,0,00,,,M,,M,,*76,0.0000000000,0.0000000000,9:20:41,23/8/2016,94,0,1.49,60,26.17,506.28,0,0,0.00
$GPRMC,092041.303,V,,,,,0.00,0.00,230816,,,N*4D,0.0000000000,0.0000000000,9:20:41,23/8/2016,94,13,13.00,13,26.66,527.00,0,0,0.00
$GPGGA,092042.303,,,,,0,00,,,M,,M,,*75,0.0000000000,0.0000000000,9:20:42,23/8/2016,94,1,1.52,59,26.17,506.82,0,0,0.00
$GPRMC,092042.303,V,,,,,0.00,0.00,230816,,,N*4E,0.0000000000,0.0000000000,9:20:42,23/8/2016,94,27,27.00,27,26.17,566.00,0,0,0.00
$GPRMC,092043.083,V,,,,,0.00,0.00,230816,,,N*44,0.0000000000,0.0000000000,9:20:43,23/8/2016,94,2,2.03,66,26.17,506.90,0,0,0.00
$GPGGA,092043.303,,,,,0,00,,,M,,M,,*74,0.0000000000,0.0000000000,9:20:43,23/8/2016,94,1,8.25,69,26.17,514.19,0,0,0.00
$GPRMC,092043.303,V,,,,,0.00,0.00,230816,,,N*4F,0.0000000000,0.0000000000,9:20:43,23/8/2016,94,12,12.00,12,26.66,523.00,0,0,0.00
$GPRMC,092044.303,V,,,,,0.00,0.00,230816,,,N*48,0.0000000000,0.0000000000,9:20:44,23/8/2016,94,1,1.65,62,26.17,506.72,0,0,0.00
$GPRMC,092045.303,V,,,,,0.00,0.00,230816,,,N*49,0.0000000000,0.0000000000,9:20:45,23/8/2016,94,0,1.46,56,26.17,506.62,0,0,0.00
$GPRMC,092046.303,V,,,,,0.00,0.00,230816,,,N*4A,0.0000000000,0.0000000000,9:20:46,23/8/2016,94,1,1.54,60,26.17,506.54,0,0,0.00
$GPGGA,092047.303,,,,,0,00,,,M,,M,,*70,0.0000000000,0.0000000000,9:20:47,23/8/2016,94,1,1.53,66,26.17,506.61,0,0,0.00
$GPRMC,092047.303,V,,,,,0.00,0.00,230816,,,N*4B,0.0000000000,0.0000000000,9:20:47,23/8/2016,94,15,15.00,15,26.17,551.00,0,0,0.00
$GPGGA,092048.303,,,,,0,00,,,M,,M,,*7F,0.0000000000,0.0000000000,9:20:48,23/8/2016,94,1,1.60,54,26.66,506.80,0,0,0.00
$GPRMC,092048.303,V,,,,,0.00,0.00,230816,,,N*44,0.0000000000,0.0000000000,9:20:48,23/8/2016,94,14,14.00,14,26.17,562.00,0,0,0.00
$GPRMC,092049.083,V,,,,,0.00,0.00,230816,,,N*4E,0.0000000000,0.0000000000,9:20:49,23/8/2016,94,2,2.07,64,26.17,507.14,0,0,0.00
$GPGGA,092049.303,,,,,0,00,,,M,,M,,*7E,0.0000000000,0.0000000000,9:20:49,23/8/2016,94,1,8.25,63,26.17,515.69,0,0,0.00
$GPRMC,092049.303,V,,,,,0.00,0.00,230816,,,N*45,0.0000000000,0.0000000000,9:20:49,23/8/2016,94,15,15.00,15,26.66,552.00,0,0,0.00
$GPGGA,092050.303,,,,,0,00,,,M,,M,,*76,0.0000000000,0.0000000000,9:20:50,23/8/2016,94,1,2.08,55,26.17,506.91,0,0,0.00
$GPRMC,092050.303,V,,,,,0.00,0.00,230816,,,N*4D,0.0000000000,0.0000000000,9:20:50,23/8/2016,94,12,12.00,12,26.17,550.00,0,0,0.00
$GPRMC,092051.303,V,,,,,0.00,0.00,230816,,,N*4C,0.0000000000,0.0000000000,9:20:51,23/8/2016,95,3,1.45,60,26.17,506.27,0,0,0.00
$GPGGA,092052.303,,,,,0,00,,,M,,M,,*74,0.0000000000,0.0000000000,9:20:52,23/8/2016,98,0,1.33,56,26.66,506.50,0,0,0.00
$GPRMC,092052.303,V,,,,,0.00,0.00,230816,,,N*4F,0.0000000000,0.0000000000,9:20:52,23/8/2016,100,11,11.00,11,26.17,557.00,0,0,0.00
$GPRMC,092053.303,V,,,,,0.00,0.00,230816,,,N*4E,0.0000000000,0.0000000000,9:20:53,23/8/2016,96,2,1.37,58,26.66,506.60,0,0,0.00
$GPRMC,092054.303,V,,,,,0.00,0.00,230816,,,N*49,0.0000000000,0.0000000000,9:20:54,23/8/2016,93,1,1.67,58,26.17,506.06,0,0,0.00
$GPRMC,092055.081,V,,,,,0.00,0.00,230816,,,N*41,0.0000000000,0.0000000000,9:20:55,23/8/2016,94,2,1.82,56,26.17,506.12,0,0,0.00
$GPRMC,092055.300,V,,,,,0.30,307.38,230816,,,N*47,0.0000000000,0.0000000000,9:20:55,23/8/2016,94,0,4.41,63,26.66,509.31,0,0,0.00
$GPRMC,092056.300,V,,,,,0.75,304.55,230816,,,N*4D,0.0000000000,0.0000000000,9:20:56,23/8/2016,94,2,5.32,65,26.17,506.82,0,0,0.00
$GPRMC,092058.000,V,,,,,0.11,226.19,230816,,,N*4B,0.0000000000,0.0000000000,9:20:58,23/8/2016,94,2,3.05,66,26.66,506.13,0,0,0.00
$GPRMC,092059.000,A,5131.2098,N,00001.7036,W,0.14,94.66,230816,,,A*4B,51.5201644897,-0.0283933019,9:20:59,23/8/2016,94,8,4.53,54,26.17,506.37,0,0,0.00
$GPRMC,092100.000,A,5131.2098,N,00001.7041,W,0.05,263.27,230816,,,A*79,51.5201644897,-0.0284016017,9:21:0,23/8/2016,94,2,3.72,60,26.17,506.62,0,0,0.00
$GPRMC,092101.000,A,5131.2099,N,00001.7047,W,0.05,205.06,230816,,,A*7C,51.5201644897,-0.0284116001,9:21:1,23/8/2016,93,6,4.64,74,26.17,506.57,0,0,0.00
$GPRMC,092101.206,A,5131.2099,N,00001.7046,W,0.09,175.24,230816,,,A*71,51.5201644897,-0.0284100008,9:21:1,23/8/2016,94,7,8.82,58,26.66,509.94,0,0,0.00
$GPRMC,092104.000,A,5131.2098,N,00001.7038,W,0.28,318.85,230816,,,A*79,51.5201644897,-0.0283966016,9:21:4,23/8/2016,93,5,2.50,64,26.17,505.88,0,0,1023.11
$GPRMC,092105.000,A,5131.2097,N,00001.7031,W,0.05,52.39,230816,,,A*4B,51.5201568603,-0.0283850002,9:21:5,23/8/2016,93,2,4.47,65,26.17,506.12,0,0,1023.11
$GPRMC,092106.000,A,5131.2096,N,00001.7028,W,0.16,142.15,230816,,,A*7D,51.5201568603,-0.0283800010,9:21:6,23/8/2016,93,3,3.88,58,26.17,506.56,0,0,1023.11
$GPRMC,092107.000,A,5131.2095,N,00001.7028,W,0.15,139.94,230816,,,A*79,51.5201568603,-0.0283800010,9:21:7,23/8/2016,94,2,4.56,62,26.17,506.51,0,0,1023.11
$GPRMC,092107.219,A,5131.2095,N,00001.7029,W,0.17,132.69,230816,,,A*79,51.5201568603,-0.0283816051,9:21:7,23/8/2016,94,0,10.42,59,26.17,515.97,0,0,1023.11
$GPRMC,092109.000,A,5131.2094,N,00001.7029,W,0.22,145.50,230816,,,A*70,51.5201568603,-0.0283816051,9:21:9,23/8/2016,93,4,2.70,62,26.66,506.03,0,0,1023.11
$GPRMC,092110.000,A,5131.2094,N,00001.7030,W,0.21,349.40,230816,,,A*7C,51.5201568603,-0.0283833026,9:21:10,23/8/2016,94,2,4.51,56,26.66,506.59,0,0,1023.11
$GPRMC,092111.000,A,5131.2093,N,00001.7027,W,0.20,117.64,230816,,,A*72,51.5201568603,-0.0283783006,9:21:11,23/8/2016,93,3,4.67,59,26.17,506.52,0,0,1023.11
$GPRMC,092112.000,A,5131.2092,N,00001.7022,W,0.39,113.91,230816,,,A*73,51.5201492309,-0.0283699989,9:21:12,23/8/2016,94,4,4.44,62,26.66,506.67,0,0,1023.11
$GPRMC,092113.000,A,5131.2090,N,00001.7021,W,0.40,128.12,230816,,,A*7E,51.5201492309,-0.0283683013,9:21:13,23/8/2016,94,6,4.83,60,26.17,506.77,0,0,1023.11
$GPRMC,092113.207,A,5131.2091,N,00001.7022,W,0.34,108.87,230816,,,A*74,51.5201492309,-0.0283699989,9:21:13,23/8/2016,92,1,10.90,62,26.17,516.33,0,0,1023.11
$GPRMC,092115.000,A,5131.2091,N,00001.7020,W,0.30,87.64,230816,,,A*4A,51.5201492309,-0.0283666019,9:21:15,23/8/2016,93,5,2.82,73,26.66,506.19,0,0,1023.11
$GPRMC,092116.000,A,5131.2091,N,00001.7021,W,0.17,18.13,230816,,,A*4B,51.5201492309,-0.0283683013,9:21:16,23/8/2016,94,3,2.71,61,26.17,506.84,0,0,1023.11
$GPRMC,092117.000,A,5131.2090,N,00001.7019,W,0.10,22.12,230816,,,A*4F,51.5201492309,-0.0283649969,9:21:17,23/8/2016,94,1,1.19,57,26.17,506.12,0,0,1023.11
$GPRMC,092118.000,A,5131.2091,N,00001.7021,W,0.29,348.63,230816,,,A*79,51.5201492309,-0.0283683013,9:21:18,23/8/2016,94,1,1.46,63,26.17,506.44,0,0,1023.11
$GPRMC,092119.208,A,5131.2091,N,00001.7025,W,0.25,346.64,230816,,,A*73,51.5201492309,-0.0283715991,9:21:19,23/8/2016,93,1,1.55,62,26.17,506.43,0,0,1023.11
$GPRMC,092119.208,A,5131.2091,N,00001.7025,W,0.25,346.64,230816,,,A*73,51.5201492309,-0.0283750038,9:21:19,23/8/2016,94,13,13.00,13,26.17,508.00,0,0,1023.11
$GPRMC,092121.000,A,5131.2091,N,00001.7026,W,0.01,5.41,230816,,,A*74,51.5201492309,-0.0283766031,9:21:21,23/8/2016,94,2,1.03,56,26.17,505.98,0,0,1023.11
$GPRMC,092122.000,A,5131.2090,N,00001.7022,W,0.28,95.80,230816,,,A*4D,51.5201492309,-0.0283699989,9:21:22,23/8/2016,94,1,1.64,68,26.17,506.82,0,0,1023.11
$GPRMC,092123.000,A,5131.2091,N,00001.7025,W,0.15,101.47,230816,,,A*73,51.5201492309,-0.0283750038,9:21:23,23/8/2016,94,0,1.60,60,26.17,506.47,0,0,1023.11
$GPRMC,092124.000,A,5131.2092,N,00001.7027,W,0.15,137.54,230816,,,A*72,51.5201492309,-0.0283783006,9:21:24,23/8/2016,94,0,1.61,64,26.17,506.67,0,0,1023.11
$GPRMC,092125.208,A,5131.2094,N,00001.7028,W,0.16,77.58,230816,,,A*4A,51.5201568603,-0.0283800010,9:21:25,23/8/2016,94,1,1.52,60,26.17,506.74,0,0,1023.11
$GPRMC,092125.208,A,5131.2094,N,00001.7028,W,0.16,77.58,230816,,,A*4A,51.5201568603,-0.0283800010,9:21:25,23/8/2016,94,14,14.00,14,26.17,548.00,0,0,1023.11
$GPRMC,092127.000,A,5131.2095,N,00001.7028,W,0.14,91.84,230816,,,A*48,51.5201568603,-0.0283800010,9:21:27,23/8/2016,93,0,1.09,60,26.17,506.10,0,0,1023.11
$GPRMC,092128.000,A,5131.2094,N,00001.7028,W,0.15,108.49,230816,,,A*77,51.5201568603,-0.0283800010,9:21:28,23/8/2016,93,0,1.58,65,26.17,506.58,0,0,1023.11
$GPRMC,092129.000,A,5131.2096,N,00001.7029,W,0.19,53.07,230816,,,A*4C,51.5201568603,-0.0283816051,9:21:29,23/8/2016,94,0,1.51,69,26.17,506.31,0,0,1023.11
$GPRMC,092130.000,A,5131.2096,N,00001.7028,W,0.15,99.01,230816,,,A*49,51.5201568603,-0.0283800010,9:21:30,23/8/2016,94,0,1.34,54,26.17,506.57,0,0,1023.11
$GPRMC,092131.219,A,5131.2104,N,00001.7052,W,0.04,68.94,230816,,,A*47,51.5201759338,-0.0284200000,9:21:31,23/8/2016,93,0,1.41,65,26.17,506.53,0,0,1023.11
$GPRMC,092133.000,A,5131.2121,N,00001.7111,W,0.19,213.40,230816,,,A*75,51.5201988220,-0.0285183000,9:21:33,23/8/2016,94,8,2.63,56,26.66,506.26,0,0,1023.11
$GPRMC,092134.000,A,5131.2126,N,00001.7128,W,0.37,264.92,230816,,,A*7C,51.5202064514,-0.0285466003,9:21:34,23/8/2016,94,2,3.98,64,26.17,506.79,0,0,1023.11
$GPRMC,092135.000,A,5131.2130,N,00001.7138,W,0.21,286.21,230816,,,A*78,51.5202140808,-0.0285632991,9:21:35,23/8/2016,94,61,50.24,68,26.66,575.57,0,0,513.76
$GPRMC,092136.000,A,5131.2132,N,00001.7146,W,0.13,291.60,230816,,,A*72,51.5202217102,-0.0285766010,9:21:36,23/8/2016,94,9,4.59,81,26.17,506.64,0,0,513.76
$GPRMC,092137.000,A,5131.2133,N,00001.7153,W,0.17,203.82,230816,,,A*75,51.5202217102,-0.0285882997,9:21:37,23/8/2016,94,8,4.13,62,26.17,506.76,0,0,513.76
$GPRMC,092138.000,A,5131.2135,N,00001.7162,W,0.23,242.69,230816,,,A*79,51.5202217102,-0.0286033039,9:21:38,23/8/2016,94,5,4.51,70,26.17,506.84,0,0,513.76
$GPRMC,092139.000,A,5131.2137,N,00001.7169,W,0.27,278.55,230816,,,A*73,51.5202293395,-0.0286149997,9:21:39,23/8/2016,94,8,4.63,75,26.17,506.96,0,0,513.76
$GPRMC,092140.000,A,5131.2139,N,00001.7174,W,0.22,293.71,230816,,,A*79,51.5202293395,-0.0286232995,9:21:40,23/8/2016,94,6,5.21,74,26.17,506.87,0,0,513.76
$GPRMC,092141.000,A,5131.2139,N,00001.7178,W,0.09,232.76,230816,,,A*71,51.5202293395,-0.0286299991,9:21:41,23/8/2016,94,5,4.61,73,26.17,507.12,0,0,513.76
$GPRMC,092142.000,A,5131.2141,N,00001.7180,W,0.07,29.26,230816,,,A*49,51.5202293395,-0.0286332988,9:21:42,23/8/2016,94,10,4.59,72,26.17,506.75,0,0,513.76
$GPRMC,092143.000,A,5131.2142,N,00001.7183,W,0.08,318.26,230816,,,A*76,51.5202407836,-0.0286383008,9:21:43,23/8/2016,94,1,4.60,63,26.17,506.91,0,0,513.76
$GPRMC,092144.000,A,5131.2142,N,00001.7185,W,0.01,111.56,230816,,,A*72,51.5202407836,-0.0286416034,9:21:44,23/8/2016,93,7,4.93,90,26.17,507.27,0,0,513.76
$GPRMC,092145.000,A,5131.2143,N,00001.7187,W,0.11,1.08,230816,,,A*7A,51.5202407836,-0.0286450023,9:21:45,23/8/2016,94,5,4.64,77,26.17,506.84,0,0,513.76
$GPRMC,092146.000,A,5131.2144,N,00001.7188,W,0.08,346.33,230816,,,A*71,51.5202407836,-0.0286466007,9:21:46,23/8/2016,94,6,3.76,63,26.17,507.14,0,0,513.76
$GPRMC,092147.000,A,5131.2145,N,00001.7188,W,0.05,46.55,230816,,,A*4F,51.5202407836,-0.0286466007,9:21:47,23/8/2016,94,5,5.00,66,26.66,506.64,0,0,513.76
$GPRMC,092148.000,A,5131.2147,N,00001.7188,W,0.13,0.09,230816,,,A*7E,51.5202484130,-0.0286466007,9:21:48,23/8/2016,94,8,4.47,61,26.17,506.58,0,0,513.76
$GPRMC,092149.000,A,5131.2148,N,00001.7189,W,0.07,313.14,230816,,,A*79,51.5202484130,-0.0286483001,9:21:49,23/8/2016,94,8,4.11,62,26.17,506.92,0,0,513.76
$GPRMC,092150.000,A,5131.2148,N,00001.7190,W,0.12,255.58,230816,,,A*76,51.5202484130,-0.0286500024,9:21:50,23/8/2016,94,4,4.59,64,26.17,506.63,0,0,513.76
$GPRMC,092151.000,A,5131.2150,N,00001.7188,W,0.13,351.88,230816,,,A*7E,51.5202484130,-0.0286466007,9:21:51,23/8/2016,94,11,5.14,65,26.17,506.56,0,0,513.76
$GPRMC,092152.000,A,5131.2151,N,00001.7187,W,0.14,25.64,230816,,,A*46,51.5202560424,-0.0286450023,9:21:52,23/8/2016,94,6,3.78,60,26.17,506.74,0,0,513.76
$GPRMC,092153.000,A,5131.2152,N,00001.7186,W,0.17,24.12,230816,,,A*46,51.5202560424,-0.0286433010,9:21:53,23/8/2016,94,0,1.24,59,26.17,506.49,0,0,513.76
$GPRMC,092154.000,A,5131.2152,N,00001.7186,W,0.32,341.54,230816,,,A*74,51.5202560424,-0.0286433010,9:21:54,23/8/2016,94,0,1.53,58,26.17,506.74,0,0,513.76
$GPRMC,092155.000,A,5131.2152,N,00001.7186,W,0.22,297.78,230816,,,A*70,51.5202560424,-0.0286433010,9:21:55,23/8/2016,94,5,1.53,64,26.17,507.07,0,0,513.76
$GPRMC,092156.000,A,5131.2153,N,00001.7184,W,0.06,312.51,230816,,,A*71,51.5202560424,-0.0286399984,9:21:56,23/8/2016,94,0,1.03,60,26.17,506.62,0,0,513.76
$GPRMC,092157.000,A,5131.2155,N,00001.7183,W,0.27,2.12,230816,,,A*77,51.5202560424,-0.0286383008,9:21:57,23/8/2016,94,0,1.27,56,26.17,506.96,0,0,513.76
$GPRMC,092158.000,A,5131.2155,N,00001.7182,W,0.13,37.56,230816,,,A*48,51.5202560424,-0.0286366004,9:21:58,23/8/2016,94,0,1.18,55,26.17,506.27,0,0,513.76
$GPRMC,092159.000,A,5131.2155,N,00001.7182,W,0.09,51.65,230816,,,A*42,51.5202560424,-0.0286366004,9:21:59,23/8/2016,94,0,1.34,56,25.68,507.12,0,0,513.76
$GPRMC,092200.000,A,5131.2154,N,00001.7183,W,0.23,187.08,230816,,,A*74,51.5202560424,-0.0286383008,9:22:0,23/8/2016,94,0,1.30,61,26.17,506.32,0,0,513.76
$GPRMC,092201.000,A,5131.2154,N,00001.7183,W,0.24,184.69,230816,,,A*76,51.5202560424,-0.0286383008,9:22:1,23/8/2016,94,1,1.37,54,26.17,506.84,0,0,513.76
$GPRMC,092202.000,A,5131.2153,N,00001.7183,W,0.24,159.63,230816,,,A*78,51.5202560424,-0.0286383008,9:22:2,23/8/2016,94,2,1.38,66,26.17,506.28,0,0,513.76
$GPRMC,092203.000,A,5131.2152,N,00001.7182,W,0.15,181.55,230816,,,A*7B,51.5202560424,-0.0286366004,9:22:3,23/8/2016,94,0,1.25,62,26.17,506.82,0,0,513.76
$GPRMC,092204.000,A,5131.2152,N,00001.7182,W,0.09,241.76,230816,,,A*7F,51.5202560424,-0.0286366004,9:22:4,23/8/2016,94,2,1.46,55,26.17,506.13,0,0,513.76
$GPRMC,092205.000,A,5131.2152,N,00001.7183,W,0.05,227.90,230816,,,A*7B,51.5202560424,-0.0286383008,9:22:5,23/8/2016,94,1,1.23,64,26.17,506.78,0,0,295.39
$GPRMC,092206.000,A,5131.2152,N,00001.7183,W,0.07,114.29,230816,,,A*7B,51.5202560424,-0.0286383008,9:22:6,23/8/2016,94,15,15.00,15,26.17,518.00,0,0,295.39
$GPRMC,092207.000,A,5131.2152,N,00001.7183,W,0.16,273.72,230816,,,A*76,51.5202560424,-0.0286383008,9:22:7,23/8/2016,94,0,1.11,67,26.17,506.55,0,0,295.39
$GPRMC,092208.000,A,5131.2152,N,00001.7183,W,0.19,230.97,230816,,,A*7A,51.5202560424,-0.0286383008,9:22:8,23/8/2016,94,0,1.59,55,26.17,506.58,0,0,295.39
$GPRMC,092209.000,A,5131.2152,N,00001.7184,W,0.18,200.48,230816,,,A*7C,51.5202560424,-0.0286399984,9:22:9,23/8/2016,94,0,1.12,66,26.17,506.61,0,0,295.39
$GPRMC,092210.000,A,5131.2151,N,00001.7184,W,0.05,293.75,230816,,,A*7F,51.5202560424,-0.0286399984,9:22:10,23/8/2016,94,0,1.63,66,26.17,506.62,0,0,295.39
$GPRMC,092211.000,A,5131.2151,N,00001.7185,W,0.14,260.27,230816,,,A*74,51.5202560424,-0.0286416034,9:22:11,23/8/2016,94,0,1.05,53,26.17,506.77,0,0,295.39
$GPRMC,092212.000,A,5131.2151,N,00001.7185,W,0.12,340.29,230816,,,A*7C,51.5202560424,-0.0286416034,9:22:12,23/8/2016,94,0,1.74,61,26.17,506.52,0,0,295.39
$GPRMC,092213.000,A,5131.2152,N,00001.7186,W,0.19,280.31,230816,,,A*72,51.5202560424,-0.0286433010,9:22:13,23/8/2016,94,0,0.97,61,26.17,506.69,0,0,295.39
$GPRMC,092214.000,A,5131.2152,N,00001.7187,W,0.18,230.28,230816,,,A*76,51.5202560424,-0.0286450023,9:22:14,23/8/2016,94,1,1.59,54,26.17,506.96,0,0,295.39
$GPRMC,092215.000,A,5131.2151,N,00001.7187,W,0.08,238.80,230816,,,A*7F,51.5202560424,-0.0286450023,9:22:15,23/8/2016,94,0,1.58,92,26.17,507.00,0,0,295.39
$GPRMC,092216.000,A,5131.2151,N,00001.7188,W,0.25,259.55,230816,,,A*73,51.5202560424,-0.0286466007,9:22:16,23/8/2016,94,0,1.54,71,26.17,507.04,0,0,295.39
$GPRMC,092217.000,A,5131.2151,N,00001.7189,W,0.17,267.89,230816,,,A*7E,51.5202560424,-0.0286483001,9:22:17,23/8/2016,93,0,1.04,60,26.17,506.78,0,0,295.39
$GPRMC,092218.000,A,5131.2151,N,00001.7189,W,0.26,279.45,230816,,,A*7C,51.5202560424,-0.0286483001,9:22:18,23/8/2016,94,0,1.37,54,26.17,506.95,0,0,295.39
$GPRMC,092219.000,A,5131.2151,N,00001.7191,W,0.21,277.89,230816,,,A*7D,51.5202560424,-0.0286515998,9:22:19,23/8/2016,94,1,1.27,60,26.17,506.37,0,0,295.39
$GPRMC,092220.000,A,5131.2151,N,00001.7192,W,0.26,282.38,230816,,,A*73,51.5202560424,-0.0286532993,9:22:20,23/8/2016,94,0,1.42,60,26.17,507.05,0,0,295.39
$GPRMC,092221.000,A,5131.2152,N,00001.7193,W,0.05,258.13,230816,,,A*7F,51.5202560424,-0.0286549997,9:22:21,23/8/2016,94,4,1.52,53,25.68,506.34,0,0,295.39
$GPRMC,092222.000,A,5131.2152,N,00001.7193,W,0.10,282.84,230816,,,A*71,51.5202560424,-0.0286549997,9:22:22,23/8/2016,96,0,1.32,58,26.17,506.47,0,0,295.39
$GPRMC,092223.000,A,5131.2152,N,00001.7193,W,0.13,319.82,230816,,,A*76,51.5202560424,-0.0286549997,9:22:23,23/8/2016,98,0,1.34,60,26.17,506.40,0,0,295.39
$GPRMC,092224.000,A,5131.2152,N,00001.7194,W,0.30,314.61,230816,,,A*77,51.5202560424,-0.0286566019,9:22:24,23/8/2016,98,0,1.30,64,26.17,507.06,0,0,295.39
$GPRMC,092225.000,A,5131.2152,N,00001.7195,W,0.18,323.11,230816,,,A*7E,51.5202560424,-0.0286582994,9:22:25,23/8/2016,97,0,1.56,57,26.17,506.15,0,0,295.39
$GPRMC,092226.000,A,5131.2153,N,00001.7195,W,0.20,343.32,230816,,,A*70,51.5202560424,-0.0286582994,9:22:26,23/8/2016,96,0,1.39,94,26.17,507.19,0,0,295.39
$GPRMC,092227.000,A,5131.2153,N,00001.7195,W,0.07,352.69,230816,,,A*7A,51.5202560424,-0.0286582994,9:22:27,23/8/2016,95,0,1.39,62,26.17,506.26,0,0,295.39
$GPRMC,092228.000,A,5131.2154,N,00001.7195,W,0.07,35.13,230816,,,A*4D,51.5202560424,-0.0286582994,9:22:28,23/8/2016,95,0,1.04,55,26.17,506.26,0,0,295.39
$GPRMC,092229.000,A,5131.2154,N,00001.7195,W,0.21,319.93,230816,,,A*7D,51.5202560424,-0.0286582994,9:22:29,23/8/2016,95,1,1.79,60,26.17,506.40,0,0,295.39
$GPRMC,092230.000,A,5131.2154,N,00001.7196,W,0.22,301.76,230816,,,A*77,51.5202560424,-0.0286600017,9:22:30,23/8/2016,94,1,1.06,61,26.17,506.60,0,0,295.39
$GPRMC,092231.000,A,5131.2155,N,00001.7197,W,0.28,336.36,230816,,,A*7C,51.5202560424,-0.0286616039,9:22:31,23/8/2016,95,0,1.68,56,26.17,506.73,0,0,295.39
$GPRMC,092232.000,A,5131.2155,N,00001.7197,W,0.28,318.93,230816,,,A*7C,51.5202560424,-0.0286616039,9:22:32,23/8/2016,94,1,1.04,60,26.17,506.77,0,0,295.39
$GPRMC,092233.000,A,5131.2156,N,00001.7198,W,0.41,301.15,230816,,,A*78,51.5202636718,-0.0286633014,9:22:33,23/8/2016,95,0,1.93,62,26.17,506.68,0,0,295.39
$GPRMC,092234.000,A,5131.2157,N,00001.7200,W,0.24,315.97,230816,,,A*70,51.5202636718,-0.0286666030,9:22:34,23/8/2016,94,0,0.94,53,26.17,506.52,0,0,295.39
$GPRMC,092235.000,A,5131.2157,N,00001.7201,W,0.19,312.19,230816,,,A*7F,51.5202636718,-0.0286683034,9:22:35,23/8/2016,94,0,1.74,63,26.17,506.72,0,0,295.39
$GPRMC,092237.000,A,5131.2158,N,00001.7201,W,0.15,321.95,230816,,,A*7A,51.5202636718,-0.0286683034,9:22:37,23/8/2016,95,1,1.07,65,26.17,506.71,0,0,548.00
$GPRMC,092238.000,A,5131.2158,N,00001.7202,W,0.20,350.79,230816,,,A*74,51.5202636718,-0.0286700010,9:22:38,23/8/2016,94,0,1.08,60,26.17,506.54,0,0,548.00
$GPRMC,092239.000,A,5131.2158,N,00001.7202,W,0.13,0.34,230816,,,A*7A,51.5202636718,-0.0286700010,9:22:39,23/8/2016,94,1,1.44,60,26.17,506.81,0,0,548.00
$GPRMC,092240.000,A,5131.2159,N,00001.7202,W,0.08,329.13,230816,,,A*72,51.5202636718,-0.0286700010,9:22:40,23/8/2016,95,22,1.21,62,26.17,506.45,0,0,548.00
$GPRMC,092241.000,A,5131.2159,N,00001.7202,W,0.21,350.23,230816,,,A*75,51.5202636718,-0.0286700010,9:22:41,23/8/2016,95,0,1.50,62,26.17,506.97,0,0,548.00
$GPRMC,092242.000,A,5131.2160,N,00001.7203,W,0.11,341.03,230816,,,A*7C,51.5202636718,-0.0286715984,9:22:42,23/8/2016,95,2,1.17,57,26.17,506.40,0,0,548.00
$GPRMC,092243.000,A,5131.2160,N,00001.7203,W,0.22,321.01,230816,,,A*79,51.5202636718,-0.0286715984,9:22:43,23/8/2016,94,0,1.36,59,26.17,507.02,0,0,548.00
$GPRMC,092244.000,A,5131.2160,N,00001.7204,W,0.29,329.52,230816,,,A*7C,51.5202636718,-0.0286733007,9:22:44,23/8/2016,94,1,1.55,64,26.17,506.13,0,0,548.00
$GPRMC,092245.000,A,5131.2161,N,00001.7204,W,0.33,327.01,230816,,,A*7F,51.5202713012,-0.0286733007,9:22:45,23/8/2016,95,0,1.33,56,26.17,507.02,0,0,548.00
$GPRMC,092246.000,A,5131.2162,N,00001.7205,W,0.19,305.20,230816,,,A*75,51.5202713012,-0.0286750030,9:22:46,23/8/2016,95,1,1.26,60,26.66,506.23,0,0,548.00
$GPRMC,092247.000,A,5131.2162,N,00001.7206,W,0.13,284.79,230816,,,A*79,51.5202713012,-0.0286766033,9:22:47,23/8/2016,94,0,1.20,64,26.17,506.99,0,0,548.00
$GPRMC,092248.000,A,5131.2162,N,00001.7206,W,0.12,233.51,230816,,,A*71,51.5202713012,-0.0286766033,9:22:48,23/8/2016,95,0,1.59,57,26.17,506.34,0,0,548.00
$GPRMC,092249.000,A,5131.2162,N,00001.7207,W,0.25,288.70,230816,,,A*76,51.5202713012,-0.0286783008,9:22:49,23/8/2016,94,0,1.32,73,26.17,506.90,0,0,548.00
$GPRMC,092250.000,A,5131.2162,N,00001.7208,W,0.21,240.17,230816,,,A*70,51.5202713012,-0.0286800003,9:22:50,23/8/2016,95,3,1.52,64,26.17,506.37,0,0,548.00
$GPRMC,092251.000,A,5131.2162,N,00001.7209,W,0.23,238.91,230816,,,A*73,51.5202713012,-0.0286816005,9:22:51,23/8/2016,95,0,1.09,63,26.17,506.73,0,0,548.00
$GPRMC,092252.000,A,5131.2162,N,00001.7210,W,0.20,229.80,230816,,,A*7B,51.5202713012,-0.0286833019,9:22:52,23/8/2016,95,12,1.98,55,26.17,506.51,0,0,548.00
$GPRMC,092253.000,A,5131.2161,N,00001.7211,W,0.31,225.69,230816,,,A*73,51.5202713012,-0.0286849994,9:22:53,23/8/2016,95,0,1.08,63,26.17,506.71,0,0,548.00
$GPRMC,092254.000,A,5131.2161,N,00001.7212,W,0.33,221.83,230816,,,A*75,51.5202713012,-0.0286865997,9:22:54,23/8/2016,94,1,1.71,63,26.17,506.57,0,0,548.00
$GPRMC,092255.000,A,5131.2160,N,00001.7213,W,0.38,245.53,230816,,,A*70,51.5202636718,-0.0286883020,9:22:55,23/8/2016,95,0,0.97,55,26.17,506.64,0,0,548.00
$GPRMC,092256.000,A,5131.2159,N,00001.7214,W,0.41,253.74,230816,,,A*72,51.5202636718,-0.0286900024,9:22:56,23/8/2016,95,0,2.08,61,26.17,506.52,0,0,548.00
$GPRMC,092257.000,A,5131.2159,N,00001.7216,W,0.39,271.45,230816,,,A*7C,51.5202636718,-0.0286932992,9:22:57,23/8/2016,95,6,4.05,53,26.17,507.28,0,0,548.00
$GPRMC,092258.000,A,5131.2159,N,00001.7218,W,0.24,204.77,230816,,,A*72,51.5202636718,-0.0286965990,9:22:58,23/8/2016,95,5,4.91,59,26.66,506.86,0,0,548.00
$GPRMC,092259.000,A,5131.2159,N,00001.7218,W,0.53,141.98,230816,,,A*70,51.5202636718,-0.0286965990,9:22:59,23/8/2016,95,5,4.96,54,26.66,506.85,0,0,548.00
$GPRMC,092300.000,A,5131.2157,N,00001.7217,W,0.56,128.73,230816,,,A*73,51.5202636718,-0.0286949996,9:23:0,23/8/2016,95,7,3.17,59,26.17,506.49,0,0,548.00
$GPRMC,092301.000,A,5131.2156,N,00001.7215,W,0.35,120.00,230816,,,A*78,51.5202636718,-0.0286916017,9:23:1,23/8/2016,95,8,4.47,60,26.66,506.72,0,0,548.00
$GPRMC,092302.000,A,5131.2156,N,00001.7213,W,0.11,335.10,230816,,,A*7C,51.5202636718,-0.0286883020,9:23:2,23/8/2016,95,9,4.46,61,26.66,506.89,0,0,548.00
$GPRMC,092303.000,A,5131.2156,N,00001.7214,W,0.33,288.32,230816,,,A*7D,51.5202636718,-0.0286900024,9:23:3,23/8/2016,95,6,3.73,63,26.17,506.84,0,0,548.00
$GPRMC,092304.000,A,5131.2157,N,00001.7215,W,0.29,288.29,230816,,,A*7B,51.5202636718,-0.0286916017,9:23:4,23/8/2016,95,4,4.23,62,26.17,506.84,0,0,548.00
$GPRMC,092305.000,A,5131.2157,N,00001.7216,W,0.25,269.87,230816,,,A*7E,51.5202636718,-0.0286932992,9:23:5,23/8/2016,95,6,4.25,61,26.66,506.65,0,0,548.00
$GPRMC,092306.000,A,5131.2157,N,00001.7217,W,0.18,224.97,230816,,,A*7A,51.5202636718,-0.0286949996,9:23:6,23/8/2016,95,5,4.39,68,26.66,507.11,0,0,548.00
$GPRMC,092307.000,A,5131.2156,N,00001.7218,W,0.23,233.44,230816,,,A*75,51.5202636718,-0.0286965990,9:23:7,23/8/2016,95,7,4.00,66,26.17,506.65,0,0,548.00
$GPRMC,092308.000,A,5131.2156,N,00001.7219,W,0.19,265.47,230816,,,A*72,51.5202636718,-0.0286983013,9:23:8,23/8/2016,94,0,15.07,56,26.66,520.15,0,0,482.12
$GPRMC,092309.000,A,5131.2156,N,00001.7220,W,0.19,294.12,230816,,,A*77,51.5202636718,-0.0286999988,9:23:9,23/8/2016,95,10,4.13,56,26.17,506.91,0,0,482.12
$GPRMC,092310.000,A,5131.2156,N,00001.7220,W,0.14,304.81,230816,,,A*70,51.5202636718,-0.0286999988,9:23:10,23/8/2016,94,4,4.20,64,26.66,506.53,0,0,482.12
$GPRMC,092311.000,A,5131.2156,N,00001.7221,W,0.12,294.41,230816,,,A*72,51.5202636718,-0.0287016010,9:23:11,23/8/2016,94,12,3.83,60,26.66,506.87,0,0,482.12
$GPRMC,092312.000,A,5131.2156,N,00001.7221,W,0.05,321.78,230816,,,A*72,51.5202636718,-0.0287016010,9:23:12,23/8/2016,95,6,4.32,64,26.17,506.57,0,0,482.12
$GPRMC,092313.000,A,5131.2157,N,00001.7221,W,0.13,212.89,230816,,,A*7A,51.5202636718,-0.0287016010,9:23:13,23/8/2016,94,10,4.07,70,25.68,506.88,0,0,482.12
$GPRMC,092314.000,A,5131.2156,N,00001.7222,W,0.17,273.06,230816,,,A*7B,51.5202636718,-0.0287032985,9:23:14,23/8/2016,95,0,1.64,63,26.17,506.88,0,0,482.12
$GPRMC,092315.000,A,5131.2156,N,00001.7223,W,0.51,295.04,230816,,,A*73,51.5202636718,-0.0287050008,9:23:15,23/8/2016,95,6,1.41,53,26.17,506.68,0,0,482.12
$GPRMC,092316.000,A,5131.2157,N,00001.7225,W,0.63,308.15,230816,,,A*73,51.5202636718,-0.0287083034,9:23:16,23/8/2016,95,2,1.41,65,26.17,506.84,0,0,482.12
$GPRMC,092317.000,A,5131.2156,N,00001.7224,W,0.38,299.87,230816,,,A*7E,51.5202636718,-0.0287066001,9:23:17,23/8/2016,95,0,1.57,60,26.66,506.60,0,0,482.12
$GPRMC,092318.000,A,5131.2157,N,00001.7225,W,0.27,306.95,230816,,,A*7B,51.5202636718,-0.0287083034,9:23:18,23/8/2016,94,2,1.48,53,26.17,507.01,0,0,482.12
$GPRMC,092319.000,A,5131.2156,N,00001.7222,W,0.15,286.43,230816,,,A*7F,51.5202636718,-0.0287032985,9:23:19,23/8/2016,95,1,1.08,64,26.17,506.69,0,0,482.12
$GPRMC,092320.000,A,5131.2156,N,00001.7221,W,0.28,290.24,230816,,,A*7E,51.5202636718,-0.0287016010,9:23:20,23/8/2016,95,0,1.39,61,26.17,507.17,0,0,482.12
$GPRMC,092321.000,A,5131.2156,N,00001.7223,W,0.21,262.42,230816,,,A*79,51.5202636718,-0.0287050008,9:23:21,23/8/2016,95,0,1.54,61,26.17,506.28,0,0,482.12
$GPRMC,092322.000,A,5131.2156,N,00001.7223,W,0.18,272.70,230816,,,A*70,51.5202636718,-0.0287050008,9:23:22,23/8/2016,95,1,1.32,54,26.17,507.15,0,0,482.12
$GPRMC,092323.000,A,5131.2156,N,00001.7224,W,0.06,78.70,230816,,,A*41,51.5202636718,-0.0287066001,9:23:23,23/8/2016,95,0,1.34,64,26.17,506.39,0,0,482.12
$GPRMC,092324.000,A,5131.2156,N,00001.7224,W,0.07,349.69,230816,,,A*7E,51.5202636718,-0.0287066001,9:23:24,23/8/2016,95,0,1.16,66,26.17,506.83,0,0,482.12
$GPRMC,092325.000,A,5131.2156,N,00001.7224,W,0.05,185.90,230816,,,A*79,51.5202636718,-0.0287066001,9:23:25,23/8/2016,95,0,1.95,69,26.17,506.43,0,0,482.12
$GPRMC,092326.000,A,5131.2156,N,00001.7224,W,0.13,343.51,230816,,,A*78,51.5202636718,-0.0287066001,9:23:26,23/8/2016,95,1,1.88,65,26.17,506.93,0,0,482.12
$GPRMC,092327.000,A,5131.2156,N,00001.7224,W,0.13,6.60,230816,,,A*79,51.5202636718,-0.0287066001,9:23:27,23/8/2016,95,0,1.88,71,26.17,507.12,0,0,482.12
$GPRMC,092328.000,A,5131.2157,N,00001.7224,W,0.07,39.79,230816,,,A*46,51.5202636718,-0.0287066001,9:23:28,23/8/2016,95,5,1.87,68,26.17,507.15,0,0,482.12
$GPRMC,092329.000,A,5131.2157,N,00001.7224,W,0.06,84.61,230816,,,A*49,51.5202636718,-0.0287066001,9:23:29,23/8/2016,95,0,1.56,64,26.17,506.91,0,0,482.12
$GPRMC,092330.000,A,5131.2157,N,00001.7223,W,0.06,24.82,230816,,,A*41,51.5202636718,-0.0287050008,9:23:30,23/8/2016,95,3,1.45,63,26.17,506.82,0,0,482.12
$GPRMC,092331.000,A,5131.2157,N,00001.7223,W,0.03,309.32,230816,,,A*72,51.5202636718,-0.0287050008,9:23:31,23/8/2016,95,7,1.41,60,26.17,506.62,0,0,482.12
$GPRMC,092332.000,A,5131.2157,N,00001.7223,W,0.06,199.40,230816,,,A*7A,51.5202636718,-0.0287050008,9:23:32,23/8/2016,95,0,1.55,59,26.17,506.82,0,0,482.12
$GPRMC,092333.000,A,5131.2157,N,00001.7223,W,0.07,201.48,230816,,,A*70,51.5202636718,-0.0287050008,9:23:33,23/8/2016,95,4,1.28,56,26.17,506.70,0,0,482.12
$GPRMC,092334.000,A,5131.2157,N,00001.7223,W,0.09,89.69,230816,,,A*48,51.5202636718,-0.0287050008,9:23:34,23/8/2016,95,4,1.56,65,26.66,506.57,0,0,482.12
$GPRMC,092335.000,A,5131.2157,N,00001.7223,W,0.15,347.88,230816,,,A*7A,51.5202636718,-0.0287050008,9:23:35,23/8/2016,95,3,1.29,55,26.17,506.83,0,0,482.12
$GPRMC,092336.000,A,5131.2157,N,00001.7223,W,0.24,315.66,230816,,,A*7C,51.5202636718,-0.0287050008,9:23:36,23/8/2016,95,1,1.63,56,26.17,506.25,0,0,482.12
$GPRMC,092337.000,A,5131.2157,N,00001.7224,W,0.31,321.75,230816,,,A*7B,51.5202636718,-0.0287066001,9:23:37,23/8/2016,95,3,1.17,66,25.68,506.92,0,0,482.12
$GPRMC,092338.000,A,5131.2158,N,00001.7225,W,0.22,311.37,230816,,,A*7D,51.5202636718,-0.0287083034,9:23:38,23/8/2016,95,0,4.52,55,26.17,511.00,0,0,714.64
$GPRMC,092339.000,A,5131.2158,N,00001.7225,W,0.19,322.94,230816,,,A*7D,51.5202636718,-0.0287083034,9:23:39,23/8/2016,95,0,1.64,58,26.17,507.18,0,0,714.64
$GPRMC,092340.000,A,5131.2159,N,00001.7226,W,0.12,294.64,230816,,,A*79,51.5202636718,-0.0287100028,9:23:40,23/8/2016,95,2,1.77,59,26.17,506.54,0,0,714.64
$GPRMC,092341.000,A,5131.2159,N,00001.7226,W,0.17,307.04,230816,,,A*70,51.5202636718,-0.0287100028,9:23:41,23/8/2016,95,0,1.03,57,26.17,506.63,0,0,714.64
$GPRMC,092342.000,A,5131.2159,N,00001.7227,W,0.13,284.30,230816,,,A*7B,51.5202636718,-0.0287116003,9:23:42,23/8/2016,95,0,1.58,54,26.17,506.55,0,0,714.64
$GPRMC,092343.000,A,5131.2159,N,00001.7228,W,0.16,246.99,230816,,,A*7D,51.5202636718,-0.0287133026,9:23:43,23/8/2016,95,0,1.09,63,26.17,506.72,0,0,714.64
$GPRMC,092344.000,A,5131.2159,N,00001.7228,W,0.21,233.18,230816,,,A*75,51.5202636718,-0.0287133026,9:23:44,23/8/2016,95,0,2.02,59,26.17,506.78,0,0,714.64
$GPRMC,092345.000,A,5131.2159,N,00001.7229,W,0.23,236.10,230816,,,A*7A,51.5202636718,-0.0287150020,9:23:45,23/8/2016,95,0,1.08,54,26.17,506.75,0,0,714.64
$GPRMC,092346.000,A,5131.2158,N,00001.7230,W,0.09,221.73,230816,,,A*7B,51.5202636718,-0.0287166004,9:23:46,23/8/2016,95,0,1.57,59,26.17,506.22,0,0,714.64
$GPRMC,092347.000,A,5131.2158,N,00001.7230,W,0.23,248.65,230816,,,A*7A,51.5202636718,-0.0287166004,9:23:47,23/8/2016,94,0,1.11,63,26.17,506.55,0,0,714.64
$GPRMC,092348.000,A,5131.2158,N,00001.7231,W,0.15,259.42,230816,,,A*74,51.5202636718,-0.0287182998,9:23:48,23/8/2016,95,0,2.00,54,26.17,506.65,0,0,714.64
$GPRMC,092349.000,A,5131.2158,N,00001.7232,W,0.15,193.22,230816,,,A*75,51.5202636718,-0.0287199993,9:23:49,23/8/2016,95,0,1.04,63,26.17,506.55,0,0,714.64
$GPRMC,092350.000,A,5131.2157,N,00001.7232,W,0.22,163.35,230816,,,A*7F,51.5202636718,-0.0287199993,9:23:50,23/8/2016,95,0,1.56,62,25.68,506.54,0,0,714.64
$GPRMC,092351.000,A,5131.2157,N,00001.7231,W,0.14,164.24,230816,,,A*7F,51.5202636718,-0.0287182998,9:23:51,23/8/2016,94,0,1.01,60,26.17,506.62,0,0,714.64
$GPRMC,092352.000,A,5131.2156,N,00001.7231,W,0.33,139.84,230816,,,A*7A,51.5202636718,-0.0287182998,9:23:52,23/8/2016,95,2,1.89,80,26.17,507.34,0,0,714.64
$GPRMC,092353.000,A,5131.2156,N,00001.7230,W,0.11,143.72,230816,,,A*7E,51.5202636718,-0.0287166004,9:23:53,23/8/2016,95,0,1.35,73,26.17,506.71,0,0,714.64
$GPRMC,092354.000,A,5131.2156,N,00001.7230,W,0.06,356.81,230816,,,A*75,51.5202636718,-0.0287166004,9:23:54,23/8/2016,95,0,1.41,61,26.17,506.90,0,0,714.64
$GPRMC,092355.000,A,5131.2156,N,00001.7230,W,0.26,339.69,230816,,,A*79,51.5202636718,-0.0287166004,9:23:55,23/8/2016,94,2,1.78,69,26.17,506.48,0,0,714.64
$GPRMC,092356.000,A,5131.2156,N,00001.7230,W,0.23,353.54,230816,,,A*7D,51.5202636718,-0.0287166004,9:23:56,23/8/2016,94,0,1.32,72,26.17,506.72,0,0,714.64
$GPRMC,092357.000,A,5131.2157,N,00001.7230,W,0.22,6.56,230816,,,A*7D,51.5202636718,-0.0287166004,9:23:57,23/8/2016,95,3,3.68,66,26.66,507.84,0,0,714.64
$GPRMC,092358.000,A,5131.2158,N,00001.7230,W,0.03,61.07,230816,,,A*4B,51.5202636718,-0.0287166004,9:23:58,23/8/2016,95,3,5.20,58,26.66,506.60,0,0,714.64
$GPRMC,092359.000,A,5131.2158,N,00001.7230,W,0.41,158.12,230816,,,A*73,51.5202636718,-0.0287166004,9:23:59,23/8/2016,95,4,4.42,63,26.17,506.83,0,0,714.64
$GPRMC,092400.000,A,5131.2157,N,00001.7229,W,0.39,142.46,230816,,,A*7A,51.5202636718,-0.0287150020,9:24:0,23/8/2016,96,5,3.52,56,26.17,506.72,0,0,714.64
$GPRMC,092401.000,A,5131.2156,N,00001.7228,W,0.28,123.80,230816,,,A*76,51.5202636718,-0.0287133026,9:24:1,23/8/2016,95,10,4.55,59,26.17,506.89,0,0,714.64
$GPRMC,092402.000,A,5131.2155,N,00001.7227,W,0.15,111.50,230816,,,A*7B,51.5202560424,-0.0287116003,9:24:2,23/8/2016,95,5,4.53,66,26.17,506.89,0,0,714.64
$GPRMC,092403.000,A,5131.2155,N,00001.7226,W,0.18,112.02,230816,,,A*72,51.5202560424,-0.0287100028,9:24:3,23/8/2016,95,3,4.09,63,26.17,507.06,0,0,714.64
$GPRMC,092404.000,A,5131.2155,N,00001.7225,W,0.16,115.33,230816,,,A*7D,51.5202560424,-0.0287083034,9:24:4,23/8/2016,95,7,4.65,66,26.17,506.69,0,0,714.64
$GPRMC,092405.000,A,5131.2155,N,00001.7225,W,0.17,50.83,230816,,,A*46,51.5202560424,-0.0287083034,9:24:5,23/8/2016,95,6,3.87,59,26.66,506.79,0,0,714.64
$GPRMC,092406.000,A,5131.2155,N,00001.7224,W,0.10,110.87,230816,,,A*72,51.5202560424,-0.0287066001,9:24:6,23/8/2016,95,6,4.41,68,26.17,506.95,0,0,714.64
$GPRMC,092407.000,A,5131.2155,N,00001.7224,W,0.02,107.80,230816,,,A*71,51.5202560424,-0.0287066001,9:24:7,23/8/2016,95,5,4.62,65,26.17,506.70,0,0,714.64
$GPRMC,092408.000,A,5131.2155,N,00001.7224,W,0.11,331.37,230816,,,A*77,51.5202560424,-0.0287066001,9:24:8,23/8/2016,95,3,4.50,59,26.17,508.15,0,0,925.24
$GPRMC,092409.000,A,5131.2155,N,00001.7224,W,0.13,297.44,230816,,,A*7D,51.5202560424,-0.0287066001,9:24:9,23/8/2016,95,8,8.42,59,26.66,508.18,0,0,925.24
$GPRMC,092410.000,A,5131.2155,N,00001.7224,W,0.13,199.43,230816,,,A*7F,51.5202560424,-0.0287066001,9:24:10,23/8/2016,95,7,4.52,61,26.17,506.54,0,0,925.24
$GPRMC,092411.000,A,5131.2155,N,00001.7224,W,0.05,132.92,230816,,,A*74,51.5202560424,-0.0287066001,9:24:11,23/8/2016,95,6,3.85,59,26.17,507.04,0,0,925.24
$GPRMC,092412.000,A,5131.2155,N,00001.7224,W,0.17,235.59,230816,,,A*77,51.5202560424,-0.0287066001,9:24:12,23/8/2016,95,7,4.37,56,26.17,506.84,0,0,925.24
$GPRMC,092413.000,A,5131.2155,N,00001.7225,W,0.04,213.31,230816,,,A*7F,51.5202560424,-0.0287083034,9:24:13,23/8/2016,95,6,4.38,69,26.17,506.88,0,0,925.24
$GPRMC,092414.000,A,5131.2154,N,00001.7225,W,0.10,247.55,230816,,,A*7F,51.5202560424,-0.0287083034,9:24:14,23/8/2016,95,5,3.95,57,26.17,506.46,0,0,925.24
$GPRMC,092415.000,A,5131.2154,N,00001.7225,W,0.20,205.91,230816,,,A*73,51.5202560424,-0.0287083034,9:24:15,23/8/2016,95,6,5.86,57,26.17,507.56,0,0,925.24
$GPRMC,092416.000,A,5131.2154,N,00001.7225,W,0.09,239.59,230816,,,A*70,51.5202560424,-0.0287083034,9:24:16,23/8/2016,95,6,4.17,65,26.66,506.58,0,0,925.24
$GPRMC,092417.000,A,5131.2154,N,00001.7226,W,0.11,183.64,230816,,,A*77,51.5202560424,-0.0287100028,9:24:17,23/8/2016,95,7,4.02,67,26.17,506.81,0,0,925.24
$GPRMC,092418.000,A,5131.2153,N,00001.7226,W,0.06,99.07,230816,,,A*46,51.5202560424,-0.0287100028,9:24:18,23/8/2016,95,6,4.58,64,26.17,506.75,0,0,925.24
$GPRMC,092419.000,A,5131.2153,N,00001.7226,W,0.18,254.91,230816,,,A*74,51.5202560424,-0.0287100028,9:24:19,23/8/2016,95,7,4.10,66,26.66,506.59,0,0,925.24
$GPRMC,092420.000,A,5131.2153,N,00001.7226,W,0.34,285.48,230816,,,A*78,51.5202560424,-0.0287100028,9:24:20,23/8/2016,95,7,4.41,63,26.17,506.63,0,0,925.24
$GPRMC,092421.000,A,5131.2153,N,00001.7228,W,0.34,281.24,230816,,,A*79,51.5202560424,-0.0287133026,9:24:21,23/8/2016,95,4,3.90,61,26.17,506.83,0,0,925.24
$GPRMC,092422.000,A,5131.2154,N,00001.7229,W,0.15,236.95,230816,,,A*79,51.5202560424,-0.0287150020,9:24:22,23/8/2016,95,3,4.48,54,26.66,506.67,0,0,925.24
$GPRMC,092423.000,A,5131.2153,N,00001.7230,W,0.04,55.28,230816,,,A*46,51.5202560424,-0.0287166004,9:24:23,23/8/2016,95,4,4.16,67,26.17,506.52,0,0,925.24
$GPRMC,092424.000,A,5131.2153,N,00001.7230,W,0.10,183.12,230816,,,A*77,51.5202560424,-0.0287166004,9:24:24,23/8/2016,95,6,4.15,63,26.17,506.58,0,0,925.24
$GPRMC,092425.000,A,5131.2153,N,00001.7230,W,0.16,153.34,230816,,,A*79,51.5202560424,-0.0287166004,9:24:25,23/8/2016,95,5,4.33,70,26.17,506.86,0,0,925.24
$GPRMC,092426.000,A,5131.2153,N,00001.7229,W,0.23,129.40,230816,,,A*7A,51.5202560424,-0.0287150020,9:24:26,23/8/2016,95,5,3.87,65,26.17,506.63,0,0,925.24
$GPRMC,092427.000,A,5131.2152,N,00001.7228,W,0.07,81.79,230816,,,A*44,51.5202560424,-0.0287133026,9:24:27,23/8/2016,95,5,4.15,66,26.17,506.49,0,0,925.24
$GPRMC,092428.000,A,5131.2152,N,00001.7228,W,0.24,150.65,230816,,,A*7A,51.5202560424,-0.0287133026,9:24:28,23/8/2016,95,3,4.11,59,26.66,506.95,0,0,925.24
$GPRMC,092429.000,A,5131.2152,N,00001.7227,W,0.14,93.44,230816,,,A*4A,51.5202560424,-0.0287116003,9:24:29,23/8/2016,95,6,4.17,63,26.17,506.60,0,0,925.24
$GPRMC,092430.000,A,5131.2152,N,00001.7227,W,0.18,139.39,230816,,,A*75,51.5202560424,-0.0287116003,9:24:30,23/8/2016,95,4,4.06,70,26.17,506.47,0,0,925.24
$GPRMC,092431.000,A,5131.2151,N,00001.7226,W,0.06,101.89,230816,,,A*79,51.5202560424,-0.0287100028,9:24:31,23/8/2016,95,8,4.45,66,26.17,506.81,0,0,925.24
$GPRMC,092432.000,A,5131.2151,N,00001.7226,W,0.04,119.28,230816,,,A*7A,51.5202560424,-0.0287100028,9:24:32,23/8/2016,95,7,3.94,57,26.66,506.90,0,0,925.24
$GPRMC,092433.000,A,5131.2151,N,00001.7226,W,0.01,306.86,230816,,,A*76,51.5202560424,-0.0287100028,9:24:33,23/8/2016,95,8,3.95,71,26.66,506.82,0,0,925.24
$GPRMC,092434.000,A,5131.2151,N,00001.7226,W,0.11,56.78,230816,,,A*47,51.5202560424,-0.0287100028,9:24:34,23/8/2016,95,6,3.87,63,26.17,506.95,0,0,925.24
$GPRMC,092435.000,A,5131.2151,N,00001.7225,W,0.12,48.35,230816,,,A*40,51.5202560424,-0.0287083034,9:24:35,23/8/2016,95,6,4.08,60,26.66,506.82,0,0,925.24
$GPRMC,092436.000,A,5131.2152,N,00001.7225,W,0.22,88.62,230816,,,A*4D,51.5202560424,-0.0287083034,9:24:36,23/8/2016,96,5,4.43,61,26.17,506.79,0,0,925.24
$GPRMC,092437.000,A,5131.2152,N,00001.7224,W,0.03,352.93,230816,,,A*74,51.5202560424,-0.0287066001,9:24:37,23/8/2016,95,10,3.86,70,26.17,506.71,0,0,925.24
