
$GPRMC,111026.000,A,5132.4461,N,00000.6963,W,0.14,235.77,170815,,,A*7A,51.5407714843,-0.0116050004,11:10:26,17/8/2015,22,4,19.82,0.00,35
$GPRMC,111027.000,A,5132.4461,N,00000.6964,W,0.28,246.45,170815,,,A*76,51.5407714843,-0.0116066002,11:10:27,17/8/2015,21,1,21.29,0.00,36
$GPRMC,111028.000,A,5132.4460,N,00000.6965,W,0.73,242.06,170815,,,A*74,51.5407638549,-0.0116083014,11:10:28,17/8/2015,11,1,20.31,0.00,36
$GPRMC,111029.000,A,5132.4459,N,00000.6977,W,1.49,243.83,170815,,,A*78,51.5407638549,-0.0116282999,11:10:29,17/8/2015,13,0,21.29,0.00,36
$GPRMC,111030.000,A,5132.4458,N,00000.6982,W,1.80,248.42,170815,,,A*78,51.5407638549,-0.0116366004,11:10:30,17/8/2015,10,3,20.80,0.00,35
$GPRMC,111031.000,A,5132.4458,N,00000.6991,W,2.20,251.55,170815,,,A*7C,51.5407638549,-0.0116516005,11:10:31,17/8/2015,12,3,20.31,0.00,35
$GPRMC,111032.000,A,5132.4455,N,00000.6997,W,2.20,250.62,170815,,,A*71,51.5407562255,-0.0116615998,11:10:32,17/8/2015,10,0,20.31,0.00,35
$GPRMC,111033.000,A,5132.4454,N,00000.7010,W,2.35,251.08,170815,,,A*7F,51.5407562255,-0.0116832995,11:10:33,17/8/2015,10,2,20.80,0.00,35
$GPRMC,111034.000,A,5132.4451,N,00000.7021,W,2.47,251.93,170815,,,A*78,51.5407562255,-0.0117016005,11:10:34,17/8/2015,10,0,19.34,0.00,30
$GPRMC,111035.000,A,5132.4448,N,00000.7034,W,2.62,250.68,170815,,,A*77,51.5407485961,-0.0117233014,11:10:35,17/8/2015,10,4,20.80,62.00,35
$GPRMC,111036.000,A,5132.4443,N,00000.7043,W,2.50,243.16,170815,,,A*75,51.5407371520,-0.0117383003,11:10:36,17/8/2015,12,0,20.80,62.00,36
$GPRMC,111037.000,A,5132.4435,N,00000.7052,W,2.52,233.64,170815,,,A*75,51.5407218933,-0.0117533016,11:10:37,17/8/2015,7,1,19.34,62.00,31
$GPRMC,111038.000,A,5132.4426,N,00000.7066,W,2.93,234.26,170815,,,A*73,51.5407066345,-0.0117765998,11:10:38,17/8/2015,11,3,22.27,62.00,38
$GPRMC,111039.000,A,5132.4418,N,00000.7078,W,4.19,230.02,170815,,,A*76,51.5406990051,-0.0117966008,11:10:39,17/8/2015,10,0,21.29,62.00,30
$GPRMC,111040.000,A,5132.4409,N,00000.7093,W,4.51,233.95,170815,,,A*7C,51.5406837463,-0.0118216013,11:10:40,17/8/2015,12,2,22.27,62.00,35
$GPRMC,111041.000,A,5132.4401,N,00000.7109,W,4.49,230.04,170815,,,A*75,51.5406646728,-0.0118483007,11:10:41,17/8/2015,10,0,22.75,62.00,35
$GPRMC,111042.000,A,5132.4394,N,00000.7124,W,4.42,234.87,170815,,,A*76,51.5406570434,-0.0118733013,11:10:42,17/8/2015,10,2,21.78,62.00,35
$GPRMC,111043.000,A,5132.4387,N,00000.7140,W,4.39,233.34,170815,,,A*74,51.5406417846,-0.0119000005,11:10:43,17/8/2015,10,0,21.78,62.00,35
$GPRMC,111044.000,A,5132.4380,N,00000.7154,W,4.45,230.24,170815,,,A*78,51.5406341552,-0.0119232999,11:10:44,17/8/2015,10,2,22.75,62.00,35
$GPRMC,111045.000,A,5132.4373,N,00000.7168,W,5.31,228.74,170815,,,A*74,51.5406265258,-0.0119466007,11:10:45,17/8/2015,10,1,21.29,62.00,35
$GPRMC,111046.000,A,5132.4365,N,00000.7186,W,4.78,228.61,170815,,,A*78,51.5406074523,-0.0119766008,11:10:46,17/8/2015,12,0,22.27,62.00,31
$GPRMC,111047.000,A,5132.4359,N,00000.7205,W,5.62,232.62,170815,,,A*7C,51.5405998229,-0.0120082998,11:10:47,17/8/2015,9,2,22.27,62.00,35
$GPRMC,111048.000,A,5132.4354,N,00000.7222,W,4.96,234.99,170815,,,A*73,51.5405921936,-0.0120366001,11:10:48,17/8/2015,10,4,22.75,62.00,35
$GPRMC,111049.000,A,5132.4351,N,00000.7238,W,4.42,242.45,170815,,,A*75,51.5405845642,-0.0120633006,11:10:49,17/8/2015,11,0,23.24,62.00,35
$GPRMC,111050.000,A,5132.4347,N,00000.7255,W,4.44,241.42,170815,,,A*73,51.5405769348,-0.0120916008,11:10:50,17/8/2015,10,1,23.24,62.00,30
$GPRMC,111051.000,A,5132.4343,N,00000.7273,W,4.58,239.27,170815,,,A*73,51.5405693054,-0.0121216011,11:10:51,17/8/2015,10,3,22.27,62.00,30
$GPRMC,111052.000,A,5132.4337,N,00000.7290,W,4.28,235.88,170815,,,A*70,51.5405616760,-0.0121500003,11:10:52,17/8/2015,10,3,22.75,62.00,36
$GPRMC,111053.000,A,5132.4332,N,00000.7306,W,5.03,233.86,170815,,,A*7A,51.5405502319,-0.0121765995,11:10:53,17/8/2015,10,0,22.75,62.00,35
$GPRMC,111054.000,A,5132.4329,N,00000.7323,W,4.76,242.54,170815,,,A*7A,51.5405502319,-0.0122050011,11:10:54,17/8/2015,10,2,22.75,62.00,33
$GPRMC,111055.000,A,5132.4324,N,00000.7344,W,4.93,237.06,170815,,,A*79,51.5405426025,-0.0122400009,11:10:55,17/8/2015,10,2,22.75,62.00,35
$GPRMC,111056.000,A,5132.4315,N,00000.7365,W,5.56,232.72,170815,,,A*75,51.5405273437,-0.0122749996,11:10:56,17/8/2015,10,2,22.75,62.00,35
$GPRMC,111057.000,A,5132.4305,N,00000.7387,W,5.95,228.07,170815,,,A*7F,51.5405120849,-0.0123116004,11:10:57,17/8/2015,10,2,22.75,62.00,35
$GPRMC,111058.000,A,5132.4301,N,00000.7399,W,5.02,236.55,170815,,,A*7D,51.5405044555,-0.0123316001,11:10:58,17/8/2015,11,4,22.75,62.00,35
$GPRMC,111059.000,A,5132.4299,N,00000.7408,W,4.76,236.04,170815,,,A*75,51.5404930114,-0.0123466002,11:10:59,17/8/2015,10,0,23.24,62.00,34
$GPRMC,111100.000,A,5132.4295,N,00000.7421,W,4.25,235.11,170815,,,A*7E,51.5404930114,-0.0123682999,11:11:0,17/8/2015,11,0,22.75,62.00,36
$GPRMC,111101.000,A,5132.4293,N,00000.7434,W,4.16,238.33,170815,,,A*70,51.5404853820,-0.0123900008,11:11:1,17/8/2015,7,2,22.27,62.00,34
$GPRMC,111102.000,A,5132.4290,N,00000.7447,W,3.43,242.98,170815,,,A*7F,51.5404853820,-0.0124116003,11:11:2,17/8/2015,7,6,21.78,62.00,35
$GPRMC,111103.000,A,5132.4286,N,00000.7460,W,3.46,239.42,170815,,,A*72,51.5404777526,-0.0124333012,11:11:3,17/8/2015,11,2,22.27,62.00,34
$GPRMC,111104.000,A,5132.4283,N,00000.7470,W,3.12,239.78,170815,,,A*79,51.5404701232,-0.0124500012,11:11:4,17/8/2015,18,0,23.24,62.00,34
$GPRMC,111105.000,A,5132.4278,N,00000.7482,W,3.36,234.97,170815,,,A*7B,51.5404624938,-0.0124699997,11:11:5,17/8/2015,10,3,23.24,62.00,34
$GPRMC,111106.000,A,5132.4271,N,00000.7495,W,3.81,231.87,170815,,,A*7F,51.5404548645,-0.0124916005,11:11:6,17/8/2015,11,2,22.75,62.00,34
$GPRMC,111107.000,A,5132.4265,N,00000.7508,W,4.26,232.76,170815,,,A*79,51.5404396057,-0.0125133013,11:11:7,17/8/2015,10,2,23.24,62.00,33
$GPRMC,111108.000,A,5132.4263,N,00000.7513,W,4.51,235.89,170815,,,A*7D,51.5404396057,-0.0125216007,11:11:8,17/8/2015,10,3,23.24,62.00,35
$GPRMC,111109.000,A,5132.4257,N,00000.7527,W,4.23,236.99,170815,,,A*7B,51.5404281616,-0.0125450015,11:11:9,17/8/2015,11,4,24.22,62.00,30
$GPRMC,111110.000,A,5132.4250,N,00000.7538,W,3.72,224.14,170815,,,A*7F,51.5404129028,-0.0125633001,11:11:10,17/8/2015,10,2,23.24,62.00,34
$GPRMC,111111.000,A,5132.4244,N,00000.7550,W,3.63,226.56,170815,,,A*71,51.5404052734,-0.0125833010,11:11:11,17/8/2015,11,0,24.22,62.00,29
$GPRMC,111112.000,A,5132.4237,N,00000.7564,W,3.83,231.70,170815,,,A*7D,51.5403976440,-0.0126066017,11:11:12,17/8/2015,11,0,23.24,62.00,29
$GPRMC,111113.000,A,5132.4235,N,00000.7572,W,3.55,237.81,170815,,,A*7A,51.5403900146,-0.0126200008,11:11:13,17/8/2015,8,7,21.78,62.00,34
$GPRMC,111114.000,A,5132.4233,N,00000.7578,W,3.25,235.14,170815,,,A*78,51.5403900146,-0.0126300001,11:11:14,17/8/2015,12,2,23.24,62.00,34
$GPRMC,111115.000,A,5132.4228,N,00000.7587,W,3.46,223.28,170815,,,A*7E,51.5403823852,-0.0126450002,11:11:15,17/8/2015,13,2,23.24,62.00,31
$GPRMC,111116.000,A,5132.4222,N,00000.7596,W,3.77,223.48,170815,,,A*73,51.5403709411,-0.0126600003,11:11:16,17/8/2015,12,0,23.24,62.00,33
$GPRMC,111117.000,A,5132.4217,N,00000.7607,W,3.65,225.34,170815,,,A*71,51.5403633117,-0.0126783001,11:11:17,17/8/2015,11,5,24.22,62.00,34
$GPRMC,111118.000,A,5132.4212,N,00000.7620,W,3.64,228.78,170815,,,A*7A,51.5403556823,-0.0126999998,11:11:18,17/8/2015,10,3,23.73,62.00,34
$GPRMC,111119.000,A,5132.4207,N,00000.7630,W,3.79,226.90,170815,,,A*7A,51.5403480529,-0.0127166008,11:11:19,17/8/2015,7,4,23.73,62.00,29
$GPRMC,111120.000,A,5132.4202,N,00000.7644,W,3.64,231.02,170815,,,A*77,51.5403404235,-0.0127399992,11:11:20,17/8/2015,11,0,23.24,62.00,34
$GPRMC,111121.000,A,5132.4198,N,00000.7658,W,3.88,239.95,170815,,,A*7F,51.5403327941,-0.0127632999,11:11:21,17/8/2015,8,4,23.24,62.00,28
$GPRMC,111122.000,A,5132.4194,N,00000.7669,W,4.21,233.62,170815,,,A*74,51.5403251647,-0.0127816009,11:11:22,17/8/2015,8,2,21.78,62.00,31
$GPRMC,111123.000,A,5132.4190,N,00000.7680,W,4.37,227.95,170815,,,A*7C,51.5403175354,-0.0127999997,11:11:23,17/8/2015,11,1,23.24,62.00,34
$GPRMC,111124.000,A,5132.4185,N,00000.7689,W,4.61,223.48,170815,,,A*71,51.5403060913,-0.0128149997,11:11:24,17/8/2015,8,0,23.73,62.00,29
$GPRMC,111125.000,A,5132.4175,N,00000.7702,W,5.02,223.43,170815,,,A*72,51.5402908325,-0.0128366004,11:11:25,17/8/2015,11,1,24.22,62.00,30
$GPRMC,111126.000,A,5132.4171,N,00000.7707,W,4.51,225.34,170815,,,A*71,51.5402832031,-0.0128450012,11:11:26,17/8/2015,11,3,23.24,62.00,33
$GPRMC,111127.000,A,5132.4168,N,00000.7711,W,4.40,229.13,170815,,,A*76,51.5402832031,-0.0128516006,11:11:27,17/8/2015,12,1,23.24,62.00,34
$GPRMC,111128.000,A,5132.4163,N,00000.7723,W,4.36,233.07,170815,,,A*7C,51.5402755737,-0.0128715991,11:11:28,17/8/2015,11,0,24.71,62.00,34
$GPRMC,111129.000,A,5132.4159,N,00000.7731,W,4.32,229.39,170815,,,A*75,51.5402679443,-0.0128850007,11:11:29,17/8/2015,11,0,23.24,62.00,34
$GPRMC,111130.000,A,5132.4162,N,00000.7721,W,3.98,230.20,170815,,,A*73,51.5402679443,-0.0128682994,11:11:30,17/8/2015,11,2,23.73,62.00,32
$GPRMC,111131.000,A,5132.4153,N,00000.7724,W,3.73,233.89,170815,,,A*70,51.5402603149,-0.0128733015,11:11:31,17/8/2015,11,1,23.24,62.00,34
$GPRMC,111132.000,A,5132.4146,N,00000.7724,W,2.88,238.33,170815,,,A*78,51.5402412414,-0.0128733015,11:11:32,17/8/2015,11,1,22.27,62.00,29
$GPRMC,111133.000,A,5132.4142,N,00000.7738,W,3.67,236.96,170815,,,A*71,51.5402336120,-0.0128965997,11:11:33,17/8/2015,7,0,22.27,62.00,31
$GPRMC,111134.000,A,5132.4136,N,00000.7751,W,4.00,234.22,170815,,,A*71,51.5402259826,-0.0129182994,11:11:34,17/8/2015,10,7,23.73,62.00,34
$GPRMC,111135.000,A,5132.4130,N,00000.7759,W,3.98,233.67,170815,,,A*7E,51.5402183532,-0.0129315996,11:11:35,17/8/2015,11,2,23.73,62.00,29
$GPRMC,111136.000,A,5132.4117,N,00000.7777,W,5.01,228.06,170815,,,A*7F,51.5401954650,-0.0129615998,11:11:36,17/8/2015,10,0,23.73,62.00,34
$GPRMC,111137.000,A,5132.4106,N,00000.7793,W,4.93,238.84,170815,,,A*75,51.5401763916,-0.0129883003,11:11:37,17/8/2015,10,0,23.73,62.00,34
$GPRMC,111138.000,A,5132.4101,N,00000.7820,W,5.23,244.14,170815,,,A*72,51.5401687622,-0.0130333006,11:11:38,17/8/2015,11,0,24.71,62.00,33
$GPRMC,111139.000,A,5132.4094,N,00000.7839,W,5.14,240.38,170815,,,A*78,51.5401535034,-0.0130649995,11:11:39,17/8/2015,8,2,23.24,62.00,33
$GPRMC,111140.000,A,5132.4091,N,00000.7851,W,4.20,233.06,170815,,,A*72,51.5401535034,-0.0130850017,11:11:40,17/8/2015,10,2,23.73,62.00,34
$GPRMC,111141.000,A,5132.4087,N,00000.7861,W,3.73,225.81,170815,,,A*7E,51.5401458740,-0.0131016016,11:11:41,17/8/2015,11,0,24.71,62.00,34
$GPRMC,111142.000,A,5132.4084,N,00000.7859,W,3.30,224.82,170815,,,A*70,51.5401382446,-0.0130983006,11:11:42,17/8/2015,8,1,24.22,62.00,31
$GPRMC,111143.000,A,5132.4082,N,00000.7850,W,3.93,223.00,170815,,,A*7A,51.5401382446,-0.0130833005,11:11:43,17/8/2015,11,0,24.22,62.00,36
$GPRMC,111144.000,A,5132.4076,N,00000.7857,W,4.14,226.43,170815,,,A*7B,51.5401268005,-0.0130949997,11:11:44,17/8/2015,8,2,24.22,62.00,33
$GPRMC,111145.000,A,5132.4068,N,00000.7869,W,4.79,221.02,170815,,,A*71,51.5401115417,-0.0131150007,11:11:45,17/8/2015,7,0,23.24,62.00,29
$GPRMC,111146.000,A,5132.4059,N,00000.7881,W,4.59,223.86,170815,,,A*7A,51.5400962829,-0.0131349992,11:11:46,17/8/2015,10,3,23.24,62.00,33
$GPRMC,111147.000,A,5132.4058,N,00000.7894,W,4.47,235.29,170815,,,A*73,51.5400962829,-0.0131566023,11:11:47,17/8/2015,10,1,23.73,62.00,33
$GPRMC,111148.000,A,5132.4053,N,00000.7909,W,4.13,240.85,170815,,,A*77,51.5400886535,-0.0131816005,11:11:48,17/8/2015,7,0,24.71,62.00,33
$GPRMC,111149.000,A,5132.4051,N,00000.7907,W,3.30,239.09,170815,,,A*76,51.5400886535,-0.0131783008,11:11:49,17/8/2015,9,4,24.22,62.00,33
$GPRMC,111150.000,A,5132.4047,N,00000.7905,W,4.30,226.05,170815,,,A*7E,51.5400810241,-0.0131749999,11:11:50,17/8/2015,11,4,23.73,62.00,33
$GPRMC,111151.000,A,5132.4040,N,00000.7905,W,4.44,227.17,170815,,,A*79,51.5400619506,-0.0131749999,11:11:51,17/8/2015,9,0,23.73,62.00,33
$GPRMC,111152.000,A,5132.4037,N,00000.7901,W,4.34,227.90,170815,,,A*76,51.5400619506,-0.0131683003,11:11:52,17/8/2015,8,0,25.68,62.00,33
$GPRMC,111153.000,A,5132.4044,N,00000.7865,W,2.57,237.87,170815,,,A*74,51.5400733947,-0.0131082999,11:11:53,17/8/2015,9,0,24.22,62.00,33
$GPRMC,111154.000,A,5132.4038,N,00000.7862,W,2.63,250.69,170815,,,A*79,51.5400619506,-0.0131033003,11:11:54,17/8/2015,9,12,24.71,62.00,28
$GPRMC,111155.000,A,5132.4034,N,00000.7867,W,2.74,279.68,170815,,,A*7D,51.5400543212,-0.0131116008,11:11:55,17/8/2015,9,0,23.73,62.00,30
$GPRMC,111156.000,A,5132.4047,N,00000.7889,W,3.21,303.50,170815,,,A*7C,51.5400810241,-0.0131483018,11:11:56,17/8/2015,12,1,24.22,62.00,34
$GPRMC,111157.000,A,5132.4061,N,00000.7911,W,3.59,302.23,170815,,,A*73,51.5401039123,-0.0131850004,11:11:57,17/8/2015,10,9,24.71,62.00,33
$GPRMC,111158.000,A,5132.4068,N,00000.7919,W,3.75,299.14,170815,,,A*74,51.5401115417,-0.0131982994,11:11:58,17/8/2015,13,4,24.22,62.00,34
$GPRMC,111159.000,A,5132.4073,N,00000.7937,W,2.65,291.23,170815,,,A*7F,51.5401191711,-0.0132282996,11:11:59,17/8/2015,10,15,24.22,62.00,33
$GPRMC,111200.000,A,5132.4081,N,00000.7952,W,1.51,302.53,170815,,,A*76,51.5401382446,-0.0132533001,11:12:0,17/8/2015,26,3,23.73,62.00,33
$GPRMC,111201.000,A,5132.4087,N,00000.7964,W,1.52,308.28,170815,,,A*71,51.5401458740,-0.0132732999,11:12:1,17/8/2015,9,1,24.22,62.00,33
$GPRMC,111202.000,A,5132.4094,N,00000.7976,W,2.34,309.60,170815,,,A*7D,51.5401535034,-0.0132932996,11:12:2,17/8/2015,10,1,24.22,62.00,33
$GPRMC,111203.000,A,5132.4100,N,00000.7990,W,4.27,286.37,170815,,,A*78,51.5401687622,-0.0133166003,11:12:3,17/8/2015,10,9,23.24,62.00,28
$GPRMC,111204.000,A,5132.4104,N,00000.8011,W,4.84,281.75,170815,,,A*7C,51.5401687622,-0.0133516013,11:12:4,17/8/2015,10,2,24.22,62.00,33
$GPRMC,111205.000,A,5132.4112,N,00000.8031,W,3.72,299.01,170815,,,A*7C,51.5401840209,-0.0133850002,11:12:5,17/8/2015,22,0,22.27,62.00,28
$GPRMC,111206.000,A,5132.4119,N,00000.8043,W,2.83,316.19,170815,,,A*71,51.5402030944,-0.0134049999,11:12:6,17/8/2015,22,6,24.22,62.00,33
$GPRMC,111207.000,A,5132.4126,N,00000.8057,W,2.50,337.77,170815,,,A*7C,51.5402107238,-0.0134283006,11:12:7,17/8/2015,24,2,22.27,62.00,31
$GPRMC,111208.000,A,5132.4133,N,00000.8069,W,3.22,321.89,170815,,,A*78,51.5402183532,-0.0134483003,11:12:8,17/8/2015,23,3,23.24,62.00,32
$GPRMC,111209.000,A,5132.4139,N,00000.8079,W,3.71,306.17,170815,,,A*76,51.5402336120,-0.0134650003,11:12:9,17/8/2015,25,9,23.73,62.00,28
$GPRMC,111210.000,A,5132.4144,N,00000.8086,W,3.77,309.12,170815,,,A*78,51.5402412414,-0.0134765994,11:12:10,17/8/2015,22,7,23.73,62.00,29
$GPRMC,111211.000,A,5132.4149,N,00000.8099,W,3.41,309.32,170815,,,A*7D,51.5402488708,-0.0134983003,11:12:11,17/8/2015,23,7,23.24,62.00,32
$GPRMC,111212.000,A,5132.4156,N,00000.8106,W,2.87,339.05,170815,,,A*7B,51.5402603149,-0.0135100007,11:12:12,17/8/2015,22,8,23.24,62.00,32
$GPRMC,111213.000,A,5132.4163,N,00000.8109,W,3.50,337.30,170815,,,A*70,51.5402755737,-0.0135150003,11:12:13,17/8/2015,22,0,22.75,62.00,32
$GPRMC,111214.000,A,5132.4170,N,00000.8114,W,3.68,325.02,170815,,,A*70,51.5402832031,-0.0135232996,11:12:14,17/8/2015,20,1,22.75,62.00,28
$GPRMC,111215.000,A,5132.4177,N,00000.8115,W,2.80,333.96,170815,,,A*7A,51.5402908325,-0.0135249996,11:12:15,17/8/2015,20,2,22.27,62.00,28
$GPRMC,111216.000,A,5132.4186,N,00000.8116,W,2.83,340.45,170815,,,A*7D,51.5403060913,-0.0135266005,11:12:16,17/8/2015,22,1,23.24,62.00,32
$GPRMC,111217.000,A,5132.4193,N,00000.8122,W,2.66,314.27,170815,,,A*71,51.5403251647,-0.0135366010,11:12:17,17/8/2015,28,4,23.24,62.00,32
$GPRMC,111218.000,A,5132.4203,N,00000.8127,W,3.69,331.79,170815,,,A*73,51.5403404235,-0.0135450005,11:12:18,17/8/2015,30,6,21.78,62.00,28
$GPRMC,111219.000,A,5132.4212,N,00000.8133,W,3.38,330.76,170815,,,A*7D,51.5403556823,-0.0135550010,11:12:19,17/8/2015,29,4,22.75,62.00,32
$GPRMC,111220.000,A,5132.4220,N,00000.8137,W,3.31,325.55,170815,,,A*7E,51.5403633117,-0.0135616004,11:12:20,17/8/2015,24,2,22.75,62.00,29
$GPRMC,111221.000,A,5132.4226,N,00000.8145,W,3.21,319.48,170815,,,A*7E,51.5403709411,-0.0135750007,11:12:21,17/8/2015,27,2,23.24,62.00,32
$GPRMC,111222.000,A,5132.4233,N,00000.8154,W,3.91,320.85,170815,,,A*79,51.5403900146,-0.0135899996,11:12:22,17/8/2015,25,2,23.24,62.00,32
$GPRMC,111223.000,A,5132.4239,N,00000.8162,W,3.57,311.56,170815,,,A*71,51.5403976440,-0.0136033010,11:12:23,17/8/2015,29,0,22.75,62.00,29
$GPRMC,111224.000,A,5132.4243,N,00000.8172,W,3.21,310.23,170815,,,A*78,51.5404052734,-0.0136200010,11:12:24,17/8/2015,28,0,22.27,62.00,32
$GPRMC,111225.000,A,5132.4248,N,00000.8174,W,2.63,330.10,170815,,,A*71,51.5404129028,-0.0136232995,11:12:25,17/8/2015,28,2,22.27,62.00,26
$GPRMC,111226.000,A,5132.4252,N,00000.8177,W,2.40,325.12,170815,,,A*7D,51.5404205322,-0.0136283016,11:12:26,17/8/2015,25,8,22.27,62.00,31
$GPRMC,111227.000,A,5132.4259,N,00000.8185,W,3.22,330.39,170815,,,A*72,51.5404281616,-0.0136416006,11:12:27,17/8/2015,23,4,22.27,62.00,31
$GPRMC,111228.000,A,5132.4267,N,00000.8194,W,3.61,327.71,170815,,,A*7D,51.5404472351,-0.0136565995,11:12:28,17/8/2015,27,0,22.27,62.00,31
$GPRMC,111229.000,A,5132.4272,N,00000.8202,W,2.78,314.84,170815,,,A*77,51.5404548645,-0.0136700010,11:12:29,17/8/2015,27,0,23.24,62.00,32
$GPRMC,111230.000,A,5132.4275,N,00000.8208,W,2.47,318.18,170815,,,A*77,51.5404624938,-0.0136799991,11:12:30,17/8/2015,28,5,22.75,62.00,27
$GPRMC,111231.000,A,5132.4280,N,00000.8217,W,3.00,319.78,170815,,,A*77,51.5404701232,-0.0136950004,11:12:31,17/8/2015,27,0,22.75,62.00,29
$GPRMC,111232.000,A,5132.4288,N,00000.8227,W,3.81,321.22,170815,,,A*72,51.5404777526,-0.0137116003,11:12:32,17/8/2015,24,0,21.78,62.00,26
$GPRMC,111233.000,A,5132.4292,N,00000.8236,W,3.00,315.21,170815,,,A*75,51.5404853820,-0.0137266016,11:12:33,17/8/2015,27,8,22.27,62.00,31
$GPRMC,111234.000,A,5132.4299,N,00000.8244,W,3.02,329.15,170815,,,A*76,51.5404930114,-0.0137400007,11:12:34,17/8/2015,26,10,21.78,62.00,35
$GPRMC,111235.000,A,5132.4306,N,00000.8250,W,3.04,330.20,170815,,,A*7D,51.5405120849,-0.0137500000,11:12:35,17/8/2015,24,2,22.75,62.00,32
$GPRMC,111236.000,A,5132.4312,N,00000.8254,W,3.07,325.34,170815,,,A*7D,51.5405197143,-0.0137565994,11:12:36,17/8/2015,24,3,21.78,62.00,28
$GPRMC,111237.000,A,5132.4318,N,00000.8261,W,2.83,321.19,170815,,,A*76,51.5405273437,-0.0137683010,11:12:37,17/8/2015,12,2,22.75,62.00,32
$GPRMC,111238.000,A,5132.4323,N,00000.8268,W,3.08,321.53,170815,,,A*74,51.5405349731,-0.0137800002,11:12:38,17/8/2015,27,5,21.29,62.00,30
$GPRMC,111239.000,A,5132.4328,N,00000.8275,W,2.83,314.06,170815,,,A*76,51.5405426025,-0.0137916016,11:12:39,17/8/2015,21,4,22.27,62.00,32
$GPRMC,111240.000,A,5132.4333,N,00000.8283,W,2.88,317.27,170815,,,A*70,51.5405502319,-0.0138050007,11:12:40,17/8/2015,24,0,22.75,62.00,32
$GPRMC,111241.000,A,5132.4340,N,00000.8292,W,2.90,323.42,170815,,,A*78,51.5405693054,-0.0138200020,11:12:41,17/8/2015,24,2,22.27,62.00,33
$GPRMC,111242.000,A,5132.4346,N,00000.8299,W,3.11,330.29,170815,,,A*71,51.5405769348,-0.0138316011,11:12:42,17/8/2015,25,1,21.29,62.00,32
$GPRMC,111243.000,A,5132.4352,N,00000.8304,W,2.66,326.52,170815,,,A*7A,51.5405845642,-0.0138400018,11:12:43,17/8/2015,24,5,21.29,62.00,27
$GPRMC,111244.000,A,5132.4358,N,00000.8310,W,2.85,333.40,170815,,,A*78,51.5405998229,-0.0138499999,11:12:44,17/8/2015,27,5,22.75,62.00,32
$GPRMC,111245.000,A,5132.4364,N,00000.8322,W,3.14,312.58,170815,,,A*74,51.5406074523,-0.0138700008,11:12:45,17/8/2015,25,3,21.29,62.00,28
$GPRMC,111246.000,A,5132.4371,N,00000.8331,W,3.15,322.83,170815,,,A*75,51.5406150817,-0.0138849997,11:12:46,17/8/2015,24,3,22.27,62.00,32
$GPRMC,111247.000,A,5132.4378,N,00000.8338,W,2.90,329.20,170815,,,A*7A,51.5406341552,-0.0138966012,11:12:47,17/8/2015,28,6,22.27,62.00,32
$GPRMC,111248.000,A,5132.4387,N,00000.8341,W,3.09,10.21,170815,,,A*42,51.5406417846,-0.0139016008,11:12:48,17/8/2015,24,0,22.75,62.00,32
$GPRMC,111249.000,A,5132.4395,N,00000.8348,W,2.89,337.41,170815,,,A*70,51.5406570434,-0.0139133000,11:12:49,17/8/2015,26,6,21.78,62.00,27
$GPRMC,111250.000,A,5132.4401,N,00000.8355,W,3.20,313.99,170815,,,A*7F,51.5406646728,-0.0139249992,11:12:50,17/8/2015,24,7,21.78,62.00,32
$GPRMC,111251.000,A,5132.4409,N,00000.8365,W,3.15,318.60,170815,,,A*7E,51.5406837463,-0.0139416003,11:12:51,17/8/2015,24,13,22.75,62.00,32
$GPRMC,111252.000,A,5132.4416,N,00000.8373,W,3.13,315.27,170815,,,A*7C,51.5406913757,-0.0139549994,11:12:52,17/8/2015,24,1,22.75,62.00,31
$GPRMC,111253.000,A,5132.4423,N,00000.8381,W,3.81,314.07,170815,,,A*7E,51.5407066345,-0.0139683008,11:12:53,17/8/2015,25,20,21.29,62.00,26
$GPRMC,111254.000,A,5132.4430,N,00000.8391,W,3.22,315.54,170815,,,A*74,51.5407142639,-0.0139849996,11:12:54,17/8/2015,23,1,22.27,62.00,32
$GPRMC,111255.000,A,5132.4438,N,00000.8400,W,3.63,318.46,170815,,,A*79,51.5407295227,-0.0139999998,11:12:55,17/8/2015,20,1,21.29,62.00,27
$GPRMC,111256.000,A,5132.4442,N,00000.8410,W,2.86,290.03,170815,,,A*7C,51.5407371520,-0.0140165996,11:12:56,17/8/2015,22,8,21.78,62.00,28
$GPRMC,111257.000,A,5132.4448,N,00000.8418,W,2.65,321.08,170815,,,A*72,51.5407485961,-0.0140300011,11:12:57,17/8/2015,25,2,22.75,62.00,32
$GPRMC,111258.000,A,5132.4454,N,00000.8426,W,2.71,316.02,170815,,,A*76,51.5407562255,-0.0140433001,11:12:58,17/8/2015,24,12,20.80,62.00,27
$GPRMC,111259.000,A,5132.4460,N,00000.8439,W,3.17,308.05,170815,,,A*77,51.5407638549,-0.0140650010,11:12:59,17/8/2015,22,8,21.29,62.00,26
$GPRMC,111300.000,A,5132.4468,N,00000.8448,W,3.15,319.43,170815,,,A*74,51.5407791137,-0.0140800008,11:13:0,17/8/2015,25,1,21.78,62.00,31
$GPRMC,111301.000,A,5132.4474,N,00000.8456,W,2.51,319.06,170815,,,A*77,51.5407867431,-0.0140933012,11:13:1,17/8/2015,25,2,21.78,62.00,31
$GPRMC,111302.000,A,5132.4482,N,00000.8463,W,3.04,318.20,170815,,,A*7F,51.5408058166,-0.0141050004,11:13:2,17/8/2015,28,8,21.78,62.00,31
$GPRMC,111303.000,A,5132.4490,N,00000.8471,W,3.16,320.84,170815,,,A*78,51.5408210754,-0.0141183004,11:13:3,17/8/2015,27,5,21.29,62.00,27
$GPRMC,111304.000,A,5132.4496,N,00000.8479,W,2.71,312.43,170815,,,A*7B,51.5408287048,-0.0141316008,11:13:4,17/8/2015,25,0,23.24,62.00,31
$GPRMC,111305.000,A,5132.4502,N,00000.8487,W,2.42,305.41,170815,,,A*73,51.5408363342,-0.0141449999,11:13:5,17/8/2015,27,7,20.80,62.00,28
$GPRMC,111306.000,A,5132.4505,N,00000.8496,W,2.54,294.61,170815,,,A*7B,51.5408439636,-0.0141600012,11:13:6,17/8/2015,28,2,20.31,62.00,33
$GPRMC,111307.000,A,5132.4511,N,00000.8507,W,2.98,302.68,170815,,,A*71,51.5408515930,-0.0141783008,11:13:7,17/8/2015,29,2,22.27,62.00,29
$GPRMC,111308.000,A,5132.4516,N,00000.8515,W,2.57,312.38,170815,,,A*7D,51.5408592224,-0.0141916012,11:13:8,17/8/2015,27,1,20.80,62.00,27
$GPRMC,111309.000,A,5132.4522,N,00000.8525,W,2.54,311.62,170815,,,A*77,51.5408706665,-0.0142083001,11:13:9,17/8/2015,25,11,21.78,62.00,26
$GPRMC,111310.000,A,5132.4528,N,00000.8532,W,2.53,325.97,170815,,,A*79,51.5408782958,-0.0142200002,11:13:10,17/8/2015,25,3,20.31,62.00,26
$GPRMC,111311.000,A,5132.4534,N,00000.8539,W,2.69,327.19,170815,,,A*73,51.5408935546,-0.0142316007,11:13:11,17/8/2015,28,3,21.78,62.00,31
$GPRMC,111312.000,A,5132.4539,N,00000.8546,W,2.93,310.85,170815,,,A*71,51.5409011840,-0.0142433023,11:13:12,17/8/2015,28,1,20.80,62.00,33
$GPRMC,111313.000,A,5132.4540,N,00000.8556,W,1.91,278.20,170815,,,A*7E,51.5409011840,-0.0142600002,11:13:13,17/8/2015,24,7,20.31,62.00,32
$GPRMC,111314.000,A,5132.4546,N,00000.8562,W,2.28,329.92,170815,,,A*75,51.5409088134,-0.0142700014,11:13:14,17/8/2015,25,24,22.27,62.00,28
$GPRMC,111315.000,A,5132.4553,N,00000.8568,W,2.17,338.19,170815,,,A*75,51.5409164428,-0.0142799997,11:13:15,17/8/2015,24,90,21.78,62.00,31
$GPRMC,111316.000,A,5132.4558,N,00000.8579,W,2.90,332.94,170815,,,A*7D,51.5409278869,-0.0142983016,11:13:16,17/8/2015,28,37,22.27,62.00,32
$GPRMC,111317.000,A,5132.4564,N,00000.8580,W,2.28,352.94,170815,,,A*70,51.5409431457,-0.0143000006,11:13:17,17/8/2015,27,9,22.27,62.00,31
$GPRMC,111318.000,A,5132.4573,N,00000.8585,W,3.85,330.20,170815,,,A*71,51.5409584045,-0.0143083000,11:13:18,17/8/2015,26,5,21.29,62.00,28
$GPRMC,111319.000,A,5132.4579,N,00000.8592,W,2.73,312.71,170815,,,A*70,51.5409660339,-0.0143199992,11:13:19,17/8/2015,24,1,21.78,62.00,31
$GPRMC,111320.000,A,5132.4586,N,00000.8600,W,2.20,332.71,170815,,,A*76,51.5409736633,-0.0143333015,11:13:20,17/8/2015,24,1,22.27,62.00,32
$GPRMC,111321.000,A,5132.4593,N,00000.8608,W,3.09,318.35,170815,,,A*79,51.5409927368,-0.0143466005,11:13:21,17/8/2015,22,4,20.31,62.00,27
$GPRMC,111322.000,A,5132.4602,N,00000.8616,W,3.35,310.88,170815,,,A*7F,51.5410003662,-0.0143599996,11:13:22,17/8/2015,27,5,20.31,62.00,27
$GPRMC,111323.000,A,5132.4610,N,00000.8628,W,4.26,300.20,170815,,,A*76,51.5410156250,-0.0143799996,11:13:23,17/8/2015,24,10,21.78,62.00,32
$GPRMC,111324.000,A,5132.4615,N,00000.8637,W,1.97,324.47,170815,,,A*72,51.5410232543,-0.0143949995,11:13:24,17/8/2015,23,3,22.27,62.00,30
$GPRMC,111325.000,A,5132.4621,N,00000.8643,W,2.48,317.04,170815,,,A*71,51.5410308837,-0.0144050002,11:13:25,17/8/2015,21,13,21.29,62.00,27
$GPRMC,111326.000,A,5132.4628,N,00000.8651,W,2.50,324.31,170815,,,A*77,51.5410499572,-0.0144183015,11:13:26,17/8/2015,20,6,20.80,62.00,31
$GPRMC,111327.000,A,5132.4634,N,00000.8656,W,3.09,316.86,170815,,,A*7C,51.5410575866,-0.0144266009,11:13:27,17/8/2015,19,2,20.31,62.00,33
$GPRMC,111328.000,A,5132.4639,N,00000.8664,W,2.96,309.79,170815,,,A*76,51.5410652160,-0.0144400000,11:13:28,17/8/2015,18,5,22.27,62.00,32
$GPRMC,111329.000,A,5132.4644,N,00000.8672,W,2.93,305.68,170815,,,A*73,51.5410728454,-0.0144533014,11:13:29,17/8/2015,20,15,22.27,62.00,34
$GPRMC,111330.000,A,5132.4650,N,00000.8683,W,3.34,319.31,170815,,,A*7D,51.5410804748,-0.0144716014,11:13:30,17/8/2015,21,6,21.78,62.00,32
$GPRMC,111331.000,A,5132.4657,N,00000.8694,W,2.38,1.94,170815,,,A*75,51.5410957336,-0.0144899988,11:13:31,17/8/2015,21,11,20.31,62.00,32
$GPRMC,111332.000,A,5132.4667,N,00000.8703,W,3.55,7.33,170815,,,A*7B,51.5411148071,-0.0145050001,11:13:32,17/8/2015,22,6,21.78,62.00,28
$GPRMC,111333.000,A,5132.4673,N,00000.8703,W,1.73,346.23,170815,,,A*7E,51.5411224365,-0.0145050001,11:13:33,17/8/2015,21,30,22.27,62.00,33
$GPRMC,111334.000,A,5132.4679,N,00000.8711,W,2.79,323.47,170815,,,A*78,51.5411300659,-0.0145183014,11:13:34,17/8/2015,24,3,22.27,62.00,31
$GPRMC,111335.000,A,5132.4688,N,00000.8709,W,4.99,44.30,170815,,,A*44,51.5411453247,-0.0145150003,11:13:35,17/8/2015,25,12,21.78,62.00,32
$GPRMC,111336.000,A,5132.4695,N,00000.8703,W,4.25,47.87,170815,,,A*49,51.5411605834,-0.0145050001,11:13:36,17/8/2015,27,5,21.29,62.00,31
$GPRMC,111337.000,A,5132.4706,N,00000.8701,W,4.50,10.95,170815,,,A*42,51.5411796569,-0.0145016002,11:13:37,17/8/2015,24,2,21.78,62.00,31
$GPRMC,111338.000,A,5132.4712,N,00000.8713,W,3.39,319.70,170815,,,A*72,51.5411872863,-0.0145215997,11:13:38,17/8/2015,24,0,22.27,62.00,31
$GPRMC,111339.000,A,5132.4723,N,00000.8718,W,4.36,23.96,170815,,,A*40,51.5412025451,-0.0145300006,11:13:39,17/8/2015,25,15,20.80,62.00,35
$GPRMC,111340.000,A,5132.4732,N,00000.8718,W,3.79,19.40,170815,,,A*40,51.5412178039,-0.0145300006,11:13:40,17/8/2015,29,2,20.80,62.00,35
$GPRMC,111341.000,A,5132.4740,N,00000.8715,W,2.88,7.36,170815,,,A*78,51.5412368774,-0.0145249986,11:13:41,17/8/2015,25,2,21.29,62.00,32
$GPRMC,111342.000,A,5132.4753,N,00000.8701,W,4.59,354.32,170815,,,A*77,51.5412521362,-0.0145016002,11:13:42,17/8/2015,26,14,20.31,62.00,34
$GPRMC,111343.000,A,5132.4759,N,00000.8704,W,4.86,304.35,170815,,,A*79,51.5412673950,-0.0145065999,11:13:43,17/8/2015,24,7,21.29,62.00,31
$GPRMC,111344.000,A,5132.4764,N,00000.8728,W,3.12,316.44,170815,,,A*71,51.5412750244,-0.0145466017,11:13:44,17/8/2015,25,13,22.27,62.00,31
$GPRMC,111345.000,A,5132.4769,N,00000.8743,W,2.57,321.53,170815,,,A*72,51.5412826538,-0.0145716009,11:13:45,17/8/2015,26,8,21.78,62.00,32
$GPRMC,111346.000,A,5132.4774,N,00000.8756,W,2.29,322.91,170815,,,A*7D,51.5412940979,-0.0145933008,11:13:46,17/8/2015,26,5,21.29,62.00,27
$GPRMC,111347.000,A,5132.4780,N,00000.8762,W,2.61,336.63,170815,,,A*74,51.5413017272,-0.0146033000,11:13:47,17/8/2015,27,7,21.78,62.00,29
$GPRMC,111348.000,A,5132.4786,N,00000.8766,W,2.74,344.01,170815,,,A*7C,51.5413093566,-0.0146100020,11:13:48,17/8/2015,24,0,21.29,62.00,31
$GPRMC,111349.000,A,5132.4790,N,00000.8778,W,2.12,334.36,170815,,,A*76,51.5413169860,-0.0146300020,11:13:49,17/8/2015,25,6,20.31,62.00,27
$GPRMC,111350.000,A,5132.4794,N,00000.8795,W,2.37,326.98,170815,,,A*79,51.5413246154,-0.0146583008,11:13:50,17/8/2015,26,4,21.78,62.00,31
$GPRMC,111351.000,A,5132.4800,N,00000.8801,W,2.65,346.04,170815,,,A*7C,51.5413322448,-0.0146683001,11:13:51,17/8/2015,26,0,21.78,62.00,31
$GPRMC,111352.000,A,5132.4804,N,00000.8805,W,1.60,340.03,170815,,,A*78,51.5413398742,-0.0146749997,11:13:52,17/8/2015,27,4,21.29,62.00,26
$GPRMC,111353.000,A,5132.4810,N,00000.8812,W,3.44,314.19,170815,,,A*74,51.5413475036,-0.0146866011,11:13:53,17/8/2015,25,0,20.80,62.00,31
$GPRMC,111354.000,A,5132.4816,N,00000.8820,W,3.56,317.90,170815,,,A*75,51.5413589477,-0.0147000002,11:13:54,17/8/2015,27,1,21.29,62.00,31
$GPRMC,111355.000,A,5132.4820,N,00000.8852,W,3.13,321.68,170815,,,A*77,51.5413665771,-0.0147532997,11:13:55,17/8/2015,28,5,21.78,62.00,30
$GPRMC,111356.000,A,5132.4827,N,00000.8861,W,2.90,324.71,170815,,,A*74,51.5413818359,-0.0147683010,11:13:56,17/8/2015,26,0,21.29,62.00,31
$GPRMC,111357.000,A,5132.4835,N,00000.8870,W,3.92,320.20,170815,,,A*75,51.5413894653,-0.0147833013,11:13:57,17/8/2015,27,0,20.31,62.00,33
$GPRMC,111358.000,A,5132.4837,N,00000.8898,W,3.40,301.40,170815,,,A*74,51.5413970947,-0.0148299989,11:13:58,17/8/2015,25,1,21.29,62.00,31
$GPRMC,111359.000,A,5132.4842,N,00000.8913,W,3.54,306.22,170815,,,A*73,51.5414047241,-0.0148550009,11:13:59,17/8/2015,25,1,21.78,62.00,31
$GPRMC,111400.000,A,5132.4848,N,00000.8931,W,3.13,323.42,170815,,,A*70,51.5414161682,-0.0148849987,11:14:0,17/8/2015,27,2,21.78,62.00,26
$GPRMC,111401.000,A,5132.4852,N,00000.8943,W,1.64,309.16,170815,,,A*74,51.5414237976,-0.0149050006,11:14:1,17/8/2015,30,0,20.31,62.00,32
$GPRMC,111402.000,A,5132.4856,N,00000.8950,W,1.01,340.53,170815,,,A*7E,51.5414237976,-0.0149166002,11:14:2,17/8/2015,28,2,20.31,62.00,32
$GPRMC,111403.000,A,5132.4862,N,00000.8958,W,1.76,324.57,170815,,,A*76,51.5414390563,-0.0149300003,11:14:3,17/8/2015,16,3,20.80,62.00,31
$GPRMC,111404.000,A,5132.4867,N,00000.8980,W,2.37,310.79,170815,,,A*7C,51.5414466857,-0.0149666013,11:14:4,17/8/2015,26,3,21.29,62.00,31
$GPRMC,111405.000,A,5132.4875,N,00000.8989,W,2.55,316.41,170815,,,A*7E,51.5414543151,-0.0149816012,11:14:5,17/8/2015,12,1,21.78,62.00,31
$GPRMC,111406.000,A,5132.4881,N,00000.8997,W,2.53,316.51,170815,,,A*7E,51.5414695739,-0.0149950003,11:14:6,17/8/2015,26,0,21.78,62.00,31
$GPRMC,111407.000,A,5132.4887,N,00000.9012,W,2.63,313.27,170815,,,A*7B,51.5414810180,-0.0150200009,11:14:7,17/8/2015,23,0,21.29,62.00,31
$GPRMC,111408.000,A,5132.4894,N,00000.9027,W,2.88,310.91,170815,,,A*7B,51.5414886474,-0.0150450000,11:14:8,17/8/2015,22,0,21.29,62.00,31
$GPRMC,111409.000,A,5132.4902,N,00000.9036,W,2.98,313.14,170815,,,A*7B,51.5415039062,-0.0150600013,11:14:9,17/8/2015,23,7,21.29,62.00,31
$GPRMC,111410.000,A,5132.4909,N,00000.9048,W,3.38,320.50,170815,,,A*7A,51.5415115356,-0.0150800013,11:14:10,17/8/2015,21,0,21.29,62.00,30
$GPRMC,111411.000,A,5132.4917,N,00000.9061,W,3.69,315.47,170815,,,A*7B,51.5415267944,-0.0151015996,11:14:11,17/8/2015,28,3,21.29,62.00,31
$GPRMC,111412.000,A,5132.4926,N,00000.9070,W,2.84,330.39,170815,,,A*76,51.5415458679,-0.0151166009,11:14:12,17/8/2015,28,0,20.31,62.00,31
$GPRMC,111413.000,A,5132.4934,N,00000.9087,W,2.88,306.90,170815,,,A*76,51.5415534973,-0.0151450014,11:14:13,17/8/2015,20,0,21.29,62.00,27
$GPRMC,111414.000,A,5132.4939,N,00000.9104,W,1.66,305.87,170815,,,A*70,51.5415687561,-0.0151732993,11:14:14,17/8/2015,10,5,21.78,62.00,28
$GPRMC,111415.000,A,5132.4945,N,00000.9115,W,2.26,334.62,170815,,,A*74,51.5415763854,-0.0151916017,11:14:15,17/8/2015,23,3,21.78,62.00,31
$GPRMC,111416.000,A,5132.4952,N,00000.9123,W,2.17,328.84,170815,,,A*73,51.5415840148,-0.0152050008,11:14:16,17/8/2015,25,0,21.29,62.00,30
$GPRMC,111417.000,A,5132.4956,N,00000.9137,W,2.22,295.00,170815,,,A*7E,51.5415916442,-0.0152283000,11:14:17,17/8/2015,25,1,21.78,62.00,26
$GPRMC,111418.000,A,5132.4957,N,00000.9150,W,1.78,281.76,170815,,,A*79,51.5415916442,-0.0152500009,11:14:18,17/8/2015,20,6,21.29,62.00,31
$GPRMC,111419.000,A,5132.4961,N,00000.9165,W,1.69,282.76,170815,,,A*78,51.5416030883,-0.0152750005,11:14:19,17/8/2015,13,5,21.29,62.00,30
$GPRMC,111420.000,A,5132.4964,N,00000.9174,W,4.85,307.21,170815,,,A*7E,51.5416107177,-0.0152900004,11:14:20,17/8/2015,24,6,20.80,62.00,32
$GPRMC,111421.000,A,5132.4974,N,00000.9186,W,4.37,325.23,170815,,,A*78,51.5416259765,-0.0153100013,11:14:21,17/8/2015,24,7,21.78,62.00,31
$GPRMC,111422.000,A,5132.4980,N,00000.9195,W,2.25,316.39,170815,,,A*7C,51.5416336059,-0.0153250002,11:14:22,17/8/2015,23,0,20.31,62.00,34
$GPRMC,111423.000,A,5132.4986,N,00000.9204,W,1.35,324.07,170815,,,A*7E,51.5416412353,-0.0153400001,11:14:23,17/8/2015,14,4,21.29,62.00,31
$GPRMC,111424.000,A,5132.4989,N,00000.9210,W,1.87,317.37,170815,,,A*79,51.5416488647,-0.0153500008,11:14:24,17/8/2015,9,27,21.29,62.00,31
$GPRMC,111425.000,A,5132.4985,N,00000.9226,W,2.63,275.68,170815,,,A*77,51.5416412353,-0.0153766012,11:14:25,17/8/2015,9,0,21.78,62.00,26
$GPRMC,111426.000,A,5132.4983,N,00000.9238,W,2.77,268.88,170815,,,A*7A,51.5416412353,-0.0153966007,11:14:26,17/8/2015,12,6,21.29,62.00,31
$GPRMC,111427.000,A,5132.4981,N,00000.9250,W,2.72,266.62,170815,,,A*78,51.5416336059,-0.0154166007,11:14:27,17/8/2015,28,0,20.31,62.00,30
$GPRMC,111428.000,A,5132.4981,N,00000.9258,W,2.41,270.70,170815,,,A*7B,51.5416336059,-0.0154299998,11:14:28,17/8/2015,20,0,21.29,62.00,30
$GPRMC,111429.000,A,5132.4979,N,00000.9265,W,2.10,269.27,170815,,,A*7D,51.5416336059,-0.0154415988,11:14:29,17/8/2015,8,0,21.78,62.00,30
$GPRMC,111430.000,A,5132.4974,N,00000.9267,W,1.71,254.31,170815,,,A*77,51.5416259765,-0.0154449996,11:14:30,17/8/2015,8,15,20.80,62.00,31
$GPRMC,111431.000,A,5132.4971,N,00000.9276,W,2.01,249.18,170815,,,A*70,51.5416183471,-0.0154600009,11:14:31,17/8/2015,10,1,22.75,62.00,30
$GPRMC,111432.000,A,5132.4966,N,00000.9283,W,2.23,242.52,170815,,,A*7A,51.5416107177,-0.0154716014,11:14:32,17/8/2015,12,2,21.29,62.00,26
$GPRMC,111433.000,A,5132.4959,N,00000.9291,W,2.42,236.50,170815,,,A*72,51.5416030883,-0.0154850006,11:14:33,17/8/2015,10,0,22.27,62.00,30
$GPRMC,111434.000,A,5132.4949,N,00000.9297,W,2.58,226.53,170815,,,A*7B,51.5415840148,-0.0154950008,11:14:34,17/8/2015,10,8,20.80,62.00,30
$GPRMC,111435.000,A,5132.4939,N,00000.9307,W,2.96,222.65,170815,,,A*76,51.5415687561,-0.0155116009,11:14:35,17/8/2015,10,50,22.75,62.00,30
$GPRMC,111436.000,A,5132.4932,N,00000.9317,W,2.60,240.14,170815,,,A*74,51.5415534973,-0.0155282998,11:14:36,17/8/2015,12,4,21.78,62.00,29
$GPRMC,111437.000,A,5132.4925,N,00000.9327,W,2.60,224.49,170815,,,A*7A,51.5415458679,-0.0155450000,11:14:37,17/8/2015,9,1,21.29,62.00,27
$GPRMC,111438.000,A,5132.4918,N,00000.9339,W,3.19,233.89,170815,,,A*71,51.5415267944,-0.0155650019,11:14:38,17/8/2015,8,0,21.78,62.00,31
$GPRMC,111439.000,A,5132.4912,N,00000.9351,W,3.46,234.29,170815,,,A*73,51.5415191650,-0.0155850005,11:14:39,17/8/2015,6,0,22.27,62.00,30
$GPRMC,111440.000,A,5132.4903,N,00000.9364,W,4.16,230.58,170815,,,A*7B,51.5415039062,-0.0156065998,11:14:40,17/8/2015,11,0,22.75,62.00,31
$GPRMC,111441.000,A,5132.4895,N,00000.9376,W,3.87,222.87,170815,,,A*79,51.5414886474,-0.0156265997,11:14:41,17/8/2015,9,0,22.27,62.00,27
$GPRMC,111442.000,A,5132.4887,N,00000.9387,W,3.53,229.50,170815,,,A*7F,51.5414810180,-0.0156450009,11:14:42,17/8/2015,9,0,22.27,62.00,31
$GPRMC,111443.000,A,5132.4880,N,00000.9399,W,3.48,232.00,170815,,,A*73,51.5414619445,-0.0156650009,11:14:43,17/8/2015,9,1,22.75,62.00,31
$GPRMC,111444.000,A,5132.4875,N,00000.9411,W,3.47,241.53,170815,,,A*74,51.5414543151,-0.0156850004,11:14:44,17/8/2015,6,5,22.75,62.00,26
$GPRMC,111445.000,A,5132.4870,N,00000.9423,W,3.59,240.72,170815,,,A*7C,51.5414466857,-0.0157050013,11:14:45,17/8/2015,6,7,21.78,62.00,30
$GPRMC,111446.000,A,5132.4870,N,00000.9435,W,2.88,262.84,170815,,,A*7C,51.5414466857,-0.0157249999,11:14:46,17/8/2015,9,3,22.75,62.00,30
$GPRMC,111447.000,A,5132.4873,N,00000.9452,W,2.99,268.57,170815,,,A*7B,51.5414543151,-0.0157533001,11:14:47,17/8/2015,9,3,22.27,62.00,30
$GPRMC,111448.000,A,5132.4876,N,00000.9470,W,3.15,281.52,170815,,,A*76,51.5414619445,-0.0157833003,11:14:48,17/8/2015,7,41,23.24,62.00,27
$GPRMC,111449.000,A,5132.4879,N,00000.9487,W,3.38,278.04,170815,,,A*7A,51.5414619445,-0.0158115997,11:14:49,17/8/2015,9,49,23.24,62.00,26
$GPRMC,111450.000,A,5132.4881,N,00000.9503,W,2.78,277.37,170815,,,A*72,51.5414695739,-0.0158383011,11:14:50,17/8/2015,9,21,23.24,62.00,26
$GPRMC,111451.000,A,5132.4885,N,00000.9519,W,3.30,286.20,170815,,,A*79,51.5414695739,-0.0158649992,11:14:51,17/8/2015,7,7,22.75,62.00,31
$GPRMC,111452.000,A,5132.4889,N,00000.9536,W,3.15,285.01,170815,,,A*7C,51.5414810180,-0.0158933019,11:14:52,17/8/2015,9,0,22.75,62.00,31
$GPRMC,111453.000,A,5132.4894,N,00000.9552,W,2.90,287.75,170815,,,A*7E,51.5414886474,-0.0159200000,11:14:53,17/8/2015,6,0,23.24,62.00,31
$GPRMC,111454.000,A,5132.4897,N,00000.9568,W,2.67,283.78,170815,,,A*72,51.5414962768,-0.0159466004,11:14:54,17/8/2015,9,0,23.24,62.00,31
$GPRMC,111455.000,A,5132.4902,N,00000.9581,W,3.19,294.74,170815,,,A*7B,51.5415039062,-0.0159682998,11:14:55,17/8/2015,9,0,21.78,62.00,32
$GPRMC,111456.000,A,5132.4905,N,00000.9595,W,3.32,282.71,170815,,,A*71,51.5415115356,-0.0159915995,11:14:56,17/8/2015,9,3,23.73,62.00,27
$GPRMC,111457.000,A,5132.4907,N,00000.9612,W,2.94,283.89,170815,,,A*75,51.5415115356,-0.0160200014,11:14:57,17/8/2015,9,4,22.27,62.00,30
$GPRMC,111458.000,A,5132.4909,N,00000.9627,W,2.93,280.80,170815,,,A*7F,51.5415115356,-0.0160450005,11:14:58,17/8/2015,6,2,21.78,62.00,33
$GPRMC,111459.000,A,5132.4911,N,00000.9642,W,3.05,290.05,170815,,,A*76,51.5415191650,-0.0160700011,11:14:59,17/8/2015,9,0,23.24,62.00,30
$GPRMC,111500.000,A,5132.4913,N,00000.9657,W,2.99,286.09,170815,,,A*72,51.5415191650,-0.0160950002,11:15:0,17/8/2015,9,3,21.78,62.00,32
$GPRMC,111501.000,A,5132.4916,N,00000.9673,W,2.96,293.23,170815,,,A*73,51.5415267944,-0.0161216020,11:15:1,17/8/2015,9,0,23.24,62.00,30
$GPRMC,111502.000,A,5132.4920,N,00000.9687,W,2.83,306.16,170815,,,A*71,51.5415382385,-0.0161450004,11:15:2,17/8/2015,9,0,23.24,62.00,28
$GPRMC,111503.000,A,5132.4924,N,00000.9702,W,3.14,298.18,170815,,,A*7F,51.5415382385,-0.0161700010,11:15:3,17/8/2015,9,2,23.24,62.00,30
$GPRMC,111504.000,A,5132.4927,N,00000.9718,W,3.03,298.69,170815,,,A*70,51.5415458679,-0.0161966013,11:15:4,17/8/2015,7,1,23.24,62.00,30
$GPRMC,111505.000,A,5132.4931,N,00000.9731,W,2.68,291.96,170815,,,A*78,51.5415534973,-0.0162183022,11:15:5,17/8/2015,6,3,23.24,62.00,30
$GPRMC,111506.000,A,5132.4935,N,00000.9745,W,3.22,306.03,170815,,,A*70,51.5415611267,-0.0162416005,11:15:6,17/8/2015,9,0,23.24,62.00,30
$GPRMC,111507.000,A,5132.4940,N,00000.9760,W,3.73,287.06,170815,,,A*7D,51.5415687561,-0.0162666010,11:15:7,17/8/2015,6,0,22.27,62.00,32
$GPRMC,111508.000,A,5132.4944,N,00000.9772,W,2.35,314.28,170815,,,A*71,51.5415763854,-0.0162865996,11:15:8,17/8/2015,6,0,22.75,62.00,31
$GPRMC,111509.000,A,5132.4949,N,00000.9784,W,2.77,309.66,170815,,,A*74,51.5415840148,-0.0163066015,11:15:9,17/8/2015,9,0,23.24,62.00,29
$GPRMC,111510.000,A,5132.4953,N,00000.9795,W,1.84,307.25,170815,,,A*71,51.5415840148,-0.0163249993,11:15:10,17/8/2015,18,6,23.73,62.00,30
$GPRMC,111511.000,A,5132.4957,N,00000.9802,W,2.46,304.88,170815,,,A*7C,51.5415916442,-0.0163366022,11:15:11,17/8/2015,8,0,22.75,62.00,32
$GPRMC,111512.000,A,5132.4961,N,00000.9814,W,2.54,307.06,170815,,,A*7B,51.5416030883,-0.0163566007,11:15:12,17/8/2015,9,1,22.75,62.00,29
$GPRMC,111513.000,A,5132.4970,N,00000.9825,W,3.57,333.94,170815,,,A*76,51.5416183471,-0.0163749990,11:15:13,17/8/2015,9,0,23.24,62.00,30
$GPRMC,111514.000,A,5132.4975,N,00000.9823,W,3.11,28.13,170815,,,A*46,51.5416259765,-0.0163716006,11:15:14,17/8/2015,9,32,23.24,62.00,30
$GPRMC,111515.000,A,5132.4977,N,00000.9828,W,2.19,283.83,170815,,,A*7D,51.5416259765,-0.0163800001,11:15:15,17/8/2015,7,28,22.27,62.00,29
$GPRMC,111516.000,A,5132.4979,N,00000.9838,W,3.08,279.35,170815,,,A*78,51.5416336059,-0.0163965997,11:15:16,17/8/2015,6,1,22.27,62.00,30
$GPRMC,111517.000,A,5132.4980,N,00000.9855,W,3.36,278.62,170815,,,A*7A,51.5416336059,-0.0164250001,11:15:17,17/8/2015,7,6,23.73,62.00,30
$GPRMC,111518.000,A,5132.4969,N,00000.9873,W,6.63,234.24,170815,,,A*79,51.5416183471,-0.0164550008,11:15:18,17/8/2015,8,21,24.22,62.00,29
$GPRMC,111519.000,A,5132.4965,N,00000.9895,W,6.71,252.17,170815,,,A*7F,51.5416107177,-0.0164916014,11:15:19,17/8/2015,6,8,23.24,62.00,29
$GPRMC,111520.000,A,5132.4960,N,00000.9919,W,7.25,252.53,170815,,,A*75,51.5416030883,-0.0165315999,11:15:20,17/8/2015,8,10,22.75,62.00,30
$GPRMC,111521.000,A,5132.4966,N,00000.9935,W,5.03,269.96,170815,,,A*7B,51.5416107177,-0.0165583014,11:15:21,17/8/2015,9,3,22.27,62.00,25
$GPRMC,111522.000,A,5132.4966,N,00000.9949,W,4.48,265.69,170815,,,A*71,51.5416107177,-0.0165816011,11:15:22,17/8/2015,11,8,22.27,62.00,31
$GPRMC,111523.000,A,5132.4972,N,00000.9961,W,3.11,272.50,170815,,,A*78,51.5416183471,-0.0166015996,11:15:23,17/8/2015,9,5,23.24,62.00,25
$GPRMC,111524.000,A,5132.4977,N,00000.9972,W,2.68,280.28,170815,,,A*75,51.5416259765,-0.0166200017,11:15:24,17/8/2015,9,12,22.27,62.00,31
$GPRMC,111525.000,A,5132.4979,N,00000.9983,W,2.55,274.86,170815,,,A*75,51.5416336059,-0.0166383018,11:15:25,17/8/2015,9,4,23.73,62.00,30
$GPRMC,111526.000,A,5132.4980,N,00000.9997,W,3.49,271.40,170815,,,A*76,51.5416336059,-0.0166616010,11:15:26,17/8/2015,9,0,22.27,62.00,30
$GPRMC,111527.000,A,5132.4980,N,00001.0013,W,3.60,270.43,170815,,,A*73,51.5416336059,-0.0166883001,11:15:27,17/8/2015,10,4,22.27,62.00,32
$GPRMC,111528.000,A,5132.4980,N,00001.0030,W,3.98,273.26,170815,,,A*7A,51.5416336059,-0.0167166004,11:15:28,17/8/2015,9,6,21.78,62.00,30
$GPRMC,111529.000,A,5132.4981,N,00001.0047,W,3.41,272.05,170815,,,A*7E,51.5416336059,-0.0167450008,11:15:29,17/8/2015,6,3,21.78,62.00,26
$GPRMC,111530.000,A,5132.4981,N,00001.0063,W,2.86,270.34,170815,,,A*7A,51.5416336059,-0.0167716016,11:15:30,17/8/2015,9,5,22.27,62.00,26
$GPRMC,111531.000,A,5132.4979,N,00001.0076,W,3.07,261.37,170815,,,A*73,51.5416336059,-0.0167933011,11:15:31,17/8/2015,8,10,22.75,62.00,30
$GPRMC,111532.000,A,5132.4977,N,00001.0088,W,2.76,260.12,170815,,,A*7E,51.5416259765,-0.0168133010,11:15:32,17/8/2015,8,0,23.24,62.00,27
$GPRMC,111533.000,A,5132.4975,N,00001.0100,W,3.08,261.12,170815,,,A*75,51.5416259765,-0.0168333029,11:15:33,17/8/2015,9,18,22.75,62.00,30
$GPRMC,111534.000,A,5132.4973,N,00001.0113,W,3.29,259.36,170815,,,A*78,51.5416183471,-0.0168550014,11:15:34,17/8/2015,6,0,22.75,62.00,31
$GPRMC,111535.000,A,5132.4970,N,00001.0128,W,3.65,252.03,170815,,,A*77,51.5416183471,-0.0168799996,11:15:35,17/8/2015,6,7,23.24,62.00,30
$GPRMC,111536.000,A,5132.4967,N,00001.0141,W,3.04,249.05,170815,,,A*76,51.5416107177,-0.0169016003,11:15:36,17/8/2015,17,3,23.73,62.00,30
$GPRMC,111537.000,A,5132.4964,N,00001.0151,W,2.71,245.94,170815,,,A*72,51.5416107177,-0.0169183015,11:15:37,17/8/2015,10,6,24.22,62.00,30
$GPRMC,111538.000,A,5132.4960,N,00001.0161,W,2.58,250.97,170815,,,A*76,51.5416030883,-0.0169350004,11:15:38,17/8/2015,11,1,22.27,62.00,25
$GPRMC,111539.000,A,5132.4956,N,00001.0171,W,3.44,236.10,170815,,,A*70,51.5415916442,-0.0169515991,11:15:39,17/8/2015,9,2,24.22,62.00,30
$GPRMC,111540.000,A,5132.4949,N,00001.0181,W,3.73,233.18,170815,,,A*76,51.5415840148,-0.0169683003,11:15:40,17/8/2015,10,1,22.27,62.00,25
$GPRMC,111541.000,A,5132.4944,N,00001.0190,W,3.29,233.38,170815,,,A*77,51.5415763854,-0.0169833002,11:15:41,17/8/2015,10,0,22.27,62.00,32
$GPRMC,111542.000,A,5132.4938,N,00001.0200,W,3.34,231.55,170815,,,A*70,51.5415611267,-0.0169999980,11:15:42,17/8/2015,10,7,22.27,62.00,32
$GPRMC,111543.000,A,5132.4935,N,00001.0211,W,2.71,247.93,170815,,,A*77,51.5415611267,-0.0170183000,11:15:43,17/8/2015,10,9,23.73,62.00,29
$GPRMC,111544.000,A,5132.4932,N,00001.0223,W,3.54,242.99,170815,,,A*7F,51.5415534973,-0.0170382986,11:15:44,17/8/2015,10,9,23.73,62.00,29
$GPRMC,111545.000,A,5132.4929,N,00001.0238,W,3.69,248.06,170815,,,A*7C,51.5415458679,-0.0170632982,11:15:45,17/8/2015,7,3,23.73,62.00,30
$GPRMC,111546.000,A,5132.4926,N,00001.0252,W,3.45,245.16,170815,,,A*7E,51.5415458679,-0.0170866012,11:15:46,17/8/2015,8,0,24.22,62.00,29
$GPRMC,111547.000,A,5132.4925,N,00001.0263,W,3.09,253.31,170815,,,A*74,51.5415458679,-0.0171050014,11:15:47,17/8/2015,7,2,24.22,62.00,29
$GPRMC,111548.000,A,5132.4923,N,00001.0275,W,2.89,242.36,170815,,,A*74,51.5415382385,-0.0171250009,11:15:48,17/8/2015,10,0,24.22,62.00,30
$GPRMC,111549.000,A,5132.4921,N,00001.0288,W,3.24,238.53,170815,,,A*7D,51.5415382385,-0.0171466007,11:15:49,17/8/2015,10,0,24.22,62.00,29
$GPRMC,111550.000,A,5132.4918,N,00001.0302,W,3.51,248.29,170815,,,A*74,51.5415267944,-0.0171700000,11:15:50,17/8/2015,10,1,23.73,62.00,28
$GPRMC,111551.000,A,5132.4915,N,00001.0318,W,3.75,243.10,170815,,,A*74,51.5415267944,-0.0171965980,11:15:51,17/8/2015,10,4,23.73,62.00,29
$GPRMC,111552.000,A,5132.4912,N,00001.0334,W,3.54,249.07,170815,,,A*71,51.5415191650,-0.0172232999,11:15:52,17/8/2015,10,0,25.20,62.00,29
$GPRMC,111553.000,A,5132.4909,N,00001.0349,W,3.35,249.34,170815,,,A*77,51.5415115356,-0.0172483015,11:15:53,17/8/2015,10,3,23.73,62.00,25
$GPRMC,111554.000,A,5132.4906,N,00001.0365,W,3.40,244.23,170815,,,A*78,51.5415115356,-0.0172749996,11:15:54,17/8/2015,9,8,24.22,62.00,29
$GPRMC,111555.000,A,5132.4903,N,00001.0381,W,3.52,244.45,170815,,,A*75,51.5415039062,-0.0173016014,11:15:55,17/8/2015,7,3,24.71,62.00,30
$GPRMC,111556.000,A,5132.4901,N,00001.0399,W,3.69,242.31,170815,,,A*70,51.5415039062,-0.0173316001,11:15:56,17/8/2015,10,3,23.24,62.00,29
$GPRMC,111557.000,A,5132.4898,N,00001.0414,W,3.89,245.92,170815,,,A*72,51.5414962768,-0.0173566007,11:15:57,17/8/2015,9,1,23.24,62.00,32
$GPRMC,111558.000,A,5132.4897,N,00001.0427,W,3.01,246.40,170815,,,A*7E,51.5414962768,-0.0173783006,11:15:58,17/8/2015,7,3,25.68,62.00,29
$GPRMC,111559.000,A,5132.4895,N,00001.0438,W,3.06,247.48,170815,,,A*7D,51.5414886474,-0.0173966002,11:15:59,17/8/2015,7,0,23.24,62.00,29
$GPRMC,111600.000,A,5132.4892,N,00001.0447,W,3.05,245.48,170815,,,A*7C,51.5414886474,-0.0174116015,11:16:0,17/8/2015,8,3,24.71,62.00,26
$GPRMC,111601.000,A,5132.4889,N,00001.0460,W,3.42,243.68,170815,,,A*75,51.5414810180,-0.0174333024,11:16:1,17/8/2015,10,3,24.71,62.00,27
$GPRMC,111602.000,A,5132.4886,N,00001.0473,W,3.12,252.22,170815,,,A*70,51.5414810180,-0.0174549999,11:16:2,17/8/2015,10,0,24.71,62.00,29
$GPRMC,111603.000,A,5132.4882,N,00001.0485,W,2.92,232.41,170815,,,A*76,51.5414695739,-0.0174750018,11:16:3,17/8/2015,10,25,24.71,62.00,29
$GPRMC,111604.000,A,5132.4878,N,00001.0497,W,2.91,245.65,170815,,,A*72,51.5414619445,-0.0174950003,11:16:4,17/8/2015,8,9,24.22,62.00,24
$GPRMC,111605.000,A,5132.4873,N,00001.0508,W,2.97,235.27,170815,,,A*78,51.5414543151,-0.0175133013,11:16:5,17/8/2015,10,0,23.73,62.00,31
$GPRMC,111606.000,A,5132.4870,N,00001.0518,W,2.67,234.20,170815,,,A*70,51.5414466857,-0.0175300002,11:16:6,17/8/2015,10,0,24.71,62.00,30
$GPRMC,111607.000,A,5132.4865,N,00001.0529,W,2.61,238.83,170815,,,A*74,51.5414390563,-0.0175482997,11:16:7,17/8/2015,9,2,23.73,62.00,25
$GPRMC,111608.000,A,5132.4861,N,00001.0539,W,3.51,240.29,170815,,,A*73,51.5414390563,-0.0175650000,11:16:8,17/8/2015,8,14,24.22,62.00,29
$GPRMC,111609.000,A,5132.4856,N,00001.0548,W,3.56,233.73,170815,,,A*7C,51.5414237976,-0.0175800013,11:16:9,17/8/2015,8,8,24.71,62.00,29
$GPRMC,111610.000,A,5132.4851,N,00001.0560,W,3.09,242.72,170815,,,A*74,51.5414161682,-0.0175999999,11:16:10,17/8/2015,10,12,25.20,62.00,30
$GPRMC,111611.000,A,5132.4846,N,00001.0571,W,3.04,229.95,170815,,,A*7A,51.5414047241,-0.0176182994,11:16:11,17/8/2015,10,2,24.22,62.00,31
$GPRMC,111612.000,A,5132.4841,N,00001.0583,W,3.01,235.15,170815,,,A*73,51.5413970947,-0.0176382994,11:16:12,17/8/2015,9,41,23.24,62.00,29
$GPRMC,111613.000,A,5132.4835,N,00001.0594,W,2.79,225.05,170815,,,A*79,51.5413894653,-0.0176566004,11:16:13,17/8/2015,9,0,24.22,62.00,24
$GPRMC,111614.000,A,5132.4830,N,00001.0603,W,3.19,227.45,170815,,,A*77,51.5413818359,-0.0176716017,11:16:14,17/8/2015,9,55,24.71,62.00,29
$GPRMC,111615.000,A,5132.4825,N,00001.0613,W,3.25,233.88,170815,,,A*78,51.5413742065,-0.0176883006,11:16:15,17/8/2015,8,2,24.22,62.00,29
$GPRMC,111616.000,A,5132.4821,N,00001.0626,W,3.07,237.50,170815,,,A*78,51.5413665771,-0.0177100000,11:16:16,17/8/2015,10,0,22.75,62.00,30
$GPRMC,111617.000,A,5132.4816,N,00001.0636,W,3.32,224.43,170815,,,A*7A,51.5413589477,-0.0177266001,11:16:17,17/8/2015,7,5,24.71,62.00,29
$GPRMC,111618.000,A,5132.4810,N,00001.0647,W,3.15,225.92,170815,,,A*7D,51.5413475036,-0.0177449998,11:16:18,17/8/2015,9,4,24.22,62.00,29
$GPRMC,111619.000,A,5132.4805,N,00001.0657,W,3.09,222.94,170815,,,A*75,51.5413398742,-0.0177616000,11:16:19,17/8/2015,9,1,24.22,62.00,31
$GPRMC,111620.000,A,5132.4800,N,00001.0672,W,3.67,229.01,170815,,,A*72,51.5413322448,-0.0177865991,11:16:20,17/8/2015,6,3,24.71,62.00,29
$GPRMC,111621.000,A,5132.4794,N,00001.0688,W,3.55,225.55,170815,,,A*78,51.5413246154,-0.0178133010,11:16:21,17/8/2015,9,7,23.73,62.00,29
$GPRMC,111622.000,A,5132.4789,N,00001.0701,W,4.00,229.59,170815,,,A*70,51.5413169860,-0.0178349995,11:16:22,17/8/2015,10,20,25.20,62.00,31
$GPRMC,111623.000,A,5132.4781,N,00001.0714,W,5.05,219.98,170815,,,A*77,51.5413017272,-0.0178565988,11:16:23,17/8/2015,8,5,22.75,62.00,29
$GPRMC,111624.000,A,5132.4774,N,00001.0727,W,4.48,228.51,170815,,,A*75,51.5412940979,-0.0178782997,11:16:24,17/8/2015,9,49,24.22,62.00,28
$GPRMC,111625.000,A,5132.4768,N,00001.0739,W,3.38,230.85,170815,,,A*76,51.5412750244,-0.0178982996,11:16:25,17/8/2015,10,2,23.24,62.00,25
$GPRMC,111626.000,A,5132.4763,N,00001.0748,W,2.40,238.62,170815,,,A*77,51.5412673950,-0.0179132995,11:16:26,17/8/2015,10,4,25.20,62.00,30
$GPRMC,111627.000,A,5132.4759,N,00001.0754,W,2.70,235.05,170815,,,A*7D,51.5412673950,-0.0179233016,11:16:27,17/8/2015,10,1,24.22,62.00,29
$GPRMC,111628.000,A,5132.4756,N,00001.0767,W,3.30,247.79,170815,,,A*76,51.5412597656,-0.0179450011,11:16:28,17/8/2015,6,2,25.20,62.00,29
$GPRMC,111629.000,A,5132.4750,N,00001.0780,W,3.26,237.72,170815,,,A*73,51.5412521362,-0.0179665994,11:16:29,17/8/2015,9,4,24.22,62.00,28
$GPRMC,111630.000,A,5132.4749,N,00001.0795,W,3.49,256.04,170815,,,A*78,51.5412521362,-0.0179916009,11:16:30,17/8/2015,9,0,23.73,62.00,32
$GPRMC,111631.000,A,5132.4745,N,00001.0811,W,3.94,253.95,170815,,,A*7B,51.5412445068,-0.0180183029,11:16:31,17/8/2015,6,1,23.73,62.00,29
$GPRMC,111632.000,A,5132.4744,N,00001.0827,W,3.86,266.83,170815,,,A*7E,51.5412445068,-0.0180450010,11:16:32,17/8/2015,5,2,24.71,62.00,27
$GPRMC,111633.000,A,5132.4743,N,00001.0842,W,3.57,269.19,170815,,,A*7B,51.5412368774,-0.0180700006,11:16:33,17/8/2015,9,6,23.73,62.00,29
$GPRMC,111634.000,A,5132.4743,N,00001.0859,W,3.72,277.04,170815,,,A*72,51.5412368774,-0.0180983009,11:16:34,17/8/2015,9,10,25.20,62.00,28
$GPRMC,111635.000,A,5132.4742,N,00001.0874,W,2.84,267.49,170815,,,A*7D,51.5412368774,-0.0181233005,11:16:35,17/8/2015,10,1,24.22,62.00,25
$GPRMC,111636.000,A,5132.4741,N,00001.0885,W,3.04,261.55,170815,,,A*71,51.5412368774,-0.0181416015,11:16:36,17/8/2015,9,1,24.22,62.00,29
$GPRMC,111637.000,A,5132.4741,N,00001.0900,W,3.65,270.68,170815,,,A*75,51.5412368774,-0.0181666002,11:16:37,17/8/2015,9,3,25.20,62.00,30
$GPRMC,111638.000,A,5132.4740,N,00001.0914,W,3.37,270.73,170815,,,A*73,51.5412368774,-0.0181900005,11:16:38,17/8/2015,7,0,24.22,62.00,30
$GPRMC,111639.000,A,5132.4741,N,00001.0930,W,3.88,278.82,170815,,,A*77,51.5412368774,-0.0182166004,11:16:39,17/8/2015,7,0,23.73,62.00,30
$GPRMC,111640.000,A,5132.4743,N,00001.0944,W,3.56,273.81,170815,,,A*73,51.5412368774,-0.0182400016,11:16:40,17/8/2015,9,4,22.75,62.00,25
$GPRMC,111641.000,A,5132.4743,N,00001.0960,W,3.39,274.41,170815,,,A*76,51.5412368774,-0.0182666006,11:16:41,17/8/2015,9,0,24.22,62.00,29
$GPRMC,111642.000,A,5132.4743,N,00001.0974,W,2.83,268.01,170815,,,A*79,51.5412368774,-0.0182900009,11:16:42,17/8/2015,9,1,23.24,62.00,25
$GPRMC,111643.000,A,5132.4744,N,00001.0987,W,3.34,270.71,170815,,,A*70,51.5412445068,-0.0183115978,11:16:43,17/8/2015,9,0,23.73,62.00,29
$GPRMC,111644.000,A,5132.4745,N,00001.1002,W,2.88,270.26,170815,,,A*77,51.5412445068,-0.0183366003,11:16:44,17/8/2015,9,0,24.22,62.00,29
$GPRMC,111645.000,A,5132.4746,N,00001.1016,W,3.31,271.16,170815,,,A*71,51.5412445068,-0.0183600006,11:16:45,17/8/2015,8,0,24.71,62.00,29
$GPRMC,111646.000,A,5132.4746,N,00001.1034,W,3.54,268.00,170815,,,A*7E,51.5412445068,-0.0183899993,11:16:46,17/8/2015,6,48,24.22,62.00,29
$GPRMC,111647.000,A,5132.4743,N,00001.1054,W,2.07,249.50,170815,,,A*7D,51.5412368774,-0.0184233007,11:16:47,17/8/2015,6,0,23.24,62.00,31
$GPRMC,111648.000,A,5132.4742,N,00001.1066,W,4.70,256.65,170815,,,A*7C,51.5412368774,-0.0184432992,11:16:48,17/8/2015,9,14,24.71,62.00,29
$GPRMC,111649.000,A,5132.4741,N,00001.1085,W,4.81,261.17,170815,,,A*7C,51.5412368774,-0.0184749984,11:16:49,17/8/2015,6,1,24.22,62.00,24
$GPRMC,111650.000,A,5132.4740,N,00001.1101,W,3.34,262.64,170815,,,A*76,51.5412368774,-0.0185016021,11:16:50,17/8/2015,9,1,24.22,62.00,29
$GPRMC,111651.000,A,5132.4741,N,00001.1116,W,3.34,272.21,170815,,,A*70,51.5412368774,-0.0185266008,11:16:51,17/8/2015,9,4,24.22,62.00,29
$GPRMC,111652.000,A,5132.4742,N,00001.1131,W,3.72,268.41,170815,,,A*7A,51.5412368774,-0.0185515995,11:16:52,17/8/2015,9,2,23.73,62.00,25
$GPRMC,111653.000,A,5132.4743,N,00001.1147,W,3.56,263.10,170815,,,A*72,51.5412368774,-0.0185783004,11:16:53,17/8/2015,7,1,23.73,62.00,24
$GPRMC,111654.000,A,5132.4744,N,00001.1161,W,3.48,273.32,170815,,,A*78,51.5412445068,-0.0186015987,11:16:54,17/8/2015,9,1,24.22,62.00,29
$GPRMC,111655.000,A,5132.4744,N,00001.1177,W,2.45,279.54,170815,,,A*78,51.5412445068,-0.0186283006,11:16:55,17/8/2015,9,4,23.73,62.00,30
$GPRMC,111656.000,A,5132.4746,N,00001.1192,W,2.04,294.29,170815,,,A*7E,51.5412445068,-0.0186533021,11:16:56,17/8/2015,6,6,24.22,62.00,28
$GPRMC,111657.000,A,5132.4746,N,00001.1202,W,4.27,259.01,170815,,,A*79,51.5412445068,-0.0186700000,11:16:57,17/8/2015,9,6,23.73,62.00,28
$GPRMC,111658.000,A,5132.4744,N,00001.1222,W,5.23,258.40,170815,,,A*77,51.5412445068,-0.0187032995,11:16:58,17/8/2015,6,0,24.22,62.00,28
$GPRMC,111659.000,A,5132.4744,N,00001.1240,W,3.91,268.02,170815,,,A*78,51.5412445068,-0.0187333002,11:16:59,17/8/2015,9,0,22.27,62.00,32
$GPRMC,111700.000,A,5132.4743,N,00001.1260,W,4.13,262.52,170815,,,A*72,51.5412368774,-0.0187665996,11:17:0,17/8/2015,6,12,23.24,62.00,24
$GPRMC,111701.000,A,5132.4742,N,00001.1276,W,2.24,346.41,170815,,,A*72,51.5412368774,-0.0187933015,11:17:1,17/8/2015,9,21,23.24,62.00,31
$GPRMC,111702.000,A,5132.4744,N,00001.1284,W,1.56,261.32,170815,,,A*7C,51.5412445068,-0.0188066005,11:17:2,17/8/2015,9,34,23.24,62.00,24
$GPRMC,111703.000,A,5132.4741,N,00001.1295,W,5.06,248.36,170815,,,A*76,51.5412368774,-0.0188250007,11:17:3,17/8/2015,9,2,23.73,62.00,27
$GPRMC,111704.000,A,5132.4740,N,00001.1309,W,4.13,259.47,170815,,,A*77,51.5412368774,-0.0188482999,11:17:4,17/8/2015,9,7,23.73,62.00,28
$GPRMC,111705.000,A,5132.4740,N,00001.1320,W,2.96,263.00,170815,,,A*7C,51.5412368774,-0.0188666000,11:17:5,17/8/2015,6,4,23.24,62.00,25
$GPRMC,111706.000,A,5132.4739,N,00001.1335,W,3.79,263.70,170815,,,A*72,51.5412368774,-0.0188916015,11:17:6,17/8/2015,9,7,24.22,62.00,28
$GPRMC,111707.000,A,5132.4738,N,00001.1349,W,3.42,263.54,170815,,,A*77,51.5412254333,-0.0189149999,11:17:7,17/8/2015,9,2,23.24,62.00,24
$GPRMC,111708.000,A,5132.4736,N,00001.1365,W,3.96,259.92,170815,,,A*72,51.5412254333,-0.0189416027,11:17:8,17/8/2015,9,15,23.24,62.00,28
$GPRMC,111709.000,A,5132.4734,N,00001.1382,W,4.38,259.12,170815,,,A*73,51.5412254333,-0.0189700012,11:17:9,17/8/2015,9,5,23.73,62.00,28
$GPRMC,111710.000,A,5132.4732,N,00001.1399,W,4.07,259.93,170815,,,A*72,51.5412178039,-0.0189983005,11:17:10,17/8/2015,9,6,21.29,62.00,24
$GPRMC,111711.000,A,5132.4732,N,00001.1415,W,4.07,267.27,170815,,,A*72,51.5412178039,-0.0190249996,11:17:11,17/8/2015,9,7,23.73,62.00,28
$GPRMC,111712.000,A,5132.4732,N,00001.1428,W,4.36,264.66,170815,,,A*7B,51.5412178039,-0.0190466022,11:17:12,17/8/2015,9,4,23.73,62.00,25
$GPRMC,111713.000,A,5132.4731,N,00001.1446,W,3.19,270.57,170815,,,A*7C,51.5412178039,-0.0190766029,11:17:13,17/8/2015,9,6,23.73,62.00,28
$GPRMC,111714.000,A,5132.4731,N,00001.1460,W,3.03,273.90,170815,,,A*7C,51.5412178039,-0.0191000003,11:17:14,17/8/2015,7,2,23.24,62.00,28
$GPRMC,111715.000,A,5132.4731,N,00001.1472,W,3.35,263.37,170815,,,A*77,51.5412178039,-0.0191200008,11:17:15,17/8/2015,6,8,23.73,62.00,28
$GPRMC,111716.000,A,5132.4730,N,00001.1484,W,2.71,261.79,170815,,,A*75,51.5412178039,-0.0191400032,11:17:16,17/8/2015,10,11,22.75,62.00,24
$GPRMC,111717.000,A,5132.4727,N,00001.1497,W,2.53,267.99,170815,,,A*78,51.5412101745,-0.0191616001,11:17:17,17/8/2015,9,7,23.24,62.00,28
$GPRMC,111718.000,A,5132.4727,N,00001.1506,W,2.77,257.42,170815,,,A*7D,51.5412101745,-0.0191766014,11:17:18,17/8/2015,9,17,23.73,62.00,28
$GPRMC,111719.000,A,5132.4726,N,00001.1516,W,2.86,251.81,170815,,,A*7B,51.5412101745,-0.0191933012,11:17:19,17/8/2015,6,8,22.75,62.00,24
$GPRMC,111720.000,A,5132.4725,N,00001.1529,W,3.17,263.38,170815,,,A*74,51.5412101745,-0.0192150011,11:17:20,17/8/2015,9,10,24.22,62.00,24
$GPRMC,111721.000,A,5132.4725,N,00001.1544,W,3.82,262.44,170815,,,A*78,51.5412101745,-0.0192399988,11:17:21,17/8/2015,9,6,24.71,62.00,25
$GPRMC,111722.000,A,5132.4724,N,00001.1561,W,2.47,279.89,170815,,,A*7E,51.5412025451,-0.0192683010,11:17:22,17/8/2015,9,10,24.22,62.00,28
$GPRMC,111723.000,A,5132.4721,N,00001.1579,W,1.57,303.75,170815,,,A*7E,51.5412025451,-0.0192983016,11:17:23,17/8/2015,7,15,24.71,62.00,28
$GPRMC,111724.000,A,5132.4723,N,00001.1590,W,2.41,288.94,170815,,,A*75,51.5412025451,-0.0193166007,11:17:24,17/8/2015,6,7,24.22,62.00,27
$GPRMC,111725.000,A,5132.4722,N,00001.1608,W,2.83,280.50,170815,,,A*79,51.5412025451,-0.0193466005,11:17:25,17/8/2015,9,4,24.22,62.00,28
$GPRMC,111726.000,A,5132.4721,N,00001.1620,W,4.86,247.76,170815,,,A*7F,51.5412025451,-0.0193665990,11:17:26,17/8/2015,9,10,23.73,62.00,23
$GPRMC,111727.000,A,5132.4720,N,00001.1638,W,5.12,257.36,170815,,,A*7F,51.5412025451,-0.0193966016,11:17:27,17/8/2015,9,0,24.22,62.00,28
$GPRMC,111728.000,A,5132.4716,N,00001.1656,W,3.30,247.95,170815,,,A*73,51.5411949157,-0.0194266014,11:17:28,17/8/2015,9,8,23.73,62.00,24
$GPRMC,111729.000,A,5132.4714,N,00001.1670,W,2.94,261.60,170815,,,A*75,51.5411872863,-0.0194500017,11:17:29,17/8/2015,7,0,24.71,62.00,28
$GPRMC,111730.000,A,5132.4715,N,00001.1684,W,3.33,270.28,170815,,,A*77,51.5411949157,-0.0194733009,11:17:30,17/8/2015,8,5,24.22,62.00,25
$GPRMC,111731.000,A,5132.4716,N,00001.1696,W,2.79,271.67,170815,,,A*73,51.5411949157,-0.0194932994,11:17:31,17/8/2015,7,0,24.71,62.00,23
$GPRMC,111732.000,A,5132.4713,N,00001.1712,W,3.17,255.95,170815,,,A*7A,51.5411872863,-0.0195200014,11:17:32,17/8/2015,9,2,23.24,62.00,28
$GPRMC,111733.000,A,5132.4712,N,00001.1728,W,3.99,253.87,170815,,,A*70,51.5411872863,-0.0195465993,11:17:33,17/8/2015,8,1,23.24,62.00,28
$GPRMC,111734.000,A,5132.4711,N,00001.1744,W,3.71,259.11,170815,,,A*7D,51.5411872863,-0.0195733013,11:17:34,17/8/2015,8,3,24.22,62.00,28
$GPRMC,111735.000,A,5132.4709,N,00001.1760,W,3.43,258.51,170815,,,A*77,51.5411796569,-0.0196000003,11:17:35,17/8/2015,9,9,24.71,62.00,28
$GPRMC,111736.000,A,5132.4708,N,00001.1775,W,3.45,257.96,170815,,,A*73,51.5411796569,-0.0196250009,11:17:36,17/8/2015,6,4,24.22,62.00,24
$GPRMC,111737.000,A,5132.4707,N,00001.1791,W,3.31,263.39,170815,,,A*76,51.5411796569,-0.0196515989,11:17:37,17/8/2015,9,6,25.20,62.00,28
$GPRMC,111738.000,A,5132.4707,N,00001.1806,W,3.66,264.45,170815,,,A*76,51.5411796569,-0.0196765995,11:17:38,17/8/2015,9,2,25.20,62.00,26
$GPRMC,111739.000,A,5132.4706,N,00001.1821,W,4.03,261.07,170815,,,A*74,51.5411796569,-0.0197016000,11:17:39,17/8/2015,9,1,25.20,62.00,28
$GPRMC,111740.000,A,5132.4706,N,00001.1832,W,2.90,264.02,170815,,,A*74,51.5411796569,-0.0197200002,11:17:40,17/8/2015,9,0,24.71,62.00,29
$GPRMC,111741.000,A,5132.4708,N,00001.1843,W,3.12,274.14,170815,,,A*70,51.5411796569,-0.0197383003,11:17:41,17/8/2015,9,10,25.20,62.00,32
