
$PMTK001,220,3*30,51.5406913757,-0.0115866005,19:52:36,0/0/200,537,18,20.80,0.00,33
$GPRMC,195238.000,A,5132.4411,N,00000.6961,W,1.41,244.12,170815,,,A*7A,51.5406837463,-0.0116016006,19:52:38,0/0/200,664,7,19.82,0.00,27
$GPRMC,195239.000,A,5132.4408,N,00000.6969,W,1.55,240.39,170815,,,A*73,51.5406837463,-0.0116149997,19:52:39,17/8/2015,683,12,21.29,13.00,42
$GPRMC,195240.000,A,5132.4408,N,00000.6975,W,1.54,244.84,170815,,,A*73,51.5406837463,-0.0116250014,19:52:40,17/8/2015,639,9,18.85,13.00,32
$GPRMC,195241.000,A,5132.4408,N,00000.6983,W,1.62,246.44,170815,,,A*70,51.5406837463,-0.0116383004,19:52:40,17/8/2015,570,4,19.82,13.00,32
$GPRMC,195242.000,A,5132.4407,N,00000.6994,W,1.83,248.24,170815,,,A*7D,51.5406837463,-0.0116566002,19:52:42,17/8/2015,537,7,19.82,13.00,32
$GPRMC,195243.000,A,5132.4405,N,00000.7005,W,2.10,246.37,170815,,,A*7B,51.5406723022,-0.0116750001,19:52:43,17/8/2015,449,0,18.85,13.00,32
$GPRMC,195244.000,A,5132.4399,N,00000.7020,W,2.42,241.63,170815,,,A*78,51.5406646728,-0.0117000007,19:52:44,17/8/2015,409,2,18.85,13.00,32
$GPRMC,195245.000,A,5132.4393,N,00000.7036,W,2.83,239.46,170815,,,A*71,51.5406570434,-0.0117265999,19:52:44,17/8/2015,378,9,17.38,13.00,31
$GPRMC,195246.000,A,5132.4388,N,00000.7048,W,2.88,237.07,170815,,,A*71,51.5406494140,-0.0117465996,19:52:46,17/8/2015,377,0,19.34,13.00,31
$GPRMC,195247.000,A,5132.4383,N,00000.7064,W,2.89,239.83,170815,,,A*76,51.5406417846,-0.0117733001,19:52:47,17/8/2015,450,1,19.34,13.00,31
$GPRMC,195248.000,A,5132.4379,N,00000.7075,W,2.87,236.87,170815,,,A*79,51.5406341552,-0.0117916011,19:52:48,17/8/2015,689,1,18.36,13.00,30
$GPRMC,195249.000,A,5132.4375,N,00000.7085,W,2.76,235.95,170815,,,A*75,51.5406265258,-0.0118083000,19:52:48,17/8/2015,667,12,19.34,13.00,30
$GPRMC,195250.000,A,5132.4371,N,00000.7097,W,2.81,235.76,170815,,,A*7F,51.5406150817,-0.0118283009,19:52:50,17/8/2015,618,20,17.87,13.00,31
$GPRMC,195251.000,A,5132.4366,N,00000.7108,W,2.75,235.18,170815,,,A*7C,51.5406074523,-0.0118466007,19:52:51,17/8/2015,564,11,18.85,13.00,30
$GPRMC,195252.000,A,5132.4362,N,00000.7120,W,2.80,238.39,170815,,,A*75,51.5405998229,-0.0118666005,19:52:52,17/8/2015,496,21,18.85,13.00,30
$GPRMC,195253.000,A,5132.4359,N,00000.7132,W,2.82,239.94,170815,,,A*7B,51.5405998229,-0.0118866003,19:52:52,17/8/2015,418,24,19.82,13.00,30
$GPRMC,195254.000,A,5132.4356,N,00000.7142,W,2.71,240.80,170815,,,A*73,51.5405921936,-0.0119033002,19:52:54,17/8/2015,372,30,19.34,13.00,30
$GPRMC,195255.000,A,5132.4353,N,00000.7152,W,2.75,238.96,170815,,,A*7A,51.5405845642,-0.0119200002,19:52:55,17/8/2015,335,4,19.34,13.00,25
$GPRMC,195256.000,A,5132.4350,N,00000.7161,W,2.61,242.54,170815,,,A*7C,51.5405845642,-0.0119350004,19:52:56,17/8/2015,768,6,19.34,13.00,30
$GPRMC,195257.000,A,5132.4347,N,00000.7173,W,2.83,243.57,170815,,,A*76,51.5405769348,-0.0119550001,19:52:56,17/8/2015,495,3,19.34,13.00,31
$GPRMC,195258.000,A,5132.4345,N,00000.7183,W,2.84,242.17,170815,,,A*76,51.5405769348,-0.0119716012,19:52:58,17/8/2015,531,0,19.82,13.00,30
$GPRMC,195259.000,A,5132.4346,N,00000.7190,W,2.63,245.65,170815,,,A*7D,51.5405769348,-0.0119833003,19:52:59,17/8/2015,716,2,19.82,13.00,30
$GPRMC,195300.000,A,5132.4343,N,00000.7201,W,2.65,245.23,170815,,,A*7A,51.5405693054,-0.0120016002,19:53:0,17/8/2015,651,13,19.34,13.00,31
$GPRMC,195301.000,A,5132.4345,N,00000.7207,W,2.34,250.14,170815,,,A*7F,51.5405769348,-0.0120116007,19:53:0,17/8/2015,585,6,19.34,13.00,30
$GPRMC,195302.000,A,5132.4345,N,00000.7213,W,2.05,253.44,170815,,,A*7D,51.5405769348,-0.0120216000,19:53:2,17/8/2015,514,6,19.34,13.00,29
$GPRMC,195303.000,A,5132.4342,N,00000.7223,W,2.26,249.70,170815,,,A*75,51.5405693054,-0.0120383012,19:53:3,17/8/2015,437,6,19.34,13.00,25
$GPRMC,195304.000,A,5132.4338,N,00000.7236,W,2.48,249.54,170815,,,A*75,51.5405616760,-0.0120600008,19:53:4,17/8/2015,384,11,19.34,13.00,30
$GPRMC,195305.000,A,5132.4336,N,00000.7245,W,2.48,247.08,170815,,,A*79,51.5405616760,-0.0120749998,19:53:4,17/8/2015,338,6,18.36,13.00,30
$GPRMC,195306.000,A,5132.4331,N,00000.7256,W,2.61,241.57,170815,,,A*78,51.5405502319,-0.0120933008,19:53:6,17/8/2015,325,1,18.85,13.00,29
$GPRMC,195307.000,A,5132.4325,N,00000.7269,W,2.79,240.68,170815,,,A*74,51.5405426025,-0.0121150004,19:53:7,17/8/2015,365,1,18.85,13.00,30
$GPRMC,195308.000,A,5132.4321,N,00000.7280,W,2.74,242.58,170815,,,A*74,51.5405349731,-0.0121333003,19:53:8,17/8/2015,652,2,17.38,13.00,29
$GPRMC,195310.000,A,5132.4311,N,00000.7302,W,2.73,238.47,170815,,,A*71,51.5405273437,-0.0121533012,19:53:8,17/8/2015,724,6,18.85,7.00,25
$GPRMC,195311.000,A,5132.4305,N,00000.7313,W,2.89,234.77,170815,,,A*7F,51.5405120849,-0.0121883010,19:53:11,17/8/2015,607,0,18.85,7.00,30
$GPRMC,195312.000,A,5132.4299,N,00000.7326,W,3.01,233.57,170815,,,A*7A,51.5404930114,-0.0122100007,19:53:12,17/8/2015,543,9,18.85,7.00,32
$GPRMC,195313.000,A,5132.4292,N,00000.7337,W,2.72,231.44,170815,,,A*75,51.5404853820,-0.0122282993,19:53:12,17/8/2015,466,1,18.85,7.00,28
$GPRMC,195314.000,A,5132.4288,N,00000.7346,W,2.71,235.10,170815,,,A*79,51.5404777526,-0.0122433006,19:53:14,17/8/2015,430,7,18.85,7.00,29
$GPRMC,195315.000,A,5132.4283,N,00000.7358,W,3.84,229.75,170815,,,A*79,51.5404701232,-0.0122632992,19:53:15,17/8/2015,396,0,18.85,7.00,24
$GPRMC,195316.000,A,5132.4275,N,00000.7370,W,4.34,227.86,170815,,,A*77,51.5404624938,-0.0122833001,19:53:16,17/8/2015,410,11,18.85,7.00,28
$GPRMC,195317.000,A,5132.4268,N,00000.7380,W,3.20,233.29,170815,,,A*77,51.5404472351,-0.0123000001,19:53:16,17/8/2015,403,0,18.85,7.00,30
$GPRMC,195318.000,A,5132.4261,N,00000.7389,W,2.76,229.15,170815,,,A*7E,51.5404396057,-0.0123150002,19:53:18,17/8/2015,601,1,18.36,7.00,30
$GPRMC,195319.000,A,5132.4254,N,00000.7397,W,1.97,229.45,170815,,,A*7F,51.5404205322,-0.0123283004,19:53:19,17/8/2015,692,6,19.34,7.00,29
$GPRMC,195320.000,A,5132.4249,N,00000.7404,W,1.30,239.99,170815,,,A*79,51.5404129028,-0.0123399996,19:53:20,17/8/2015,644,4,19.34,7.00,30
$GPRMC,195321.000,A,5132.4243,N,00000.7411,W,2.33,219.36,170815,,,A*71,51.5404052734,-0.0123516011,19:53:20,17/8/2015,587,7,19.34,7.00,25
$GPRMC,195322.000,A,5132.4237,N,00000.7421,W,3.79,233.62,170815,,,A*74,51.5403976440,-0.0123682999,19:53:22,17/8/2015,524,9,17.87,7.00,29
$GPRMC,195323.000,A,5132.4231,N,00000.7433,W,4.07,237.10,170815,,,A*7F,51.5403900146,-0.0123883008,19:53:23,17/8/2015,464,2,18.36,7.00,29
$GPRMC,195324.000,A,5132.4225,N,00000.7444,W,3.33,232.70,170815,,,A*7E,51.5403709411,-0.0124066007,19:53:24,17/8/2015,440,9,19.34,7.00,29
$GPRMC,195325.000,A,5132.4219,N,00000.7454,W,2.88,224.34,170815,,,A*77,51.5403633117,-0.0124233007,19:53:24,17/8/2015,412,23,17.38,7.00,29
$GPRMC,195326.000,A,5132.4212,N,00000.7463,W,2.85,227.63,170815,,,A*77,51.5403556823,-0.0124382996,19:53:26,17/8/2015,423,11,18.85,7.00,29
$GPRMC,195327.000,A,5132.4205,N,00000.7474,W,3.30,222.63,170815,,,A*7C,51.5403404235,-0.0124566006,19:53:27,17/8/2015,414,8,18.85,7.00,29
$GPRMC,195328.000,A,5132.4198,N,00000.7483,W,2.92,226.53,170815,,,A*72,51.5403327941,-0.0124716007,19:53:28,17/8/2015,658,0,18.85,7.00,29
$GPRMC,195329.000,A,5132.4191,N,00000.7493,W,2.84,226.92,170815,,,A*71,51.5403175354,-0.0124883008,19:53:28,17/8/2015,706,4,18.85,7.00,29
$GPRMC,195330.000,A,5132.4185,N,00000.7505,W,2.93,238.72,170815,,,A*75,51.5403060913,-0.0125082993,19:53:30,17/8/2015,653,0,18.85,7.00,25
$GPRMC,195331.000,A,5132.4179,N,00000.7518,W,3.60,232.45,170815,,,A*78,51.5402984619,-0.0125300002,19:53:31,17/8/2015,595,21,18.85,7.00,29
$GPRMC,195332.000,A,5132.4171,N,00000.7532,W,3.41,228.42,170815,,,A*74,51.5402832031,-0.0125533008,19:53:32,17/8/2015,540,3,18.85,7.00,24
$GPRMC,195333.000,A,5132.4163,N,00000.7544,W,3.51,225.80,170815,,,A*75,51.5402755737,-0.0125733006,19:53:32,17/8/2015,485,2,18.36,7.00,29
$GPRMC,195334.000,A,5132.4158,N,00000.7556,W,2.39,238.30,170815,,,A*71,51.5402679443,-0.0125933003,19:53:34,17/8/2015,468,7,3.71,7.00,29
$GPRMC,195335.000,A,5132.4153,N,00000.7566,W,1.73,243.18,170815,,,A*73,51.5402603149,-0.0126100003,19:53:35,17/8/2015,464,1,17.87,7.00,29
$GPRMC,195336.000,A,5132.4150,N,00000.7575,W,1.72,246.31,170815,,,A*7E,51.5402488708,-0.0126250004,19:53:36,17/8/2015,503,9,18.85,7.00,33
$GPRMC,195337.000,A,5132.4146,N,00000.7586,W,2.63,235.98,170815,,,A*70,51.5402412414,-0.0126433014,19:53:36,17/8/2015,511,2,18.85,7.00,29
$GPRMC,195338.000,A,5132.4141,N,00000.7597,W,3.30,225.27,170815,,,A*7A,51.5402336120,-0.0126616001,19:53:38,17/8/2015,567,1,18.85,7.00,29
$GPRMC,195339.000,A,5132.4135,N,00000.7608,W,3.01,228.37,170815,,,A*73,51.5402259826,-0.0126800000,19:53:39,17/8/2015,744,5,19.34,7.00,29
$GPRMC,195340.000,A,5132.4129,N,00000.7619,W,4.38,225.43,170815,,,A*73,51.5402183532,-0.0126983022,19:53:40,17/8/2015,751,3,18.85,0.00,24
$GPRMC,195341.000,A,5132.4123,N,00000.7631,W,3.73,234.52,170815,,,A*7A,51.5402030944,-0.0127183008,19:53:40,17/8/2015,633,4,18.36,0.00,31
$GPRMC,195342.000,A,5132.4119,N,00000.7643,W,2.96,238.93,170815,,,A*7E,51.5402030944,-0.0127383005,19:53:42,17/8/2015,618,4,19.34,0.00,25
$GPRMC,195343.000,A,5132.4114,N,00000.7653,W,2.63,232.90,170815,,,A*70,51.5401954650,-0.0127550005,19:53:43,17/8/2015,599,5,18.85,0.00,29
$GPRMC,195344.000,A,5132.4108,N,00000.7664,W,2.43,225.57,170815,,,A*71,51.5401763916,-0.0127733004,19:53:44,17/8/2015,575,0,19.34,0.00,29
$GPRMC,195345.000,A,5132.4102,N,00000.7676,W,2.26,236.34,170815,,,A*7D,51.5401687622,-0.0127933013,19:53:44,17/8/2015,587,2,18.85,0.00,29
$GPRMC,195346.000,A,5132.4097,N,00000.7689,W,3.42,234.28,170815,,,A*7F,51.5401611328,-0.0128149997,19:53:46,17/8/2015,601,0,18.85,0.00,24
$GPRMC,195347.000,A,5132.4092,N,00000.7701,W,3.76,230.02,170815,,,A*71,51.5401535034,-0.0128349995,19:53:47,17/8/2015,601,0,17.38,0.00,29
$GPRMC,195348.000,A,5132.4086,N,00000.7711,W,3.11,224.27,170815,,,A*79,51.5401458740,-0.0128516006,19:53:48,17/8/2015,637,0,18.36,0.00,29
$GPRMC,195349.000,A,5132.4081,N,00000.7721,W,3.01,229.86,170815,,,A*7B,51.5401382446,-0.0128682994,19:53:48,17/8/2015,714,1,17.87,0.00,29
$GPRMC,195350.000,A,5132.4075,N,00000.7734,W,3.58,235.66,170815,,,A*73,51.5401268005,-0.0128899991,19:53:50,17/8/2015,695,0,18.36,0.00,29
$GPRMC,195351.000,A,5132.4070,N,00000.7748,W,3.52,237.02,170815,,,A*76,51.5401191711,-0.0129132997,19:53:51,17/8/2015,651,7,19.34,0.00,28
$GPRMC,195352.000,A,5132.4065,N,00000.7759,W,3.09,237.13,170815,,,A*7F,51.5401115417,-0.0129315996,19:53:52,17/8/2015,625,0,18.85,0.00,29
$GPRMC,195353.000,A,5132.4062,N,00000.7771,W,2.48,251.52,170815,,,A*72,51.5401039123,-0.0129516005,19:53:52,17/8/2015,597,3,18.36,0.00,29
$GPRMC,195354.000,A,5132.4059,N,00000.7780,W,1.76,241.68,170815,,,A*75,51.5400962829,-0.0129665994,19:53:54,17/8/2015,575,6,18.85,0.00,27
$GPRMC,195355.000,A,5132.4055,N,00000.7791,W,2.62,244.65,170815,,,A*76,51.5400886535,-0.0129850006,19:53:55,17/8/2015,544,4,18.36,0.00,31
$GPRMC,195356.000,A,5132.4050,N,00000.7803,W,2.66,237.00,170815,,,A*77,51.5400810241,-0.0130050003,19:53:56,17/8/2015,511,2,18.85,0.00,28
$GPRMC,195357.000,A,5132.4046,N,00000.7814,W,3.74,235.95,170815,,,A*7B,51.5400810241,-0.0130233001,19:53:56,17/8/2015,453,4,18.85,0.00,29
$GPRMC,195358.000,A,5132.4041,N,00000.7827,W,3.59,235.94,170815,,,A*7D,51.5400733947,-0.0130449998,19:53:58,17/8/2015,416,6,18.36,0.00,29
$GPRMC,195359.000,A,5132.4035,N,00000.7844,W,4.14,240.25,170815,,,A*7C,51.5400543212,-0.0130733001,19:53:59,17/8/2015,419,2,18.85,0.00,24
$GPRMC,195400.000,A,5132.4032,N,00000.7855,W,2.75,241.68,170815,,,A*79,51.5400543212,-0.0130915999,19:54:0,17/8/2015,502,9,19.34,0.00,27
$GPRMC,195401.000,A,5132.4033,N,00000.7868,W,2.74,266.83,170815,,,A*76,51.5400543212,-0.0131133008,19:54:0,17/8/2015,658,15,17.38,0.00,29
$GPRMC,195402.000,A,5132.4039,N,00000.7881,W,3.20,291.06,170815,,,A*7D,51.5400619506,-0.0131349992,19:54:2,17/8/2015,893,2,17.87,0.00,28
$GPRMC,195403.000,A,5132.4043,N,00000.7890,W,1.97,302.87,170815,,,A*7D,51.5400733947,-0.0131500005,19:54:3,17/8/2015,825,6,17.87,0.00,29
$GPRMC,195404.000,A,5132.4046,N,00000.7900,W,3.03,287.42,170815,,,A*7D,51.5400810241,-0.0131666004,19:54:4,17/8/2015,840,6,18.85,0.00,28
$GPRMC,195405.000,A,5132.4050,N,00000.7910,W,2.70,290.96,170815,,,A*70,51.5400810241,-0.0131833004,19:54:4,17/8/2015,874,2,18.36,0.00,29
$GPRMC,195406.000,A,5132.4053,N,00000.7917,W,1.71,304.60,170815,,,A*70,51.5400886535,-0.0131949996,19:54:6,17/8/2015,866,9,18.36,0.00,30
$GPRMC,195407.000,A,5132.4057,N,00000.7921,W,1.68,331.49,170815,,,A*75,51.5400962829,-0.0132016003,19:54:7,17/8/2015,754,3,18.85,0.00,24
$GPRMC,195408.000,A,5132.4059,N,00000.7935,W,2.27,294.23,170815,,,A*7B,51.5400962829,-0.0132250010,19:54:8,17/8/2015,595,4,18.36,0.00,25
$GPRMC,195409.000,A,5132.4064,N,00000.7943,W,1.75,322.47,170815,,,A*7F,51.5401039123,-0.0132383000,19:54:8,17/8/2015,896,4,18.85,0.00,29
$GPRMC,195411.000,A,5132.4072,N,00000.7973,W,3.22,307.10,170815,,,A*77,51.5401191711,-0.0132883012,19:54:11,17/8/2015,893,0,18.85,1264.00,28
$GPRMC,195412.000,A,5132.4078,N,00000.7986,W,3.20,318.95,170815,,,A*75,51.5401268005,-0.0133100008,19:54:12,17/8/2015,840,5,18.85,1264.00,29
$GPRMC,195413.000,A,5132.4085,N,00000.8000,W,3.49,315.68,170815,,,A*7E,51.5401458740,-0.0133333015,19:54:12,17/8/2015,859,1,18.36,1264.00,28
$GPRMC,195414.000,A,5132.4090,N,00000.8012,W,2.77,318.00,170815,,,A*71,51.5401535034,-0.0133533000,19:54:14,17/8/2015,867,2,18.85,1264.00,29
$GPRMC,195415.000,A,5132.4093,N,00000.8022,W,2.15,321.70,170815,,,A*79,51.5401535034,-0.0133700013,19:54:15,17/8/2015,863,0,18.36,1264.00,30
$GPRMC,195416.000,A,5132.4097,N,00000.8035,W,2.63,311.11,170815,,,A*7D,51.5401611328,-0.0133916008,19:54:16,17/8/2015,817,4,18.85,1264.00,24
$GPRMC,195417.000,A,5132.4101,N,00000.8044,W,2.14,330.70,170815,,,A*70,51.5401687622,-0.0134066009,19:54:16,17/8/2015,763,0,18.36,1264.00,29
$GPRMC,195418.000,A,5132.4104,N,00000.8054,W,1.97,313.52,170815,,,A*72,51.5401687622,-0.0134232997,19:54:18,17/8/2015,427,0,16.89,1264.00,29
$GPRMC,195419.000,A,5132.4110,N,00000.8061,W,2.13,316.43,170815,,,A*7A,51.5401840209,-0.0134350001,19:54:19,17/8/2015,530,5,17.38,1264.00,29
$GPRMC,195420.000,A,5132.4115,N,00000.8069,W,2.50,319.92,170815,,,A*79,51.5401954650,-0.0134483003,19:54:20,17/8/2015,877,0,18.85,1264.00,29
$GPRMC,195421.000,A,5132.4120,N,00000.8079,W,2.52,312.44,170815,,,A*7D,51.5402030944,-0.0134650003,19:54:20,17/8/2015,858,6,18.85,1264.00,29
$GPRMC,195422.000,A,5132.4123,N,00000.8090,W,2.18,306.56,170815,,,A*72,51.5402030944,-0.0134833002,19:54:22,17/8/2015,878,0,18.36,1264.00,29
$GPRMC,195423.000,A,5132.4126,N,00000.8100,W,2.01,304.87,170815,,,A*78,51.5402107238,-0.0135000002,19:54:23,17/8/2015,415,1,18.85,1264.00,29
$GPRMC,195424.000,A,5132.4131,N,00000.8108,W,2.14,318.65,170815,,,A*74,51.5402183532,-0.0135133004,19:54:24,17/8/2015,752,1,17.87,1264.00,29
$GPRMC,195425.000,A,5132.4135,N,00000.8118,W,2.39,309.53,170815,,,A*7A,51.5402259826,-0.0135299992,19:54:24,17/8/2015,880,0,16.89,1264.00,29
$GPRMC,195426.000,A,5132.4137,N,00000.8128,W,1.83,308.45,170815,,,A*7C,51.5402259826,-0.0135466003,19:54:26,17/8/2015,830,1,18.85,1264.00,29
$GPRMC,195427.000,A,5132.4139,N,00000.8135,W,1.98,298.89,170815,,,A*7D,51.5402336120,-0.0135582995,19:54:27,17/8/2015,769,0,18.85,1264.00,29
$GPRMC,195428.000,A,5132.4145,N,00000.8140,W,2.07,323.27,170815,,,A*7B,51.5402412414,-0.0135666000,19:54:28,17/8/2015,832,4,17.38,1264.00,29
$GPRMC,195429.000,A,5132.4152,N,00000.8147,W,2.80,318.55,170815,,,A*79,51.5402488708,-0.0135783004,19:54:28,17/8/2015,771,0,19.34,1264.00,29
$GPRMC,195430.000,A,5132.4159,N,00000.8156,W,2.66,323.94,170815,,,A*77,51.5402679443,-0.0135932993,19:54:30,17/8/2015,874,7,18.36,1264.00,29
$GPRMC,195431.000,A,5132.4163,N,00000.8163,W,2.42,317.48,170815,,,A*79,51.5402755737,-0.0136049997,19:54:31,17/8/2015,882,6,17.38,1264.00,29
$GPRMC,195432.000,A,5132.4167,N,00000.8170,W,2.38,315.64,170815,,,A*7D,51.5402755737,-0.0136166000,19:54:32,17/8/2015,781,6,18.85,1264.00,32
$GPRMC,195433.000,A,5132.4171,N,00000.8181,W,2.58,299.18,170815,,,A*7D,51.5402832031,-0.0136350011,19:54:32,17/8/2015,617,5,17.87,1264.00,29
$GPRMC,195434.000,A,5132.4176,N,00000.8186,W,2.00,324.83,170815,,,A*72,51.5402908325,-0.0136433005,19:54:34,17/8/2015,819,4,17.87,1264.00,29
$GPRMC,195435.000,A,5132.4179,N,00000.8194,W,1.80,316.46,170815,,,A*7C,51.5402984619,-0.0136565995,19:54:35,17/8/2015,895,12,18.85,1264.00,28
$GPRMC,195436.000,A,5132.4183,N,00000.8201,W,2.06,313.83,170815,,,A*74,51.5403060913,-0.0136682999,19:54:36,17/8/2015,856,12,18.85,1264.00,28
$GPRMC,195437.000,A,5132.4190,N,00000.8208,W,1.99,322.63,170815,,,A*77,51.5403175354,-0.0136799991,19:54:36,17/8/2015,893,0,18.85,1264.00,24
$GPRMC,195438.000,A,5132.4201,N,00000.8215,W,2.34,326.65,170815,,,A*79,51.5403327941,-0.0136916017,19:54:38,17/8/2015,730,0,18.36,1264.00,29
$GPRMC,195439.000,A,5132.4215,N,00000.8224,W,3.18,329.58,170815,,,A*71,51.5403556823,-0.0137066006,19:54:39,17/8/2015,820,0,19.34,1264.00,29
$GPRMC,195440.000,A,5132.4224,N,00000.8232,W,3.06,324.61,170815,,,A*72,51.5403709411,-0.0137200009,19:54:40,17/8/2015,828,0,17.87,1264.00,28
$GPRMC,195441.000,A,5132.4230,N,00000.8243,W,2.95,301.73,170815,,,A*7F,51.5403823852,-0.0137383008,19:54:40,17/8/2015,866,15,17.87,4.00,29
$GPRMC,195442.000,A,5132.4239,N,00000.8252,W,2.77,313.03,170815,,,A*7D,51.5403976440,-0.0137533009,19:54:42,17/8/2015,874,4,17.38,4.00,30
$GPRMC,195443.000,A,5132.4249,N,00000.8263,W,3.26,308.20,170815,,,A*77,51.5404129028,-0.0137715995,19:54:43,17/8/2015,607,0,18.36,4.00,29
$GPRMC,195444.000,A,5132.4255,N,00000.8272,W,2.80,310.22,170815,,,A*7B,51.5404205322,-0.0137866008,19:54:44,17/8/2015,630,4,18.36,4.00,29
$GPRMC,195445.000,A,5132.4261,N,00000.8281,W,2.32,320.59,170815,,,A*77,51.5404396057,-0.0138016009,19:54:44,17/8/2015,825,23,18.85,4.00,29
$GPRMC,195446.000,A,5132.4269,N,00000.8288,W,2.60,321.95,170815,,,A*73,51.5404472351,-0.0138133001,19:54:46,17/8/2015,854,7,18.85,4.00,23
$GPRMC,195447.000,A,5132.4275,N,00000.8294,W,2.15,319.91,170815,,,A*7F,51.5404624938,-0.0138233005,19:54:47,17/8/2015,857,2,18.85,4.00,28
$GPRMC,195448.000,A,5132.4282,N,00000.8300,W,2.06,312.60,170815,,,A*73,51.5404701232,-0.0138333010,19:54:48,17/8/2015,797,1,18.85,4.00,29
$GPRMC,195449.000,A,5132.4289,N,00000.8304,W,1.71,320.23,170815,,,A*78,51.5404777526,-0.0138400018,19:54:48,17/8/2015,847,0,18.85,4.00,29
$GPRMC,195450.000,A,5132.4293,N,00000.8309,W,1.58,304.50,170815,,,A*7F,51.5404853820,-0.0138483023,19:54:50,17/8/2015,856,1,18.85,4.00,30
$GPRMC,195451.000,A,5132.4299,N,00000.8314,W,1.45,305.25,170815,,,A*77,51.5404930114,-0.0138566017,19:54:51,17/8/2015,864,4,18.36,4.00,29
$GPRMC,195452.000,A,5132.4304,N,00000.8321,W,1.97,310.37,170815,,,A*7F,51.5405044555,-0.0138683009,19:54:52,17/8/2015,849,25,19.34,4.00,27
$GPRMC,195453.000,A,5132.4310,N,00000.8329,W,2.45,312.86,170815,,,A*77,51.5405197143,-0.0138815999,19:54:52,17/8/2015,740,23,18.85,4.00,29
$GPRMC,195454.000,A,5132.4316,N,00000.8340,W,2.57,306.38,170815,,,A*7A,51.5405273437,-0.0138999998,19:54:54,17/8/2015,772,16,18.36,4.00,28
$GPRMC,195455.000,A,5132.4321,N,00000.8346,W,1.98,316.01,170815,,,A*72,51.5405349731,-0.0139100003,19:54:55,17/8/2015,823,14,17.38,4.00,29
$GPRMC,195456.000,A,5132.4325,N,00000.8354,W,1.93,313.16,170815,,,A*7E,51.5405426025,-0.0139233005,19:54:56,17/8/2015,884,5,19.34,4.00,26
$GPRMC,195457.000,A,5132.4332,N,00000.8363,W,2.02,314.35,170815,,,A*70,51.5405502319,-0.0139383018,19:54:56,17/8/2015,866,4,18.36,4.00,27
$GPRMC,195458.000,A,5132.4336,N,00000.8371,W,2.25,310.75,170815,,,A*7D,51.5405616760,-0.0139516008,19:54:58,17/8/2015,861,11,18.36,4.00,30
$GPRMC,195459.000,A,5132.4339,N,00000.8378,W,1.85,300.86,170815,,,A*7E,51.5405693054,-0.0139632999,19:54:59,17/8/2015,724,7,17.38,4.00,28
$GPRMC,195500.000,A,5132.4342,N,00000.8385,W,1.98,293.40,170815,,,A*70,51.5405693054,-0.0139750003,19:55:0,17/8/2015,743,9,18.85,4.00,28
$GPRMC,195501.000,A,5132.4348,N,00000.8389,W,1.81,327.10,170815,,,A*74,51.5405769348,-0.0139815998,19:55:0,17/8/2015,868,0,18.36,4.00,30
$GPRMC,195502.000,A,5132.4352,N,00000.8396,W,2.09,309.26,170815,,,A*78,51.5405845642,-0.0139932990,19:55:2,17/8/2015,879,1,18.36,4.00,29
$GPRMC,195503.000,A,5132.4357,N,00000.8405,W,2.02,308.43,170815,,,A*78,51.5405921936,-0.0140083003,19:55:3,17/8/2015,864,0,18.85,4.00,30
$GPRMC,195504.000,A,5132.4359,N,00000.8415,W,1.86,293.08,170815,,,A*73,51.5405998229,-0.0140250015,19:55:4,17/8/2015,557,7,18.36,4.00,30
$GPRMC,195505.000,A,5132.4362,N,00000.8423,W,1.75,305.37,170815,,,A*71,51.5405998229,-0.0140383005,19:55:4,17/8/2015,741,0,17.87,4.00,29
$GPRMC,195506.000,A,5132.4364,N,00000.8432,W,2.21,291.38,170815,,,A*75,51.5406074523,-0.0140532994,19:55:6,17/8/2015,887,10,18.85,4.00,29
$GPRMC,195507.000,A,5132.4370,N,00000.8443,W,2.38,307.74,170815,,,A*79,51.5406150817,-0.0140716004,19:55:7,17/8/2015,852,4,19.34,4.00,28
$GPRMC,195508.000,A,5132.4375,N,00000.8454,W,2.37,305.69,170815,,,A*74,51.5406265258,-0.0140900001,19:55:8,17/8/2015,887,10,17.87,4.00,28
$GPRMC,195509.000,A,5132.4381,N,00000.8463,W,2.06,310.93,170815,,,A*79,51.5406341552,-0.0141050004,19:55:8,17/8/2015,871,8,18.85,4.00,23
$GPRMC,195510.000,A,5132.4387,N,00000.8474,W,2.31,305.63,170815,,,A*7E,51.5406417846,-0.0141233015,19:55:10,17/8/2015,641,5,18.85,4.00,23
$GPRMC,195511.000,A,5132.4392,N,00000.8484,W,2.56,309.75,170815,,,A*7E,51.5406494140,-0.0141400003,19:55:11,17/8/2015,851,1,18.85,4.00,28
$GPRMC,195512.000,A,5132.4398,N,00000.8493,W,2.41,316.74,170815,,,A*78,51.5406646728,-0.0141550006,19:55:12,17/8/2015,859,9,18.36,65.00,31
$GPRMC,195513.000,A,5132.4404,N,00000.8503,W,2.62,313.89,170815,,,A*75,51.5406723022,-0.0141716003,19:55:12,17/8/2015,855,7,18.85,65.00,28
$GPRMC,195514.000,A,5132.4412,N,00000.8514,W,3.18,315.71,170815,,,A*7E,51.5406913757,-0.0141900005,19:55:14,17/8/2015,880,2,18.85,65.00,30
$GPRMC,195515.000,A,5132.4419,N,00000.8521,W,2.57,319.26,170815,,,A*76,51.5406990051,-0.0142015991,19:55:15,17/8/2015,813,4,18.85,65.00,29
$GPRMC,195516.000,A,5132.4426,N,00000.8530,W,2.62,313.45,170815,,,A*70,51.5407066345,-0.0142166004,19:55:16,17/8/2015,893,6,18.85,65.00,28
$GPRMC,195517.000,A,5132.4431,N,00000.8539,W,2.21,304.88,170815,,,A*7E,51.5407142639,-0.0142316007,19:55:16,17/8/2015,881,4,18.85,65.00,28
$GPRMC,195518.000,A,5132.4437,N,00000.8549,W,1.98,300.22,170815,,,A*75,51.5407295227,-0.0142482995,19:55:18,17/8/2015,862,2,18.85,65.00,29
$GPRMC,195519.000,A,5132.4442,N,00000.8559,W,1.98,299.74,170815,,,A*75,51.5407371520,-0.0142650008,19:55:19,17/8/2015,617,4,17.87,65.00,28
$GPRMC,195520.000,A,5132.4446,N,00000.8567,W,1.72,295.40,170815,,,A*79,51.5407485961,-0.0142783021,19:55:20,17/8/2015,819,7,17.38,65.00,28
$GPRMC,195521.000,A,5132.4455,N,00000.8572,W,1.23,316.43,170815,,,A*73,51.5407562255,-0.0142866015,19:55:20,17/8/2015,843,4,17.38,65.00,28
$GPRMC,195522.000,A,5132.4462,N,00000.8579,W,1.59,309.29,170815,,,A*70,51.5407714843,-0.0142983016,19:55:22,17/8/2015,839,0,17.38,65.00,28
$GPRMC,195523.000,A,5132.4472,N,00000.8591,W,2.57,299.22,170815,,,A*78,51.5407867431,-0.0143183002,19:55:23,17/8/2015,830,5,18.85,65.00,28
$GPRMC,195524.000,A,5132.4481,N,00000.8601,W,2.03,296.47,170815,,,A*74,51.5408058166,-0.0143350005,19:55:24,17/8/2015,725,0,18.85,65.00,23
$GPRMC,195525.000,A,5132.4487,N,00000.8610,W,1.80,305.33,170815,,,A*73,51.5408134460,-0.0143499994,19:55:24,17/8/2015,790,3,17.38,65.00,28
$GPRMC,195526.000,A,5132.4495,N,00000.8618,W,2.04,313.65,170815,,,A*70,51.5408287048,-0.0143633008,19:55:26,17/8/2015,727,4,18.36,65.00,23
$GPRMC,195527.000,A,5132.4503,N,00000.8630,W,2.29,309.12,170815,,,A*71,51.5408363342,-0.0143832993,19:55:27,17/8/2015,658,7,19.82,65.00,27
$GPRMC,195528.000,A,5132.4511,N,00000.8641,W,2.24,309.24,170815,,,A*73,51.5408515930,-0.0144016017,19:55:28,17/8/2015,844,0,18.36,65.00,28
$GPRMC,195529.000,A,5132.4517,N,00000.8653,W,1.98,299.90,170815,,,A*74,51.5408592224,-0.0144216003,19:55:28,17/8/2015,740,2,19.34,65.00,28
$GPRMC,195530.000,A,5132.4523,N,00000.8661,W,2.13,317.65,170815,,,A*77,51.5408706665,-0.0144349994,19:55:30,17/8/2015,664,1,18.36,65.00,23
$GPRMC,195531.000,A,5132.4531,N,00000.8670,W,2.43,314.66,170815,,,A*70,51.5408859252,-0.0144500007,19:55:31,17/8/2015,747,0,18.85,65.00,28
$GPRMC,195532.000,A,5132.4539,N,00000.8680,W,3.10,312.37,170815,,,A*71,51.5409011840,-0.0144666004,19:55:32,17/8/2015,599,2,18.85,65.00,28
$GPRMC,195533.000,A,5132.4546,N,00000.8688,W,2.66,310.94,170815,,,A*7B,51.5409088134,-0.0144800004,19:55:32,17/8/2015,496,2,18.85,65.00,30
$GPRMC,195534.000,A,5132.4556,N,00000.8695,W,2.51,321.26,170815,,,A*7E,51.5409278869,-0.0144916009,19:55:34,17/8/2015,541,5,18.36,65.00,28
$GPRMC,195535.000,A,5132.4567,N,00000.8703,W,2.94,316.97,170815,,,A*74,51.5409431457,-0.0145050001,19:55:35,17/8/2015,580,1,18.36,65.00,28
$GPRMC,195536.000,A,5132.4575,N,00000.8715,W,3.06,306.96,170815,,,A*79,51.5409584045,-0.0145249986,19:55:36,17/8/2015,639,4,18.85,65.00,30
$GPRMC,195537.000,A,5132.4589,N,00000.8726,W,3.61,320.01,170815,,,A*70,51.5409812927,-0.0145433006,19:55:36,17/8/2015,692,2,17.38,65.00,28
$GPRMC,195538.000,A,5132.4599,N,00000.8737,W,3.34,315.81,170815,,,A*70,51.5410003662,-0.0145615997,19:55:38,17/8/2015,743,0,18.36,65.00,28
$GPRMC,195539.000,A,5132.4607,N,00000.8747,W,3.05,311.79,170815,,,A*73,51.5410156250,-0.0145783004,19:55:39,17/8/2015,789,1,17.38,65.00,28
$GPRMC,195540.000,A,5132.4615,N,00000.8757,W,3.25,310.31,170815,,,A*70,51.5410232543,-0.0145950007,19:55:40,17/8/2015,891,2,18.85,65.00,23
$GPRMC,195541.000,A,5132.4622,N,00000.8766,W,3.18,314.17,170815,,,A*79,51.5410385131,-0.0146100020,19:55:40,17/8/2015,894,4,17.87,65.00,28
$GPRMC,195542.000,A,5132.4628,N,00000.8775,W,2.62,309.86,170815,,,A*7A,51.5410499572,-0.0146250009,19:55:42,17/8/2015,883,1,18.85,22.00,28
$GPRMC,195543.000,A,5132.4634,N,00000.8785,W,2.40,307.08,170815,,,A*71,51.5410575866,-0.0146416006,19:55:43,17/8/2015,752,0,18.85,22.00,28
$GPRMC,195544.000,A,5132.4641,N,00000.8796,W,2.62,307.07,170815,,,A*79,51.5410652160,-0.0146600008,19:55:44,17/8/2015,850,6,19.34,22.00,27
$GPRMC,195545.000,A,5132.4648,N,00000.8806,W,2.55,305.11,170815,,,A*76,51.5410804748,-0.0146766004,19:55:44,17/8/2015,857,4,18.85,22.00,27
$GPRMC,195546.000,A,5132.4653,N,00000.8813,W,1.86,329.51,170815,,,A*7C,51.5410881042,-0.0146883001,19:55:46,17/8/2015,868,0,18.85,22.00,23
$GPRMC,195547.000,A,5132.4661,N,00000.8820,W,2.09,327.30,170815,,,A*71,51.5411033630,-0.0147000002,19:55:47,17/8/2015,895,2,18.85,22.00,28
$GPRMC,195548.000,A,5132.4670,N,00000.8827,W,2.74,321.59,170815,,,A*7A,51.5411148071,-0.0147116003,19:55:48,17/8/2015,834,6,18.36,22.00,23
$GPRMC,195549.000,A,5132.4680,N,00000.8837,W,3.01,315.11,170815,,,A*7D,51.5411300659,-0.0147283020,19:55:48,17/8/2015,841,2,19.34,22.00,23
$GPRMC,195550.000,A,5132.4690,N,00000.8848,W,3.10,317.57,170815,,,A*7C,51.5411529541,-0.0147466001,19:55:50,17/8/2015,852,1,19.34,22.00,28
$GPRMC,195551.000,A,5132.4699,N,00000.8858,W,3.42,322.82,170815,,,A*7C,51.5411605834,-0.0147633004,19:55:51,17/8/2015,863,0,19.34,22.00,28
$GPRMC,195552.000,A,5132.4708,N,00000.8871,W,3.76,307.32,170815,,,A*76,51.5411796569,-0.0147850012,19:55:52,17/8/2015,863,0,18.36,22.00,28
$GPRMC,195553.000,A,5132.4715,N,00000.8882,W,3.46,305.58,170815,,,A*7A,51.5411949157,-0.0148033008,19:55:52,17/8/2015,827,2,18.36,22.00,28
$GPRMC,195554.000,A,5132.4724,N,00000.8894,W,3.35,310.51,170815,,,A*71,51.5412025451,-0.0148233008,19:55:54,17/8/2015,622,0,18.36,22.00,28
$GPRMC,195555.000,A,5132.4732,N,00000.8903,W,2.72,326.84,170815,,,A*77,51.5412178039,-0.0148382997,19:55:55,17/8/2015,702,0,19.34,22.00,23
$GPRMC,195556.000,A,5132.4738,N,00000.8910,W,2.37,323.28,170815,,,A*7E,51.5412254333,-0.0148500013,19:55:56,17/8/2015,761,1,17.87,22.00,27
$GPRMC,195557.000,A,5132.4744,N,00000.8918,W,2.26,323.12,170815,,,A*75,51.5412445068,-0.0148633003,19:55:56,17/8/2015,807,2,18.36,22.00,30
$GPRMC,195558.000,A,5132.4758,N,00000.8924,W,2.85,319.82,170815,,,A*71,51.5412597656,-0.0148733005,19:55:58,17/8/2015,816,0,18.85,22.00,28
$GPRMC,195559.000,A,5132.4767,N,00000.8932,W,2.62,315.31,170815,,,A*76,51.5412750244,-0.0148866009,19:55:59,17/8/2015,633,0,19.34,22.00,30
$GPRMC,195600.000,A,5132.4774,N,00000.8940,W,2.35,320.71,170815,,,A*7E,51.5412940979,-0.0149000000,19:56:0,17/8/2015,899,0,18.36,22.00,28
$GPRMC,195601.000,A,5132.4779,N,00000.8948,W,2.11,317.00,170815,,,A*7E,51.5413017272,-0.0149133014,19:56:0,17/8/2015,891,0,19.34,22.00,26
$GPRMC,195602.000,A,5132.4784,N,00000.8957,W,2.49,307.57,170815,,,A*7F,51.5413093566,-0.0149282989,19:56:2,17/8/2015,898,1,18.36,22.00,28
$GPRMC,195603.000,A,5132.4790,N,00000.8964,W,2.31,321.22,170815,,,A*72,51.5413169860,-0.0149399995,19:56:3,17/8/2015,911,2,18.36,22.00,23
$GPRMC,195604.000,A,5132.4794,N,00000.8973,W,2.45,311.12,170815,,,A*74,51.5413246154,-0.0149550008,19:56:4,17/8/2015,706,0,19.34,22.00,29
$GPRMC,195605.000,A,5132.4797,N,00000.8981,W,2.19,303.67,170815,,,A*73,51.5413246154,-0.0149683008,19:56:4,17/8/2015,572,0,18.36,22.00,28
$GPRMC,195606.000,A,5132.4802,N,00000.8987,W,2.16,318.73,170815,,,A*75,51.5413322448,-0.0149783015,19:56:6,17/8/2015,903,0,19.34,22.00,28
$GPRMC,195607.000,A,5132.4809,N,00000.8994,W,2.68,313.61,170815,,,A*7C,51.5413475036,-0.0149900007,19:56:7,17/8/2015,874,0,18.36,22.00,27
$GPRMC,195608.000,A,5132.4814,N,00000.9002,W,2.46,316.26,170815,,,A*72,51.5413589477,-0.0150032997,19:56:8,17/8/2015,928,2,18.36,22.00,23
$GPRMC,195609.000,A,5132.4819,N,00000.9010,W,2.40,306.78,170815,,,A*71,51.5413665771,-0.0150166010,19:56:8,17/8/2015,872,0,17.38,22.00,28
$GPRMC,195610.000,A,5132.4824,N,00000.9018,W,2.38,312.55,170815,,,A*7A,51.5413742065,-0.0150300002,19:56:10,17/8/2015,587,1,18.36,22.00,28
$GPRMC,195611.000,A,5132.4830,N,00000.9027,W,2.20,306.89,170815,,,A*7F,51.5413818359,-0.0150450000,19:56:11,17/8/2015,916,1,17.87,22.00,28
$GPRMC,195612.000,A,5132.4833,N,00000.9037,W,2.64,296.12,170815,,,A*74,51.5413894653,-0.0150616002,19:56:12,17/8/2015,911,1,18.36,62.00,31
$GPRMC,195613.000,A,5132.4838,N,00000.9047,W,2.42,310.40,170815,,,A*75,51.5413970947,-0.0150783004,19:56:12,17/8/2015,838,3,18.36,62.00,28
$GPRMC,195614.000,A,5132.4843,N,00000.9057,W,2.63,310.07,170815,,,A*7F,51.5414047241,-0.0150950002,19:56:14,17/8/2015,887,3,18.36,62.00,28
$GPRMC,195615.000,A,5132.4848,N,00000.9068,W,2.80,306.72,170815,,,A*71,51.5414161682,-0.0151133003,19:56:15,17/8/2015,704,3,19.34,62.00,24
$GPRMC,195616.000,A,5132.4855,N,00000.9077,W,3.07,324.34,170815,,,A*7C,51.5414237976,-0.0151283016,19:56:16,17/8/2015,887,1,18.85,62.00,23
$GPRMC,195617.000,A,5132.4860,N,00000.9087,W,2.31,310.95,170815,,,A*7C,51.5414314270,-0.0151450014,19:56:16,17/8/2015,908,0,18.85,62.00,30
$GPRMC,195618.000,A,5132.4865,N,00000.9097,W,2.76,310.23,170815,,,A*79,51.5414390563,-0.0151616001,19:56:18,17/8/2015,808,0,17.87,62.00,28
$GPRMC,195619.000,A,5132.4871,N,00000.9105,W,2.33,318.20,170815,,,A*7D,51.5414543151,-0.0151750016,19:56:19,17/8/2015,896,6,17.87,62.00,28
$GPRMC,195620.000,A,5132.4879,N,00000.9114,W,2.89,311.96,170815,,,A*7A,51.5414619445,-0.0151900005,19:56:20,17/8/2015,651,8,18.36,62.00,28
$GPRMC,195621.000,A,5132.4885,N,00000.9124,W,2.90,305.31,170815,,,A*7B,51.5414695739,-0.0152066001,19:56:20,17/8/2015,895,1,18.36,62.00,27
$GPRMC,195622.000,A,5132.4890,N,00000.9136,W,2.95,297.31,170815,,,A*70,51.5414810180,-0.0152266016,19:56:22,17/8/2015,914,5,18.85,62.00,28
$GPRMC,195623.000,A,5132.4895,N,00000.9145,W,2.48,317.29,170815,,,A*70,51.5414886474,-0.0152415990,19:56:23,17/8/2015,923,2,18.36,62.00,28
$GPRMC,195624.000,A,5132.4901,N,00000.9154,W,2.85,309.71,170815,,,A*78,51.5415039062,-0.0152566003,19:56:24,17/8/2015,942,1,19.34,62.00,25
$GPRMC,195625.000,A,5132.4908,N,00000.9163,W,2.54,317.21,170815,,,A*72,51.5415115356,-0.0152716016,19:56:24,17/8/2015,474,1,18.85,62.00,28
$GPRMC,195626.000,A,5132.4914,N,00000.9172,W,2.94,313.78,170815,,,A*78,51.5415191650,-0.0152866005,19:56:26,17/8/2015,929,4,17.38,62.00,28
$GPRMC,195627.000,A,5132.4920,N,00000.9183,W,2.64,305.36,170815,,,A*72,51.5415382385,-0.0153050003,19:56:27,17/8/2015,936,0,18.85,62.00,31
$GPRMC,195628.000,A,5132.4926,N,00000.9195,W,3.09,300.05,170815,,,A*73,51.5415458679,-0.0153250002,19:56:28,17/8/2015,941,2,18.36,62.00,28
$GPRMC,195629.000,A,5132.4934,N,00000.9207,W,2.84,313.01,170815,,,A*7B,51.5415534973,-0.0153450012,19:56:28,17/8/2015,948,3,17.38,62.00,27
$GPRMC,195630.000,A,5132.4940,N,00000.9218,W,2.78,302.19,170815,,,A*74,51.5415687561,-0.0153633012,19:56:30,17/8/2015,951,0,18.36,62.00,28
$GPRMC,195631.000,A,5132.4944,N,00000.9228,W,2.33,298.44,170815,,,A*77,51.5415763854,-0.0153800001,19:56:31,17/8/2015,939,3,17.38,62.00,27
$GPRMC,195632.000,A,5132.4949,N,00000.9238,W,2.27,305.86,170815,,,A*76,51.5415840148,-0.0153966007,19:56:32,17/8/2015,932,4,18.36,62.00,28
$GPRMC,195633.000,A,5132.4959,N,00000.9249,W,2.52,298.64,170815,,,A*7B,51.5416030883,-0.0154150009,19:56:32,17/8/2015,934,1,17.38,62.00,28
$GPRMC,195634.000,A,5132.4967,N,00000.9262,W,2.85,286.08,170815,,,A*77,51.5416107177,-0.0154366016,19:56:34,17/8/2015,938,0,18.85,62.00,28
$GPRMC,195635.000,A,5132.4971,N,00000.9274,W,2.63,270.87,170815,,,A*70,51.5416183471,-0.0154566001,19:56:35,17/8/2015,933,0,18.36,62.00,25
$GPRMC,195636.000,A,5132.4973,N,00000.9286,W,2.53,265.67,170815,,,A*75,51.5416183471,-0.0154766011,19:56:36,17/8/2015,943,0,18.36,62.00,30
$GPRMC,195637.000,A,5132.4972,N,00000.9299,W,2.72,252.77,170815,,,A*7D,51.5416183471,-0.0154982995,19:56:36,17/8/2015,949,2,18.36,62.00,23
$GPRMC,195638.000,A,5132.4972,N,00000.9311,W,2.70,251.91,170815,,,A*7A,51.5416183471,-0.0155183019,19:56:38,17/8/2015,951,3,18.36,62.00,27
$GPRMC,195639.000,A,5132.4969,N,00000.9322,W,2.78,245.81,170815,,,A*7D,51.5416183471,-0.0155366001,19:56:39,17/8/2015,951,0,17.38,62.00,27
$GPRMC,195640.000,A,5132.4966,N,00000.9331,W,2.71,226.68,170815,,,A*75,51.5416107177,-0.0155516004,19:56:40,17/8/2015,935,4,18.36,62.00,28
$GPRMC,195641.000,A,5132.4959,N,00000.9337,W,2.83,221.45,170815,,,A*7B,51.5416030883,-0.0155615997,19:56:40,17/8/2015,928,1,18.85,62.00,27
$GPRMC,195642.000,A,5132.4954,N,00000.9347,W,2.21,237.30,170815,,,A*7F,51.5415916442,-0.0155783009,19:56:42,17/8/2015,920,0,18.85,62.00,23
$GPRMC,195643.000,A,5132.4948,N,00000.9358,W,2.93,225.65,170815,,,A*77,51.5415763854,-0.0155965995,19:56:43,17/8/2015,920,2,18.36,77.00,27
$GPRMC,195644.000,A,5132.4941,N,00000.9369,W,2.92,224.95,170815,,,A*74,51.5415687561,-0.0156149997,19:56:44,17/8/2015,923,0,18.36,77.00,24
$GPRMC,195645.000,A,5132.4936,N,00000.9379,W,2.97,227.81,170815,,,A*77,51.5415611267,-0.0156315994,19:56:44,17/8/2015,919,1,18.36,77.00,22
$GPRMC,195646.000,A,5132.4931,N,00000.9391,W,2.62,229.11,170815,,,A*78,51.5415534973,-0.0156516003,19:56:46,17/8/2015,924,2,17.38,77.00,28
$GPRMC,195647.000,A,5132.4928,N,00000.9401,W,2.43,232.75,170815,,,A*74,51.5415458679,-0.0156683015,19:56:47,17/8/2015,917,6,18.85,77.00,28
$GPRMC,195648.000,A,5132.4923,N,00000.9411,W,2.85,219.49,170815,,,A*7D,51.5415382385,-0.0156850004,19:56:48,17/8/2015,913,2,17.38,77.00,28
$GPRMC,195649.000,A,5132.4918,N,00000.9421,W,2.85,218.25,170815,,,A*7C,51.5415267944,-0.0157016015,19:56:48,17/8/2015,913,8,18.36,77.00,28
$GPRMC,195650.000,A,5132.4913,N,00000.9432,W,3.12,230.66,170815,,,A*7F,51.5415191650,-0.0157200002,19:56:50,17/8/2015,902,0,18.36,77.00,27
$GPRMC,195651.000,A,5132.4908,N,00000.9444,W,3.72,228.85,170815,,,A*77,51.5415115356,-0.0157399997,19:56:51,17/8/2015,894,0,17.38,77.00,28
$GPRMC,195652.000,A,5132.4904,N,00000.9456,W,3.34,229.11,170815,,,A*75,51.5415039062,-0.0157600021,19:56:52,17/8/2015,904,6,17.38,77.00,28
$GPRMC,195653.000,A,5132.4900,N,00000.9469,W,3.09,239.06,170815,,,A*75,51.5415039062,-0.0157815990,19:56:52,17/8/2015,914,3,18.36,77.00,27
$GPRMC,195654.000,A,5132.4898,N,00000.9483,W,2.66,255.88,170815,,,A*72,51.5414962768,-0.0158050003,19:56:54,17/8/2015,869,0,18.36,77.00,28
$GPRMC,195655.000,A,5132.4896,N,00000.9496,W,2.89,253.70,170815,,,A*79,51.5414962768,-0.0158266010,19:56:55,17/8/2015,815,5,18.36,77.00,24
$GPRMC,195656.000,A,5132.4896,N,00000.9509,W,2.94,259.67,170815,,,A*7D,51.5414962768,-0.0158483018,19:56:56,17/8/2015,781,1,18.85,77.00,28
$GPRMC,195657.000,A,5132.4895,N,00000.9522,W,2.98,261.99,170815,,,A*70,51.5414886474,-0.0158700013,19:56:56,17/8/2015,693,0,19.34,77.00,28
$GPRMC,195658.000,A,5132.4896,N,00000.9535,W,2.70,272.13,170815,,,A*7C,51.5414962768,-0.0158915996,19:56:58,17/8/2015,567,0,18.85,77.00,27
$GPRMC,195659.000,A,5132.4898,N,00000.9548,W,2.82,273.28,170815,,,A*7D,51.5414962768,-0.0159133005,19:56:59,17/8/2015,541,0,19.34,77.00,24
$GPRMC,195700.000,A,5132.4900,N,00000.9559,W,2.29,284.32,170815,,,A*72,51.5415039062,-0.0159316005,19:57:0,17/8/2015,549,2,18.36,77.00,27
$GPRMC,195701.000,A,5132.4902,N,00000.9571,W,2.71,282.70,170815,,,A*76,51.5415039062,-0.0159516000,19:57:0,17/8/2015,670,1,18.36,77.00,28
$GPRMC,195702.000,A,5132.4904,N,00000.9585,W,2.79,279.96,170815,,,A*7C,51.5415039062,-0.0159749994,19:57:2,17/8/2015,610,3,18.36,77.00,23
$GPRMC,195703.000,A,5132.4906,N,00000.9599,W,3.01,278.66,170815,,,A*72,51.5415115356,-0.0159983015,19:57:3,17/8/2015,572,1,17.38,77.00,28
$GPRMC,195704.000,A,5132.4907,N,00000.9613,W,3.44,271.50,170815,,,A*78,51.5415115356,-0.0160215997,19:57:4,17/8/2015,509,1,16.89,77.00,28
$GPRMC,195705.000,A,5132.4909,N,00000.9626,W,3.03,266.89,170815,,,A*70,51.5415115356,-0.0160432996,19:57:4,17/8/2015,465,2,18.36,77.00,28
$GPRMC,195706.000,A,5132.4910,N,00000.9638,W,2.60,272.61,170815,,,A*73,51.5415191650,-0.0160633015,19:57:6,17/8/2015,443,5,18.36,77.00,27
$GPRMC,195707.000,A,5132.4911,N,00000.9651,W,2.40,286.57,170815,,,A*70,51.5415191650,-0.0160850000,19:57:7,17/8/2015,445,0,18.36,77.00,27
$GPRMC,195708.000,A,5132.4911,N,00000.9664,W,2.57,281.94,170815,,,A*77,51.5415191650,-0.0161065998,19:57:8,17/8/2015,469,0,19.34,77.00,28
$GPRMC,195709.000,A,5132.4912,N,00000.9679,W,2.82,275.61,170815,,,A*70,51.5415191650,-0.0161316013,19:57:8,17/8/2015,524,0,18.85,77.00,28
$GPRMC,195710.000,A,5132.4913,N,00000.9693,W,2.85,277.28,170815,,,A*75,51.5415191650,-0.0161550021,19:57:10,17/8/2015,608,3,18.36,77.00,27
$GPRMC,195711.000,A,5132.4915,N,00000.9707,W,3.11,283.61,170815,,,A*74,51.5415267944,-0.0161783003,19:57:11,17/8/2015,694,2,18.36,77.00,30
$GPRMC,195712.000,A,5132.4917,N,00000.9720,W,2.69,286.12,170815,,,A*7F,51.5415267944,-0.0161999998,19:57:12,17/8/2015,885,0,18.36,77.00,28
$GPRMC,195713.000,A,5132.4921,N,00000.9733,W,3.19,290.95,170815,,,A*77,51.5415382385,-0.0162216005,19:57:12,17/8/2015,885,1,18.36,77.00,23
$GPRMC,195714.000,A,5132.4923,N,00000.9746,W,3.12,275.93,170815,,,A*76,51.5415382385,-0.0162433013,19:57:14,17/8/2015,878,0,18.85,86.00,27
$GPRMC,195715.000,A,5132.4926,N,00000.9761,W,3.41,290.15,170815,,,A*74,51.5415458679,-0.0162683010,19:57:15,17/8/2015,896,5,18.36,86.00,28
$GPRMC,195716.000,A,5132.4929,N,00000.9776,W,3.02,292.47,170815,,,A*7C,51.5415458679,-0.0162933006,19:57:16,17/8/2015,903,3,17.87,86.00,28
$GPRMC,195717.000,A,5132.4933,N,00000.9788,W,2.91,306.03,170815,,,A*70,51.5415534973,-0.0163133010,19:57:16,17/8/2015,899,0,18.36,86.00,23
$GPRMC,195718.000,A,5132.4939,N,00000.9800,W,3.64,301.33,170815,,,A*75,51.5415687561,-0.0163332996,19:57:18,17/8/2015,897,0,18.36,86.00,23
$GPRMC,195719.000,A,5132.4943,N,00000.9813,W,2.91,301.08,170815,,,A*78,51.5415687561,-0.0163550004,19:57:19,17/8/2015,903,1,18.85,86.00,30
$GPRMC,195720.000,A,5132.4947,N,00000.9822,W,2.62,303.76,170815,,,A*73,51.5415763854,-0.0163699998,19:57:20,17/8/2015,895,0,18.85,86.00,27
$GPRMC,195721.000,A,5132.4951,N,00000.9834,W,2.46,305.30,170815,,,A*70,51.5415840148,-0.0163900017,19:57:20,17/8/2015,896,4,18.36,86.00,22
$GPRMC,195722.000,A,5132.4954,N,00000.9846,W,1.49,314.94,170815,,,A*71,51.5415916442,-0.0164100003,19:57:22,17/8/2015,896,1,17.38,86.00,27
$GPRMC,195723.000,A,5132.4957,N,00000.9857,W,2.63,298.20,170815,,,A*72,51.5415916442,-0.0164283013,19:57:23,17/8/2015,897,0,18.36,86.00,23
$GPRMC,195724.000,A,5132.4961,N,00000.9867,W,2.42,302.88,170815,,,A*70,51.5416030883,-0.0164450025,19:57:24,17/8/2015,896,2,17.38,86.00,28
$GPRMC,195725.000,A,5132.4965,N,00000.9875,W,2.57,301.60,170815,,,A*77,51.5416107177,-0.0164583015,19:57:24,17/8/2015,893,0,18.85,86.00,28
$GPRMC,195726.000,A,5132.4969,N,00000.9888,W,3.72,291.83,170815,,,A*79,51.5416183471,-0.0164800000,19:57:26,17/8/2015,893,2,18.85,86.00,27
$GPRMC,195727.000,A,5132.4975,N,00000.9900,W,2.93,294.76,170815,,,A*75,51.5416259765,-0.0164999985,19:57:27,17/8/2015,895,11,17.38,86.00,27
$GPRMC,195728.000,A,5132.4979,N,00000.9912,W,2.93,291.34,170815,,,A*76,51.5416336059,-0.0165200004,19:57:28,17/8/2015,886,0,17.87,86.00,28
$GPRMC,195729.000,A,5132.4983,N,00000.9925,W,3.36,287.18,170815,,,A*71,51.5416412353,-0.0165416002,19:57:28,17/8/2015,880,0,17.87,86.00,28
$GPRMC,195730.000,A,5132.4985,N,00000.9938,W,3.15,282.01,170815,,,A*7F,51.5416412353,-0.0165632987,19:57:30,17/8/2015,847,1,17.38,86.00,27
$GPRMC,195731.000,A,5132.4988,N,00000.9952,W,2.83,284.46,170815,,,A*74,51.5416488647,-0.0165866003,19:57:31,17/8/2015,809,0,18.85,86.00,29
$GPRMC,195732.000,A,5132.4989,N,00000.9966,W,2.61,271.70,170815,,,A*72,51.5416488647,-0.0166100001,19:57:32,17/8/2015,773,1,17.87,86.00,28
$GPRMC,195733.000,A,5132.4992,N,00000.9979,W,2.41,298.52,170815,,,A*72,51.5416488647,-0.0166316008,19:57:32,17/8/2015,730,3,17.87,86.00,27
$GPRMC,195734.000,A,5132.4995,N,00000.9991,W,3.07,286.14,170815,,,A*7A,51.5416603088,-0.0166516008,19:57:34,17/8/2015,687,0,18.85,86.00,27
$GPRMC,195735.000,A,5132.4998,N,00001.0004,W,2.98,286.53,170815,,,A*7F,51.5416679382,-0.0166733002,19:57:35,17/8/2015,644,2,18.36,86.00,27
$GPRMC,195736.000,A,5132.5001,N,00001.0018,W,3.46,287.31,170815,,,A*7E,51.5416679382,-0.0166966009,19:57:36,17/8/2015,585,0,18.36,86.00,29
$GPRMC,195737.000,A,5132.5005,N,00001.0032,W,3.52,284.69,170815,,,A*78,51.5416755676,-0.0167199993,19:57:36,17/8/2015,539,1,18.36,86.00,31
$GPRMC,195738.000,A,5132.5008,N,00001.0046,W,2.89,281.93,170815,,,A*7E,51.5416831970,-0.0167433013,19:57:38,17/8/2015,496,2,16.89,86.00,28
$GPRMC,195739.000,A,5132.5010,N,00001.0058,W,3.01,283.76,170815,,,A*71,51.5416831970,-0.0167632999,19:57:39,17/8/2015,470,2,18.36,86.00,27
$GPRMC,195740.000,A,5132.5011,N,00001.0070,W,2.50,282.89,170815,,,A*70,51.5416831970,-0.0167832994,19:57:40,17/8/2015,467,2,17.87,86.00,28
$GPRMC,195741.000,A,5132.5013,N,00001.0084,W,3.00,277.26,170815,,,A*73,51.5416908264,-0.0168066015,19:57:40,17/8/2015,489,0,18.36,86.00,28
$GPRMC,195742.000,A,5132.5015,N,00001.0098,W,3.24,279.03,170815,,,A*74,51.5416908264,-0.0168300008,19:57:42,17/8/2015,530,2,19.34,86.00,27
$GPRMC,195743.000,A,5132.5016,N,00001.0112,W,3.16,279.53,170815,,,A*71,51.5416908264,-0.0168533015,19:57:43,17/8/2015,747,4,18.36,86.00,27
$GPRMC,195744.000,A,5132.5016,N,00001.0126,W,3.29,266.75,170815,,,A*77,51.5416908264,-0.0168766012,19:57:44,17/8/2015,849,14,18.36,27.00,24
$GPRMC,195745.000,A,5132.5015,N,00001.0142,W,3.29,265.39,170815,,,A*7C,51.5416908264,-0.0169033026,19:57:44,17/8/2015,831,0,17.38,27.00,27
$GPRMC,195746.000,A,5132.5014,N,00001.0155,W,2.54,274.70,170815,,,A*7E,51.5416908264,-0.0169250011,19:57:46,17/8/2015,682,1,17.38,27.00,27
$GPRMC,195747.000,A,5132.5013,N,00001.0170,W,2.67,269.39,170815,,,A*7E,51.5416908264,-0.0169500017,19:57:47,17/8/2015,598,0,18.36,27.00,27
$GPRMC,195748.000,A,5132.5014,N,00001.0182,W,2.63,274.05,170815,,,A*7C,51.5416908264,-0.0169700012,19:57:48,17/8/2015,561,0,18.36,27.00,27
$GPRMC,195749.000,A,5132.5015,N,00001.0194,W,2.88,280.15,170815,,,A*74,51.5416908264,-0.0169899997,19:57:48,17/8/2015,500,0,18.85,27.00,23
$GPRMC,195750.000,A,5132.5016,N,00001.0207,W,2.88,273.43,170815,,,A*79,51.5416908264,-0.0170116004,19:57:50,17/8/2015,445,1,18.36,27.00,27
$GPRMC,195751.000,A,5132.5015,N,00001.0220,W,3.73,256.09,170815,,,A*72,51.5416908264,-0.0170333013,19:57:51,17/8/2015,468,2,18.36,27.00,27
$GPRMC,195752.000,A,5132.5013,N,00001.0235,W,3.67,255.25,170815,,,A*7B,51.5416908264,-0.0170583009,19:57:52,17/8/2015,583,3,18.36,27.00,26
$GPRMC,195753.000,A,5132.5011,N,00001.0250,W,3.39,258.98,170815,,,A*7B,51.5416831970,-0.0170833005,19:57:52,17/8/2015,691,0,18.85,27.00,27
$GPRMC,195754.000,A,5132.5010,N,00001.0263,W,2.67,260.98,170815,,,A*7C,51.5416831970,-0.0171050014,19:57:54,17/8/2015,901,0,18.36,27.00,27
$GPRMC,195755.000,A,5132.5008,N,00001.0276,W,2.76,267.40,170815,,,A*72,51.5416831970,-0.0171265983,19:57:55,17/8/2015,916,0,18.36,27.00,27
$GPRMC,195756.000,A,5132.5007,N,00001.0288,W,3.04,256.93,170815,,,A*77,51.5416755676,-0.0171466007,19:57:56,17/8/2015,924,1,17.87,27.00,27
$GPRMC,195757.000,A,5132.5004,N,00001.0301,W,3.24,251.89,170815,,,A*7B,51.5416755676,-0.0171683015,19:57:56,17/8/2015,917,2,18.36,27.00,28
$GPRMC,195758.000,A,5132.5000,N,00001.0313,W,2.75,252.49,170815,,,A*79,51.5416679382,-0.0171883010,19:57:58,17/8/2015,914,1,17.38,27.00,27
$GPRMC,195759.000,A,5132.4998,N,00001.0325,W,2.51,257.03,170815,,,A*79,51.5416679382,-0.0172083005,19:57:59,17/8/2015,907,6,18.36,27.00,27
$GPRMC,195800.000,A,5132.4995,N,00001.0336,W,2.78,245.66,170815,,,A*7E,51.5416603088,-0.0172266006,19:58:0,17/8/2015,907,3,18.36,27.00,25
$GPRMC,195801.000,A,5132.4991,N,00001.0348,W,3.29,243.70,170815,,,A*76,51.5416488647,-0.0172466015,19:58:0,17/8/2015,910,0,16.41,27.00,27
$GPRMC,195802.000,A,5132.4986,N,00001.0359,W,3.14,240.47,170815,,,A*7A,51.5416412353,-0.0172649993,19:58:2,17/8/2015,914,2,17.87,27.00,27
$GPRMC,195803.000,A,5132.4983,N,00001.0370,W,2.97,245.70,170815,,,A*7E,51.5416412353,-0.0172832989,19:58:3,17/8/2015,924,1,18.36,27.00,27
$GPRMC,195804.000,A,5132.4979,N,00001.0382,W,3.12,241.92,170815,,,A*75,51.5416336059,-0.0173032999,19:58:4,17/8/2015,919,0,16.89,27.00,26
$GPRMC,195805.000,A,5132.4975,N,00001.0393,W,2.63,241.97,170815,,,A*7A,51.5416259765,-0.0173215999,19:58:4,17/8/2015,918,0,17.87,27.00,27
$GPRMC,195806.000,A,5132.4970,N,00001.0405,W,3.33,237.70,170815,,,A*78,51.5416183471,-0.0173416004,19:58:6,17/8/2015,914,1,18.36,27.00,27
$GPRMC,195807.000,A,5132.4965,N,00001.0417,W,3.36,234.95,170815,,,A*73,51.5416107177,-0.0173616027,19:58:7,17/8/2015,909,1,17.38,27.00,22
$GPRMC,195808.000,A,5132.4960,N,00001.0429,W,2.84,240.95,170815,,,A*7F,51.5416030883,-0.0173816013,19:58:8,17/8/2015,908,6,18.85,27.00,23
$GPRMC,195809.000,A,5132.4955,N,00001.0439,W,2.92,238.46,170815,,,A*7F,51.5415916442,-0.0173982992,19:58:8,17/8/2015,907,5,18.36,27.00,27
$GPRMC,195810.000,A,5132.4950,N,00001.0452,W,3.12,240.86,170815,,,A*75,51.5415840148,-0.0174200000,19:58:10,17/8/2015,888,3,18.85,27.00,27
$GPRMC,195811.000,A,5132.4946,N,00001.0464,W,2.94,250.92,170815,,,A*7D,51.5415763854,-0.0174399995,19:58:11,17/8/2015,882,15,18.85,27.00,23
$GPRMC,195812.000,A,5132.4942,N,00001.0478,W,3.17,242.74,170815,,,A*76,51.5415687561,-0.0174633002,19:58:12,17/8/2015,805,6,18.36,27.00,27
$GPRMC,195813.000,A,5132.4938,N,00001.0490,W,3.23,236.15,170815,,,A*7F,51.5415611267,-0.0174833002,19:58:12,17/8/2015,785,0,18.36,27.00,27
$GPRMC,195814.000,A,5132.4933,N,00001.0501,W,2.88,239.27,170815,,,A*74,51.5415534973,-0.0175015997,19:58:14,17/8/2015,759,4,18.36,29.00,23
$GPRMC,195815.000,A,5132.4929,N,00001.0515,W,3.30,243.53,170815,,,A*77,51.5415458679,-0.0175250005,19:58:15,17/8/2015,693,0,18.36,29.00,28
$GPRMC,195816.000,A,5132.4925,N,00001.0527,W,2.90,241.69,170815,,,A*79,51.5415458679,-0.0175450015,19:58:16,17/8/2015,642,0,18.36,29.00,28
$GPRMC,195817.000,A,5132.4921,N,00001.0539,W,2.97,242.79,170815,,,A*76,51.5415382385,-0.0175650000,19:58:16,17/8/2015,593,2,18.85,29.00,30
$GPRMC,195818.000,A,5132.4917,N,00001.0551,W,2.95,237.50,170815,,,A*79,51.5415267944,-0.0175850019,19:58:18,17/8/2015,547,0,18.85,29.00,23
$GPRMC,195819.000,A,5132.4913,N,00001.0562,W,2.97,235.56,170815,,,A*7A,51.5415191650,-0.0176033010,19:58:19,17/8/2015,519,4,16.89,29.00,27
$GPRMC,195820.000,A,5132.4908,N,00001.0573,W,3.04,230.55,170815,,,A*77,51.5415115356,-0.0176216006,19:58:20,17/8/2015,513,1,18.36,29.00,27
$GPRMC,195821.000,A,5132.4903,N,00001.0584,W,3.15,234.51,170815,,,A*75,51.5415039062,-0.0176400003,19:58:20,17/8/2015,775,0,18.36,29.00,27
$GPRMC,195822.000,A,5132.4898,N,00001.0597,W,3.26,236.45,170815,,,A*70,51.5414962768,-0.0176616010,19:58:22,17/8/2015,834,1,18.85,29.00,28
$GPRMC,195823.000,A,5132.4893,N,00001.0609,W,2.65,235.10,170815,,,A*7B,51.5414886474,-0.0176815996,19:58:23,17/8/2015,875,0,18.36,29.00,23
$GPRMC,195824.000,A,5132.4889,N,00001.0620,W,2.76,246.26,170815,,,A*7F,51.5414810180,-0.0176999998,19:58:24,17/8/2015,890,2,18.36,29.00,27
$GPRMC,195825.000,A,5132.4884,N,00001.0634,W,3.44,245.34,170815,,,A*76,51.5414695739,-0.0177232990,19:58:24,17/8/2015,915,1,18.85,29.00,27
$GPRMC,195826.000,A,5132.4880,N,00001.0649,W,3.58,244.78,170815,,,A*7F,51.5414619445,-0.0177482986,19:58:26,17/8/2015,907,0,18.85,29.00,28
$GPRMC,195827.000,A,5132.4876,N,00001.0662,W,3.11,246.38,170815,,,A*75,51.5414619445,-0.0177699995,19:58:27,17/8/2015,905,3,17.38,29.00,27
$GPRMC,195828.000,A,5132.4873,N,00001.0674,W,2.65,246.59,170815,,,A*7D,51.5414543151,-0.0177899980,19:58:28,17/8/2015,908,3,17.87,29.00,27
$GPRMC,195829.000,A,5132.4868,N,00001.0687,W,3.34,238.36,170815,,,A*7F,51.5414466857,-0.0178115987,19:58:28,17/8/2015,913,1,18.36,29.00,27
$GPRMC,195830.000,A,5132.4864,N,00001.0700,W,3.44,239.46,170815,,,A*74,51.5414390563,-0.0178332996,19:58:30,17/8/2015,918,1,18.36,29.00,28
$GPRMC,195831.000,A,5132.4859,N,00001.0713,W,2.88,244.39,170815,,,A*7A,51.5414314270,-0.0178550004,19:58:31,17/8/2015,924,0,18.36,29.00,23
$GPRMC,195832.000,A,5132.4856,N,00001.0725,W,3.12,249.72,170815,,,A*73,51.5414237976,-0.0178749990,19:58:32,17/8/2015,910,0,18.36,29.00,28
$GPRMC,195833.000,A,5132.4852,N,00001.0737,W,3.27,238.26,170815,,,A*74,51.5414237976,-0.0178950014,19:58:32,17/8/2015,909,1,16.89,29.00,27
$GPRMC,195834.000,A,5132.4846,N,00001.0751,W,3.96,238.41,170815,,,A*7D,51.5414047241,-0.0179183006,19:58:34,17/8/2015,916,0,18.36,29.00,27
$GPRMC,195835.000,A,5132.4841,N,00001.0763,W,2.70,243.83,170815,,,A*71,51.5413970947,-0.0179382991,19:58:35,17/8/2015,909,3,18.36,29.00,27
$GPRMC,195836.000,A,5132.4835,N,00001.0773,W,3.23,230.17,170815,,,A*7E,51.5413894653,-0.0179550027,19:58:36,17/8/2015,911,2,17.87,29.00,23
$GPRMC,195837.000,A,5132.4829,N,00001.0782,W,3.03,232.88,170815,,,A*7A,51.5413818359,-0.0179699993,19:58:36,17/8/2015,914,0,18.36,29.00,27
$GPRMC,195838.000,A,5132.4824,N,00001.0791,W,2.70,242.98,170815,,,A*79,51.5413742065,-0.0179849996,19:58:38,17/8/2015,919,1,17.87,29.00,23
$GPRMC,195839.000,A,5132.4820,N,00001.0802,W,2.84,244.30,170815,,,A*76,51.5413665771,-0.0180033016,19:58:39,17/8/2015,925,2,18.36,29.00,27
$GPRMC,195840.000,A,5132.4817,N,00001.0814,W,2.91,246.44,170815,,,A*7E,51.5413665771,-0.0180233001,19:58:40,17/8/2015,927,1,18.36,29.00,27
$GPRMC,195841.000,A,5132.4814,N,00001.0825,W,2.71,245.84,170815,,,A*7F,51.5413589477,-0.0180416011,19:58:40,17/8/2015,927,1,17.87,29.00,27
$GPRMC,195842.000,A,5132.4810,N,00001.0837,W,3.11,244.62,170815,,,A*75,51.5413475036,-0.0180616006,19:58:42,17/8/2015,934,2,19.34,29.00,27
$GPRMC,195843.000,A,5132.4806,N,00001.0850,W,2.87,240.94,170815,,,A*71,51.5413398742,-0.0180833005,19:58:43,17/8/2015,926,2,17.87,29.00,27
$GPRMC,195845.000,A,5132.4800,N,00001.0873,W,2.83,241.41,170815,,,A*7D,51.5413322448,-0.0181216001,19:58:44,17/8/2015,928,2,18.36,94.00,27
$GPRMC,195846.000,A,5132.4796,N,00001.0884,W,3.10,243.51,170815,,,A*7E,51.5413246154,-0.0181400003,19:58:46,17/8/2015,916,0,17.38,94.00,27
$GPRMC,195847.000,A,5132.4793,N,00001.0895,W,2.89,243.89,170815,,,A*7E,51.5413246154,-0.0181583003,19:58:47,17/8/2015,909,1,17.87,94.00,27
$GPRMC,195848.000,A,5132.4789,N,00001.0907,W,3.05,241.28,170815,,,A*7C,51.5413169860,-0.0181783008,19:58:48,17/8/2015,895,0,17.87,94.00,27
$GPRMC,195849.000,A,5132.4785,N,00001.0919,W,3.12,242.04,170815,,,A*75,51.5413093566,-0.0181983013,19:58:48,17/8/2015,869,1,17.87,94.00,28
$GPRMC,195850.000,A,5132.4781,N,00001.0931,W,3.16,244.54,170815,,,A*74,51.5413017272,-0.0182183017,19:58:50,17/8/2015,810,0,17.87,94.00,27
$GPRMC,195851.000,A,5132.4779,N,00001.0944,W,3.12,252.88,170815,,,A*72,51.5413017272,-0.0182400016,19:58:51,17/8/2015,655,1,18.36,94.00,29
$GPRMC,195852.000,A,5132.4776,N,00001.0957,W,3.08,252.53,170815,,,A*71,51.5412940979,-0.0182616024,19:58:52,17/8/2015,489,2,18.85,94.00,27
$GPRMC,195853.000,A,5132.4774,N,00001.0970,W,3.01,252.31,170815,,,A*7A,51.5412940979,-0.0182833013,19:58:52,17/8/2015,514,0,17.38,94.00,28
$GPRMC,195854.000,A,5132.4772,N,00001.0984,W,3.02,253.59,170815,,,A*7C,51.5412826538,-0.0183066005,19:58:54,17/8/2015,339,0,18.36,94.00,27
$GPRMC,195855.000,A,5132.4769,N,00001.0997,W,3.01,254.92,170815,,,A*76,51.5412826538,-0.0183283023,19:58:55,17/8/2015,322,0,18.85,94.00,27
$GPRMC,195856.000,A,5132.4767,N,00001.1010,W,3.01,256.42,170815,,,A*73,51.5412750244,-0.0183500022,19:58:56,17/8/2015,791,2,16.89,94.00,27
$GPRMC,195857.000,A,5132.4766,N,00001.1023,W,2.98,261.76,170815,,,A*71,51.5412750244,-0.0183716001,19:58:56,17/8/2015,889,10,18.36,94.00,27
$GPRMC,195858.000,A,5132.4765,N,00001.1037,W,3.22,264.76,170815,,,A*7D,51.5412750244,-0.0183950004,19:58:58,17/8/2015,890,1,17.87,94.00,27
$GPRMC,195859.000,A,5132.4764,N,00001.1052,W,3.47,261.50,170815,,,A*7C,51.5412750244,-0.0184200019,19:58:59,17/8/2015,873,0,17.87,94.00,27
$GPRMC,195900.000,A,5132.4764,N,00001.1065,W,2.88,279.09,170815,,,A*72,51.5412750244,-0.0184416007,19:59:0,17/8/2015,835,1,18.36,94.00,22
$GPRMC,195901.000,A,5132.4765,N,00001.1078,W,2.78,275.01,170815,,,A*75,51.5412750244,-0.0184633007,19:59:0,17/8/2015,791,1,18.36,94.00,26
$GPRMC,195902.000,A,5132.4764,N,00001.1091,W,3.12,263.67,170815,,,A*7A,51.5412750244,-0.0184850006,19:59:2,17/8/2015,741,0,17.87,94.00,27
$GPRMC,195903.000,A,5132.4763,N,00001.1104,W,3.16,258.45,170815,,,A*7D,51.5412673950,-0.0185065994,19:59:3,17/8/2015,677,0,18.36,94.00,27
$GPRMC,195904.000,A,5132.4762,N,00001.1118,W,3.06,266.38,170815,,,A*70,51.5412673950,-0.0185300016,19:59:4,17/8/2015,690,0,19.34,94.00,27
$GPRMC,195905.000,A,5132.4762,N,00001.1131,W,3.12,265.30,170815,,,A*74,51.5412673950,-0.0185515995,19:59:4,17/8/2015,751,2,17.87,94.00,27
$GPRMC,195906.000,A,5132.4760,N,00001.1146,W,3.10,265.57,170815,,,A*76,51.5412673950,-0.0185765991,19:59:6,17/8/2015,786,0,18.85,94.00,27
$GPRMC,195907.000,A,5132.4760,N,00001.1161,W,3.17,265.71,170815,,,A*71,51.5412673950,-0.0186015987,19:59:7,17/8/2015,892,0,18.36,94.00,27
$GPRMC,195908.000,A,5132.4758,N,00001.1176,W,3.33,262.19,170815,,,A*7C,51.5412597656,-0.0186266002,19:59:8,17/8/2015,845,2,18.36,94.00,27
$GPRMC,195909.000,A,5132.4758,N,00001.1190,W,2.98,270.19,170815,,,A*76,51.5412597656,-0.0186500015,19:59:8,17/8/2015,903,2,17.87,94.00,23
$GPRMC,195910.000,A,5132.4757,N,00001.1204,W,2.76,265.59,170815,,,A*7F,51.5412597656,-0.0186733007,19:59:10,17/8/2015,924,1,18.36,94.00,28
$GPRMC,195911.000,A,5132.4757,N,00001.1217,W,3.00,274.16,170815,,,A*77,51.5412597656,-0.0186949996,19:59:11,17/8/2015,924,4,17.87,94.00,27
$GPRMC,195912.000,A,5132.4757,N,00001.1235,W,3.90,280.15,170815,,,A*75,51.5412597656,-0.0187250003,19:59:12,17/8/2015,924,0,16.89,94.00,27
$GPRMC,195913.000,A,5132.4757,N,00001.1247,W,2.90,276.90,170815,,,A*74,51.5412597656,-0.0187450027,19:59:12,17/8/2015,926,0,17.87,94.00,27
$GPRMC,195915.000,A,5132.4758,N,00001.1275,W,4.41,259.91,170815,,,A*7A,51.5412597656,-0.0187915992,19:59:15,17/8/2015,918,1,17.87,126.00,28
$GPRMC,195916.000,A,5132.4755,N,00001.1291,W,4.02,258.72,170815,,,A*75,51.5412597656,-0.0188183012,19:59:16,17/8/2015,901,2,17.87,126.00,27
$GPRMC,195917.000,A,5132.4754,N,00001.1307,W,3.22,258.60,170815,,,A*7D,51.5412597656,-0.0188449993,19:59:16,17/8/2015,887,3,17.87,126.00,27
$GPRMC,195918.000,A,5132.4752,N,00001.1323,W,4.05,263.21,170815,,,A*7D,51.5412521362,-0.0188716030,19:59:18,17/8/2015,853,1,17.87,126.00,25
$GPRMC,195919.000,A,5132.4753,N,00001.1337,W,2.95,277.57,170815,,,A*73,51.5412521362,-0.0188950004,19:59:19,17/8/2015,786,0,16.89,126.00,27
$GPRMC,195920.000,A,5132.4752,N,00001.1351,W,3.32,264.23,170815,,,A*75,51.5412521362,-0.0189183025,19:59:20,17/8/2015,715,3,15.92,126.00,28
$GPRMC,195921.000,A,5132.4750,N,00001.1366,W,3.57,265.52,170815,,,A*76,51.5412521362,-0.0189433002,19:59:20,17/8/2015,714,0,18.36,126.00,27
$GPRMC,195922.000,A,5132.4749,N,00001.1379,W,3.25,261.52,170815,,,A*72,51.5412521362,-0.0189650001,19:59:22,17/8/2015,755,0,17.38,126.00,27
$GPRMC,195923.000,A,5132.4748,N,00001.1390,W,2.75,270.43,170815,,,A*71,51.5412445068,-0.0189833021,19:59:23,17/8/2015,779,0,17.87,126.00,27
$GPRMC,195924.000,A,5132.4748,N,00001.1402,W,2.76,274.41,170815,,,A*7F,51.5412445068,-0.0190033006,19:59:24,17/8/2015,787,1,17.87,126.00,23
$GPRMC,195925.000,A,5132.4748,N,00001.1413,W,2.63,270.00,170815,,,A*7B,51.5412445068,-0.0190216007,19:59:24,17/8/2015,764,0,17.38,126.00,27
$GPRMC,195926.000,A,5132.4747,N,00001.1425,W,2.81,262.86,170815,,,A*73,51.5412445068,-0.0190415992,19:59:26,17/8/2015,827,0,17.87,126.00,29
$GPRMC,195927.000,A,5132.4745,N,00001.1437,W,2.63,262.87,170815,,,A*7E,51.5412445068,-0.0190616016,19:59:27,17/8/2015,852,11,17.87,126.00,27
$GPRMC,195928.000,A,5132.4744,N,00001.1447,W,2.21,272.90,170815,,,A*76,51.5412445068,-0.0190783014,19:59:28,17/8/2015,931,2,17.87,126.00,28
$GPRMC,195929.000,A,5132.4745,N,00001.1458,W,2.54,283.48,170815,,,A*71,51.5412445068,-0.0190966014,19:59:28,17/8/2015,935,0,17.38,126.00,28
$GPRMC,195930.000,A,5132.4743,N,00001.1471,W,2.62,264.99,170815,,,A*74,51.5412368774,-0.0191183013,19:59:30,17/8/2015,937,0,18.36,126.00,30
$GPRMC,195931.000,A,5132.4742,N,00001.1483,W,2.76,261.25,170815,,,A*7E,51.5412368774,-0.0191382999,19:59:31,17/8/2015,924,0,16.89,126.00,27
$GPRMC,195932.000,A,5132.4741,N,00001.1495,W,2.44,263.50,170815,,,A*78,51.5412368774,-0.0191583013,19:59:32,17/8/2015,924,0,16.89,126.00,27
$GPRMC,195933.000,A,5132.4740,N,00001.1508,W,3.16,265.34,170815,,,A*7F,51.5412368774,-0.0191800003,19:59:32,17/8/2015,923,0,17.87,126.00,27
$GPRMC,195934.000,A,5132.4738,N,00001.1521,W,2.84,259.40,170815,,,A*7A,51.5412254333,-0.0192016010,19:59:34,17/8/2015,920,1,17.87,126.00,28
$GPRMC,195935.000,A,5132.4736,N,00001.1532,W,2.53,262.93,170815,,,A*7B,51.5412254333,-0.0192200002,19:59:35,17/8/2015,880,2,16.89,126.00,27
$GPRMC,195936.000,A,5132.4735,N,00001.1542,W,2.65,267.37,170815,,,A*72,51.5412254333,-0.0192366008,19:59:36,17/8/2015,820,1,17.87,126.00,26
$GPRMC,195937.000,A,5132.4734,N,00001.1555,W,2.27,267.12,170815,,,A*75,51.5412254333,-0.0192582988,19:59:36,17/8/2015,770,2,16.41,126.00,27
$GPRMC,195938.000,A,5132.4731,N,00001.1566,W,1.95,264.46,170815,,,A*77,51.5412178039,-0.0192766008,19:59:38,17/8/2015,771,5,16.41,126.00,22
$GPRMC,195939.000,A,5132.4730,N,00001.1577,W,3.07,260.67,170815,,,A*79,51.5412178039,-0.0192950010,19:59:39,17/8/2015,789,4,17.87,126.00,28
$GPRMC,195940.000,A,5132.4728,N,00001.1592,W,3.66,256.11,170815,,,A*76,51.5412101745,-0.0193200016,19:59:40,17/8/2015,827,0,18.36,126.00,25
$GPRMC,195941.000,A,5132.4726,N,00001.1605,W,3.03,265.78,170815,,,A*78,51.5412101745,-0.0193416004,19:59:40,17/8/2015,821,1,17.38,126.00,27
$GPRMC,195942.000,A,5132.4725,N,00001.1618,W,2.95,268.12,170815,,,A*7B,51.5412101745,-0.0193633003,19:59:42,17/8/2015,796,0,17.87,126.00,27
$GPRMC,195943.000,A,5132.4724,N,00001.1632,W,3.29,267.75,170815,,,A*7B,51.5412025451,-0.0193866014,19:59:43,17/8/2015,873,1,17.38,126.00,27
$GPRMC,195944.000,A,5132.4724,N,00001.1647,W,3.48,270.01,170815,,,A*7C,51.5412025451,-0.0194116010,19:59:44,17/8/2015,876,0,17.38,126.00,22
$GPRMC,195945.000,A,5132.4722,N,00001.1662,W,3.26,264.17,170815,,,A*76,51.5412025451,-0.0194365987,19:59:44,17/8/2015,919,1,18.36,58.00,27
$GPRMC,195946.000,A,5132.4722,N,00001.1674,W,2.33,264.27,170815,,,A*74,51.5412025451,-0.0194566011,19:59:46,17/8/2015,934,5,18.36,58.00,28
$GPRMC,195947.000,A,5132.4720,N,00001.1684,W,2.51,266.04,170815,,,A*7F,51.5412025451,-0.0194733009,19:59:47,17/8/2015,932,15,18.36,58.00,24
$GPRMC,195948.000,A,5132.4720,N,00001.1695,W,2.45,272.90,170815,,,A*7D,51.5412025451,-0.0194916009,19:59:48,17/8/2015,927,1,16.89,58.00,27
$GPRMC,195949.000,A,5132.4720,N,00001.1705,W,2.63,271.35,170815,,,A*7C,51.5412025451,-0.0195083007,19:59:48,17/8/2015,909,0,17.38,58.00,28
$GPRMC,195950.000,A,5132.4721,N,00001.1717,W,2.69,291.05,170815,,,A*71,51.5412025451,-0.0195283012,19:59:50,17/8/2015,885,0,17.87,58.00,23
$GPRMC,195951.000,A,5132.4725,N,00001.1729,W,3.15,296.25,170815,,,A*76,51.5412101745,-0.0195482997,19:59:51,17/8/2015,822,1,18.36,58.00,27
$GPRMC,195952.000,A,5132.4729,N,00001.1739,W,3.16,287.17,170815,,,A*7A,51.5412101745,-0.0195649995,19:59:52,17/8/2015,697,0,17.87,58.00,28
