
$GPRMC,145022.000,A,5132.4420,N,00000.6783,W,0.86,288.36,170815,,,A*72,51.5406990051,-0.0113050007,14:50:22,0/0/200,15,18,25.20,0.00,26
$GPRMC,145023.000,A,5132.4420,N,00000.6793,W,1.21,291.90,170815,,,A*7A,51.5406990051,-0.0113216006,14:50:23,0/0/200,16,19,25.20,0.00,27
$GPRMC,145024.000,A,5132.4420,N,00000.6802,W,2.09,291.32,170815,,,A*7B,51.5406990051,-0.0113366007,14:50:24,0/0/200,16,16,25.20,0.00,27
$GPRMC,145025.000,A,5132.4421,N,00000.6813,W,1.31,277.55,170815,,,A*7A,51.5406990051,-0.0113550007,14:50:24,0/0/200,10,14,24.22,0.00,17
$GPRMC,145026.000,A,5132.4415,N,00000.6822,W,1.15,246.16,170815,,,A*7F,51.5406913757,-0.0113700008,14:50:26,0/0/200,14,18,28.13,0.00,16
$GPRMC,145027.000,A,5132.4409,N,00000.6832,W,1.65,249.36,170815,,,A*78,51.5406837463,-0.0113865995,14:50:27,0/0/200,16,20,23.73,0.00,27
$GPRMC,145028.000,A,5132.4401,N,00000.6842,W,1.61,224.69,170815,,,A*7D,51.5406646728,-0.0114033007,14:50:28,0/0/200,15,8,20.80,0.00,39
$GPRMC,145029.000,A,5132.4394,N,00000.6846,W,1.85,179.96,170815,,,A*72,51.5406570434,-0.0114099991,14:50:28,0/0/200,15,18,25.68,0.00,18
$GPRMC,145030.000,A,5132.4386,N,00000.6856,W,2.43,238.69,170815,,,A*77,51.5406417846,-0.0114266014,14:50:30,0/0/200,15,12,25.20,0.00,17
$GPRMC,145031.000,A,5132.4380,N,00000.6865,W,3.21,247.79,170815,,,A*7C,51.5406341552,-0.0114416003,14:50:31,0/0/200,11,13,21.78,0.00,17
$GPRMC,145032.000,A,5132.4411,N,00000.6853,W,3.12,241.60,170815,,,A*7B,51.5406837463,-0.0114215993,14:50:32,17/8/2015,12,12,24.22,0.00,28
$GPRMC,145033.000,A,5132.4425,N,00000.6850,W,2.43,229.07,170815,,,A*74,51.5407066345,-0.0114165997,14:50:32,17/8/2015,10,11,24.71,0.00,17
$GPRMC,145034.000,A,5132.4437,N,00000.6850,W,3.72,268.10,170815,,,A*70,51.5407295227,-0.0114165997,14:50:34,17/8/2015,14,19,24.71,0.00,25
$GPRMC,145035.000,A,5132.4440,N,00000.6863,W,5.57,262.90,170815,,,A*72,51.5407295227,-0.0114382994,14:50:35,17/8/2015,15,12,22.75,0.00,17
$GPRMC,145036.000,A,5132.4439,N,00000.6876,W,3.78,260.69,170815,,,A*74,51.5407295227,-0.0114600002,14:50:36,17/8/2015,15,16,25.68,0.00,16
$GPRMC,145037.000,A,5132.4438,N,00000.6877,W,1.70,232.69,170815,,,A*78,51.5407295227,-0.0114616012,14:50:36,17/8/2015,15,12,25.68,0.00,19
$GPRMC,145038.000,A,5132.4434,N,00000.6880,W,1.58,195.55,170815,,,A*78,51.5407218933,-0.0114666008,14:50:38,17/8/2015,17,19,25.68,0.00,26
$GPRMC,145039.000,A,5132.4428,N,00000.6884,W,2.36,175.94,170815,,,A*78,51.5407142639,-0.0114732992,14:50:39,17/8/2015,10,9,26.66,0.00,44
$GPRMC,145040.000,A,5132.4425,N,00000.6889,W,2.05,226.74,170815,,,A*7D,51.5407066345,-0.0114815998,14:50:40,17/8/2015,14,11,25.68,0.00,26
$GPRMC,145041.000,A,5132.4422,N,00000.6897,W,2.17,241.37,170815,,,A*71,51.5407066345,-0.0114950001,14:50:40,17/8/2015,16,14,23.73,0.00,26
$GPRMC,145042.000,A,5132.4415,N,00000.6905,W,2.30,204.91,170815,,,A*74,51.5406913757,-0.0115083003,14:50:42,17/8/2015,14,8,22.27,0.00,32
$GPRMC,145043.000,A,5132.4406,N,00000.6917,W,3.10,206.27,170815,,,A*78,51.5406723022,-0.0115283000,14:50:43,17/8/2015,14,16,22.75,0.00,41
$GPRMC,145044.000,A,5132.4407,N,00000.6931,W,2.74,251.16,170815,,,A*79,51.5406837463,-0.0115516006,14:50:44,17/8/2015,13,11,27.15,0.00,26
$GPRMC,145045.000,A,5132.4402,N,00000.6941,W,3.28,241.14,170815,,,A*71,51.5406723022,-0.0115682995,14:50:44,17/8/2015,14,14,21.29,0.00,18
$GPRMC,145046.000,A,5132.4396,N,00000.6957,W,3.97,233.03,170815,,,A*78,51.5406570434,-0.0115950000,14:50:46,17/8/2015,13,19,24.71,0.00,16
$GPRMC,145047.000,A,5132.4394,N,00000.6970,W,2.79,241.77,170815,,,A*79,51.5406570434,-0.0116166007,14:50:47,17/8/2015,14,12,21.78,0.00,26
$GPRMC,145048.000,A,5132.4392,N,00000.6985,W,3.41,243.60,170815,,,A*74,51.5406494140,-0.0116416001,14:50:48,17/8/2015,13,11,22.27,0.00,41
$GPRMC,145049.000,A,5132.4392,N,00000.6997,W,2.75,245.07,170815,,,A*77,51.5406494140,-0.0116615998,14:50:48,17/8/2015,10,7,24.22,0.00,26
$GPRMC,145050.000,A,5132.4389,N,00000.7013,W,2.44,218.05,170815,,,A*79,51.5406494140,-0.0116883003,14:50:50,17/8/2015,13,12,27.15,0.00,26
$GPRMC,145051.000,A,5132.4388,N,00000.7026,W,2.01,233.67,170815,,,A*73,51.5406494140,-0.0117100000,14:50:51,17/8/2015,11,22,24.71,0.00,25
$GPRMC,145052.000,A,5132.4384,N,00000.7039,W,4.38,259.88,170815,,,A*73,51.5406417846,-0.0117316007,14:50:52,17/8/2015,14,11,22.27,0.00,17
$GPRMC,145053.000,A,5132.4383,N,00000.7055,W,3.46,258.14,170815,,,A*75,51.5406417846,-0.0117583012,14:50:52,17/8/2015,17,15,25.20,0.00,26
$GPRMC,145054.000,A,5132.4376,N,00000.7072,W,3.73,220.28,170815,,,A*7B,51.5406265258,-0.0117865991,14:50:54,17/8/2015,25,5,23.73,0.00,16
$GPRMC,145055.000,A,5132.4368,N,00000.7086,W,3.53,202.37,170815,,,A*72,51.5406150817,-0.0118100011,14:50:55,17/8/2015,18,21,25.68,0.00,23
$GPRMC,145056.000,A,5132.4360,N,00000.7097,W,3.43,209.45,170815,,,A*76,51.5405998229,-0.0118283009,14:50:56,17/8/2015,15,13,23.73,0.00,28
$GPRMC,145057.000,A,5132.4358,N,00000.7107,W,4.20,260.87,170815,,,A*77,51.5405998229,-0.0118450010,14:50:56,17/8/2015,9,16,27.15,0.00,22
$GPRMC,145058.000,A,5132.4355,N,00000.7121,W,3.38,252.67,170815,,,A*70,51.5405921936,-0.0118682992,14:50:58,17/8/2015,10,7,23.73,0.00,27
$GPRMC,145059.000,A,5132.4353,N,00000.7137,W,2.93,254.32,170815,,,A*76,51.5405845642,-0.0118949996,14:50:59,17/8/2015,21,15,24.22,0.00,17
$GPRMC,145100.000,A,5132.4347,N,00000.7150,W,3.06,245.62,170815,,,A*77,51.5405769348,-0.0119166004,14:51:0,17/8/2015,17,7,24.22,0.00,26
$GPRMC,145101.000,A,5132.4343,N,00000.7164,W,3.67,246.29,170815,,,A*7E,51.5405693054,-0.0119400012,14:51:0,17/8/2015,13,8,21.78,0.00,43
$GPRMC,145102.000,A,5132.4337,N,00000.7177,W,3.52,236.80,170815,,,A*7E,51.5405616760,-0.0119616007,14:51:2,17/8/2015,14,14,23.24,0.00,17
$GPRMC,145103.000,A,5132.4334,N,00000.7187,W,2.81,244.59,170815,,,A*7D,51.5405616760,-0.0119782996,14:51:3,17/8/2015,10,13,21.78,0.00,20
$GPRMC,145104.000,A,5132.4331,N,00000.7200,W,3.05,255.12,170815,,,A*71,51.5405502319,-0.0120000004,14:51:4,17/8/2015,20,14,22.75,0.00,23
$GPRMC,145105.000,A,5132.4331,N,00000.7210,W,3.40,272.03,170815,,,A*75,51.5405502319,-0.0120166003,14:51:4,17/8/2015,14,11,23.24,0.00,17
$GPRMC,145106.000,A,5132.4327,N,00000.7222,W,2.92,251.62,170815,,,A*78,51.5405426025,-0.0120366001,14:51:6,17/8/2015,14,12,25.68,0.00,26
$GPRMC,145107.000,A,5132.4322,N,00000.7236,W,2.81,223.14,170815,,,A*7F,51.5405349731,-0.0120600008,14:51:7,17/8/2015,13,10,23.73,0.00,22
$GPRMC,145108.000,A,5132.4313,N,00000.7246,W,3.14,207.96,170815,,,A*74,51.5405197143,-0.0120766007,14:51:8,17/8/2015,13,18,28.13,0.00,26
$GPRMC,145109.000,A,5132.4309,N,00000.7256,W,2.93,241.39,170815,,,A*76,51.5405120849,-0.0120933008,14:51:8,17/8/2015,14,7,24.71,0.00,27
$GPRMC,145110.000,A,5132.4301,N,00000.7269,W,3.09,202.42,170815,,,A*73,51.5405044555,-0.0121150004,14:51:10,17/8/2015,14,11,24.22,0.00,27
$GPRMC,145111.000,A,5132.4297,N,00000.7279,W,2.97,230.63,170815,,,A*79,51.5404930114,-0.0121316003,14:51:11,17/8/2015,13,7,24.71,0.00,27
$GPRMC,145112.000,A,5132.4292,N,00000.7290,W,3.29,242.44,170815,,,A*7C,51.5404853820,-0.0121500003,14:51:12,17/8/2015,21,15,23.24,0.00,20
$GPRMC,145113.000,A,5132.4287,N,00000.7304,W,3.20,225.31,170815,,,A*7F,51.5404777526,-0.0121732997,14:51:12,17/8/2015,14,15,22.75,0.00,24
$GPRMC,145114.000,A,5132.4282,N,00000.7314,W,2.75,230.13,170815,,,A*79,51.5404701232,-0.0121899998,14:51:14,17/8/2015,14,6,24.71,0.00,17
$GPRMC,145115.000,A,5132.4279,N,00000.7324,W,2.88,245.54,170815,,,A*7C,51.5404624938,-0.0122065997,14:51:15,17/8/2015,10,10,21.78,0.00,18
$GPRMC,145116.000,A,5132.4277,N,00000.7337,W,2.95,250.83,170815,,,A*71,51.5404624938,-0.0122282993,14:51:16,17/8/2015,10,11,23.73,0.00,17
$GPRMC,145117.000,A,5132.4269,N,00000.7353,W,3.19,221.26,170815,,,A*71,51.5404472351,-0.0122549998,14:51:16,17/8/2015,18,20,24.71,0.00,27
$GPRMC,145118.000,A,5132.4265,N,00000.7366,W,3.04,236.19,170815,,,A*72,51.5404396057,-0.0122766005,14:51:18,17/8/2015,17,14,20.80,0.00,27
$GPRMC,145119.000,A,5132.4261,N,00000.7376,W,3.60,254.05,170815,,,A*7D,51.5404396057,-0.0122933006,14:51:19,17/8/2015,14,12,22.27,0.00,28
$GPRMC,145120.000,A,5132.4258,N,00000.7392,W,3.10,244.93,170815,,,A*7E,51.5404281616,-0.0123200011,14:51:20,17/8/2015,14,20,24.22,0.00,26
$GPRMC,145121.000,A,5132.4252,N,00000.7404,W,2.43,212.44,170815,,,A*73,51.5404205322,-0.0123399996,14:51:20,17/8/2015,12,15,23.73,0.00,25
$GPRMC,145122.000,A,5132.4247,N,00000.7413,W,2.57,220.97,170815,,,A*78,51.5404129028,-0.0123550009,14:51:22,17/8/2015,14,14,23.73,0.00,24
$GPRMC,145123.000,A,5132.4239,N,00000.7424,W,3.32,212.34,170815,,,A*7E,51.5403976440,-0.0123732995,14:51:23,17/8/2015,8,10,23.73,0.00,20
$GPRMC,145124.000,A,5132.4234,N,00000.7435,W,3.17,229.62,170815,,,A*78,51.5403900146,-0.0123916006,14:51:24,17/8/2015,15,19,20.80,0.00,27
$GPRMC,145125.000,A,5132.4229,N,00000.7447,W,3.21,236.84,170815,,,A*73,51.5403823852,-0.0124116003,14:51:24,17/8/2015,14,16,23.73,0.00,16
$GPRMC,145126.000,A,5132.4226,N,00000.7458,W,3.56,253.78,170815,,,A*71,51.5403709411,-0.0124300003,14:51:26,17/8/2015,15,19,23.24,0.00,26
$GPRMC,145127.000,A,5132.4222,N,00000.7473,W,3.48,245.98,170815,,,A*7B,51.5403709411,-0.0124550008,14:51:27,17/8/2015,13,23,20.80,0.00,38
$GPRMC,145128.000,A,5132.4216,N,00000.7491,W,3.42,222.71,170815,,,A*73,51.5403556823,-0.0124850010,14:51:28,17/8/2015,14,19,24.22,0.00,24
$GPRMC,145129.000,A,5132.4213,N,00000.7501,W,2.56,240.12,170815,,,A*7A,51.5403556823,-0.0125015997,14:51:28,17/8/2015,14,8,23.73,0.00,26
$GPRMC,145130.000,A,5132.4207,N,00000.7514,W,3.61,247.45,170815,,,A*73,51.5403480529,-0.0125232994,14:51:30,17/8/2015,14,7,24.22,0.00,20
$GPRMC,145131.000,A,5132.4206,N,00000.7525,W,3.16,257.91,170815,,,A*79,51.5403404235,-0.0125416016,14:51:31,17/8/2015,19,8,23.24,0.00,26
$GPRMC,145132.000,A,5132.4204,N,00000.7535,W,3.02,254.99,170815,,,A*77,51.5403404235,-0.0125582993,14:51:32,17/8/2015,17,16,24.22,0.00,26
$GPRMC,145133.000,A,5132.4200,N,00000.7547,W,2.75,239.43,170815,,,A*7A,51.5403327941,-0.0125782990,14:51:32,17/8/2015,12,23,22.27,0.00,42
$GPRMC,145134.000,A,5132.4193,N,00000.7558,W,2.85,223.36,170815,,,A*7C,51.5403251647,-0.0125966012,14:51:34,17/8/2015,14,9,24.71,0.00,17
$GPRMC,145135.000,A,5132.4185,N,00000.7567,W,3.12,224.70,170815,,,A*7C,51.5403060913,-0.0126116013,14:51:35,17/8/2015,19,14,22.27,0.00,27
$GPRMC,145136.000,A,5132.4179,N,00000.7579,W,3.55,237.58,170815,,,A*78,51.5402984619,-0.0126315999,14:51:36,17/8/2015,14,17,27.15,0.00,26
$GPRMC,145137.000,A,5132.4171,N,00000.7593,W,3.59,231.17,170815,,,A*74,51.5402832031,-0.0126550018,14:51:36,17/8/2015,14,24,20.80,0.00,25
$GPRMC,145138.000,A,5132.4165,N,00000.7607,W,3.30,222.31,170815,,,A*79,51.5402755737,-0.0126783001,14:51:38,17/8/2015,14,12,23.73,0.00,26
$GPRMC,145139.000,A,5132.4156,N,00000.7616,W,3.33,211.98,170815,,,A*78,51.5402603149,-0.0126933002,14:51:39,17/8/2015,22,10,23.73,0.00,18
$GPRMC,145140.000,A,5132.4148,N,00000.7625,W,3.26,216.04,170815,,,A*7F,51.5402488708,-0.0127083003,14:51:40,17/8/2015,14,22,22.27,0.00,39
$GPRMC,145141.000,A,5132.4140,N,00000.7634,W,3.25,212.32,170815,,,A*74,51.5402336120,-0.0127233004,14:51:40,17/8/2015,15,12,23.24,0.00,18
$GPRMC,145142.000,A,5132.4130,N,00000.7644,W,3.62,218.84,170815,,,A*73,51.5402183532,-0.0127399992,14:51:42,17/8/2015,12,17,23.24,0.00,17
$GPRMC,145143.000,A,5132.4123,N,00000.7656,W,3.38,229.56,170815,,,A*71,51.5402030944,-0.0127600002,14:51:43,17/8/2015,14,13,22.27,0.00,43
$GPRMC,145144.000,A,5132.4114,N,00000.7669,W,3.48,229.17,170815,,,A*7C,51.5401954650,-0.0127816009,14:51:44,17/8/2015,15,24,22.75,0.00,27
$GPRMC,145145.000,A,5132.4107,N,00000.7682,W,3.41,236.36,170815,,,A*7E,51.5401763916,-0.0128032994,14:51:44,17/8/2015,21,16,23.24,0.00,18
$GPRMC,145146.000,A,5132.4100,N,00000.7695,W,3.31,222.00,170815,,,A*7B,51.5401687622,-0.0128250002,14:51:46,17/8/2015,10,13,23.73,0.00,17
$GPRMC,145147.000,A,5132.4093,N,00000.7706,W,3.26,235.04,170815,,,A*7E,51.5401535034,-0.0128433000,14:51:47,17/8/2015,15,25,24.22,0.00,20
$GPRMC,145148.000,A,5132.4088,N,00000.7718,W,3.51,239.00,170815,,,A*7C,51.5401458740,-0.0128632998,14:51:48,17/8/2015,14,13,21.29,0.00,27
$GPRMC,145149.000,A,5132.4081,N,00000.7730,W,3.36,225.39,170815,,,A*78,51.5401382446,-0.0128833007,14:51:48,17/8/2015,14,14,25.68,0.00,26
$GPRMC,145150.000,A,5132.4073,N,00000.7742,W,3.58,224.68,170815,,,A*75,51.5401191711,-0.0129033017,14:51:50,17/8/2015,23,14,23.73,0.00,26
$GPRMC,145151.000,A,5132.4066,N,00000.7755,W,3.63,232.08,170815,,,A*7F,51.5401115417,-0.0129250001,14:51:51,17/8/2015,14,13,23.24,0.00,26
$GPRMC,145152.000,A,5132.4059,N,00000.7768,W,3.57,225.96,170815,,,A*78,51.5400962829,-0.0129466009,14:51:52,17/8/2015,11,14,26.66,0.00,26
$GPRMC,145153.000,A,5132.4056,N,00000.7776,W,2.92,244.64,170815,,,A*7B,51.5400962829,-0.0129600000,14:51:52,17/8/2015,14,9,21.78,0.00,21
$GPRMC,145154.000,A,5132.4051,N,00000.7790,W,3.24,251.34,170815,,,A*7E,51.5400886535,-0.0129833006,14:51:54,17/8/2015,10,11,23.73,0.00,21
$GPRMC,145155.000,A,5132.4048,N,00000.7804,W,2.79,244.39,170815,,,A*75,51.5400810241,-0.0130066013,14:51:55,17/8/2015,13,6,23.73,0.00,25
$GPRMC,145156.000,A,5132.4046,N,00000.7821,W,2.35,237.58,170815,,,A*74,51.5400810241,-0.0130350005,14:51:56,17/8/2015,16,14,23.73,0.00,19
$GPRMC,145157.000,A,5132.4046,N,00000.7832,W,2.51,262.19,170815,,,A*70,51.5400810241,-0.0130532991,14:51:56,17/8/2015,17,10,23.73,0.00,19
$GPRMC,145158.000,A,5132.4048,N,00000.7847,W,3.37,276.28,170815,,,A*75,51.5400810241,-0.0130783009,14:51:58,17/8/2015,32,10,23.24,0.00,17
$GPRMC,145159.000,A,5132.4045,N,00000.7856,W,2.22,225.40,170815,,,A*74,51.5400733947,-0.0130933022,14:51:59,17/8/2015,17,20,25.68,0.00,22
$GPRMC,145200.000,A,5132.4047,N,00000.7865,W,2.22,260.27,170815,,,A*79,51.5400810241,-0.0131082999,14:52:0,17/8/2015,21,15,23.73,0.00,17
$GPRMC,145201.000,A,5132.4056,N,00000.7876,W,1.24,272.71,170815,,,A*7F,51.5400962829,-0.0131265997,14:52:0,17/8/2015,27,15,23.24,0.00,16
$GPRMC,145202.000,A,5132.4059,N,00000.7884,W,2.27,287.94,170815,,,A*7F,51.5400962829,-0.0131400012,14:52:2,17/8/2015,23,10,21.78,0.00,25
$GPRMC,145203.000,A,5132.4065,N,00000.7893,W,3.48,309.87,170815,,,A*7A,51.5401115417,-0.0131550002,14:52:3,17/8/2015,20,10,27.15,0.00,24
$GPRMC,145204.000,A,5132.4069,N,00000.7903,W,3.49,310.93,170815,,,A*75,51.5401115417,-0.0131716001,14:52:4,17/8/2015,14,13,20.80,0.00,25
$GPRMC,145205.000,A,5132.4071,N,00000.7909,W,0.31,337.91,170815,,,A*7C,51.5401191711,-0.0131816005,14:52:4,17/8/2015,18,18,23.73,0.00,17
$GPRMC,145206.000,A,5132.4080,N,00000.7916,W,2.44,320.58,170815,,,A*7C,51.5401382446,-0.0131932997,14:52:6,17/8/2015,18,8,23.24,0.00,16
$GPRMC,145207.000,A,5132.4083,N,00000.7924,W,3.17,288.95,170815,,,A*7A,51.5401382446,-0.0132065999,14:52:7,17/8/2015,15,12,24.22,0.00,28
$GPRMC,145208.000,A,5132.4084,N,00000.7938,W,2.70,286.29,170815,,,A*76,51.5401382446,-0.0132300007,14:52:8,17/8/2015,15,21,21.29,0.00,26
$GPRMC,145209.000,A,5132.4086,N,00000.7949,W,1.16,259.21,170815,,,A*7A,51.5401458740,-0.0132483005,14:52:8,17/8/2015,12,14,21.29,0.00,26
$GPRMC,145210.000,A,5132.4092,N,00000.7956,W,1.40,294.68,170815,,,A*76,51.5401535034,-0.0132600009,14:52:10,17/8/2015,23,12,23.73,0.00,17
$GPRMC,145211.000,A,5132.4098,N,00000.7967,W,2.54,299.15,170815,,,A*7E,51.5401611328,-0.0132783007,14:52:11,17/8/2015,10,17,23.73,0.00,19
$GPRMC,145212.000,A,5132.4103,N,00000.7979,W,2.85,322.29,170815,,,A*73,51.5401687622,-0.0132983016,14:52:12,17/8/2015,11,13,26.66,0.00,27
$GPRMC,145213.000,A,5132.4112,N,00000.7988,W,4.76,323.58,170815,,,A*71,51.5401840209,-0.0133132994,14:52:12,17/8/2015,9,14,22.27,0.00,29
$GPRMC,145214.000,A,5132.4120,N,00000.7999,W,3.57,323.75,170815,,,A*7C,51.5402030944,-0.0133316016,14:52:14,17/8/2015,16,13,23.73,0.00,21
$GPRMC,145215.000,A,5132.4130,N,00000.8008,W,4.19,323.06,170815,,,A*7B,51.5402183532,-0.0133466005,14:52:15,17/8/2015,14,17,23.24,0.00,42
$GPRMC,145216.000,A,5132.4140,N,00000.8015,W,4.18,329.26,170815,,,A*7A,51.5402336120,-0.0133583009,14:52:16,17/8/2015,20,15,27.15,0.00,25
$GPRMC,145217.000,A,5132.4149,N,00000.8023,W,3.46,332.85,170815,,,A*78,51.5402488708,-0.0133715999,14:52:16,17/8/2015,26,9,23.73,0.00,16
$GPRMC,145218.000,A,5132.4158,N,00000.8029,W,3.02,342.00,170815,,,A*77,51.5402679443,-0.0133816003,14:52:18,17/8/2015,16,17,23.24,0.00,26
$GPRMC,145219.000,A,5132.4160,N,00000.8029,W,0.87,76.67,170815,,,A*46,51.5402679443,-0.0133816003,14:52:19,17/8/2015,13,17,23.24,0.00,19
$GPRMC,145220.000,A,5132.4170,N,00000.8031,W,2.11,353.12,170815,,,A*7F,51.5402832031,-0.0133850002,14:52:20,17/8/2015,18,9,23.24,0.00,42
$GPRMC,145221.000,A,5132.4180,N,00000.8037,W,2.34,334.94,170815,,,A*7F,51.5402984619,-0.0133949995,14:52:20,17/8/2015,18,11,23.24,0.00,43
$GPRMC,145222.000,A,5132.4182,N,00000.8050,W,2.38,314.60,170815,,,A*7A,51.5402984619,-0.0134166002,14:52:22,17/8/2015,19,15,23.24,0.00,24
$GPRMC,145223.000,A,5132.4192,N,00000.8060,W,3.79,321.12,170815,,,A*7E,51.5403251647,-0.0134333014,14:52:23,17/8/2015,16,12,22.75,0.00,25
$GPRMC,145224.000,A,5132.4202,N,00000.8071,W,3.88,319.91,170815,,,A*7D,51.5403404235,-0.0134516000,14:52:24,17/8/2015,18,15,21.29,0.00,20
$GPRMC,145225.000,A,5132.4211,N,00000.8083,W,2.82,325.16,170815,,,A*78,51.5403480529,-0.0134716010,14:52:24,17/8/2015,19,25,25.20,0.00,26
$GPRMC,145226.000,A,5132.4218,N,00000.8094,W,2.27,319.10,170815,,,A*72,51.5403633117,-0.0134899997,14:52:26,17/8/2015,24,14,23.73,0.00,20
$GPRMC,145227.000,A,5132.4220,N,00000.8103,W,1.30,322.59,170815,,,A*77,51.5403633117,-0.0135049998,14:52:27,17/8/2015,15,19,22.75,0.00,16
$GPRMC,145228.000,A,5132.4229,N,00000.8109,W,2.81,325.05,170815,,,A*7C,51.5403823852,-0.0135150003,14:52:28,17/8/2015,19,14,24.71,0.00,19
$GPRMC,145229.000,A,5132.4232,N,00000.8119,W,3.19,303.72,170815,,,A*72,51.5403900146,-0.0135316002,14:52:28,17/8/2015,19,7,23.24,0.00,17
$GPRMC,145230.000,A,5132.4238,N,00000.8132,W,3.29,313.98,170815,,,A*7F,51.5403976440,-0.0135532999,14:52:30,17/8/2015,20,21,23.24,0.00,16
$GPRMC,145231.000,A,5132.4243,N,00000.8141,W,2.50,318.43,170815,,,A*74,51.5404052734,-0.0135683000,14:52:31,17/8/2015,25,16,23.73,0.00,26
$GPRMC,145232.000,A,5132.4247,N,00000.8146,W,1.73,325.45,170815,,,A*7E,51.5404129028,-0.0135766005,14:52:32,17/8/2015,23,18,23.73,0.00,20
$GPRMC,145233.000,A,5132.4250,N,00000.8152,W,1.57,300.28,170815,,,A*76,51.5404129028,-0.0135865998,14:52:32,17/8/2015,21,15,24.22,0.00,25
$GPRMC,145234.000,A,5132.4258,N,00000.8158,W,1.70,321.32,170815,,,A*7E,51.5404281616,-0.0135966002,14:52:34,17/8/2015,11,13,21.29,0.00,25
$GPRMC,145235.000,A,5132.4266,N,00000.8163,W,2.06,339.23,170815,,,A*71,51.5404472351,-0.0136049997,14:52:35,17/8/2015,13,11,25.68,0.00,26
$GPRMC,145236.000,A,5132.4274,N,00000.8170,W,2.33,330.88,170815,,,A*7D,51.5404548645,-0.0136166000,14:52:36,17/8/2015,14,5,23.24,0.00,17
$GPRMC,145237.000,A,5132.4277,N,00000.8184,W,2.05,301.23,170815,,,A*72,51.5404624938,-0.0136399996,14:52:36,17/8/2015,11,15,20.31,0.00,26
$GPRMC,145238.000,A,5132.4282,N,00000.8193,W,1.77,301.31,170815,,,A*74,51.5404701232,-0.0136550009,14:52:38,17/8/2015,18,18,22.75,0.00,21
$GPRMC,145239.000,A,5132.4288,N,00000.8203,W,2.61,307.04,170815,,,A*71,51.5404777526,-0.0136716008,14:52:39,17/8/2015,17,12,25.68,0.00,25
$GPRMC,145240.000,A,5132.4294,N,00000.8214,W,2.91,323.78,170815,,,A*76,51.5404853820,-0.0136900007,14:52:40,17/8/2015,18,63,23.73,0.00,18
$GPRMC,145241.000,A,5132.4303,N,00000.8224,W,3.04,329.33,170815,,,A*73,51.5405044555,-0.0137066006,14:52:40,17/8/2015,19,18,23.73,0.00,19
$GPRMC,145242.000,A,5132.4305,N,00000.8230,W,2.04,318.64,170815,,,A*72,51.5405120849,-0.0137165999,14:52:42,17/8/2015,16,14,22.75,0.00,16
$GPRMC,145243.000,A,5132.4312,N,00000.8238,W,2.71,314.00,170815,,,A*71,51.5405197143,-0.0137300014,14:52:43,17/8/2015,25,13,19.82,0.00,27
$GPRMC,145244.000,A,5132.4319,N,00000.8248,W,2.81,316.57,170815,,,A*75,51.5405349731,-0.0137466013,14:52:44,17/8/2015,11,20,23.24,0.00,17
$GPRMC,145245.000,A,5132.4324,N,00000.8258,W,2.86,311.79,170815,,,A*77,51.5405426025,-0.0137632989,14:52:44,17/8/2015,28,14,26.17,0.00,26
$GPRMC,145246.000,A,5132.4332,N,00000.8272,W,3.34,321.92,170815,,,A*75,51.5405502319,-0.0137866008,14:52:46,17/8/2015,17,14,22.75,0.00,17
$GPRMC,145247.000,A,5132.4337,N,00000.8279,W,2.49,331.32,170815,,,A*7A,51.5405616760,-0.0137982988,14:52:47,17/8/2015,19,13,20.80,0.00,26
$GPRMC,145248.000,A,5132.4345,N,00000.8285,W,3.22,330.01,170815,,,A*7E,51.5405769348,-0.0138082992,14:52:48,17/8/2015,18,16,22.27,0.00,41
$GPRMC,145249.000,A,5132.4353,N,00000.8293,W,3.08,330.82,170815,,,A*7C,51.5405845642,-0.0138216007,14:52:48,17/8/2015,15,14,20.80,0.00,26
$GPRMC,145250.000,A,5132.4358,N,00000.8301,W,2.92,326.28,170815,,,A*70,51.5405998229,-0.0138349998,14:52:50,17/8/2015,16,14,22.27,0.00,20
$GPRMC,145251.000,A,5132.4367,N,00000.8308,W,3.45,327.33,170815,,,A*74,51.5406074523,-0.0138466000,14:52:51,17/8/2015,26,19,24.71,0.00,22
$GPRMC,145252.000,A,5132.4379,N,00000.8319,W,3.44,331.55,170815,,,A*7E,51.5406341552,-0.0138649999,14:52:52,17/8/2015,18,18,22.27,0.00,39
$GPRMC,145253.000,A,5132.4386,N,00000.8330,W,2.84,322.58,170815,,,A*76,51.5406417846,-0.0138833022,14:52:52,17/8/2015,21,16,23.24,0.00,18
$GPRMC,145254.000,A,5132.4387,N,00000.8338,W,2.39,300.58,170815,,,A*7E,51.5406417846,-0.0138966012,14:52:54,17/8/2015,17,15,22.75,0.00,22
$GPRMC,145255.000,A,5132.4394,N,00000.8347,W,2.73,313.91,170815,,,A*7C,51.5406570434,-0.0139116024,14:52:55,17/8/2015,11,5,27.15,0.00,25
$GPRMC,145256.000,A,5132.4402,N,00000.8358,W,2.91,316.92,170815,,,A*73,51.5406723022,-0.0139300012,14:52:56,17/8/2015,13,22,22.75,0.00,24
$GPRMC,145257.000,A,5132.4406,N,00000.8368,W,2.23,305.88,170815,,,A*75,51.5406723022,-0.0139466023,14:52:56,17/8/2015,27,18,26.66,0.00,21
$GPRMC,145258.000,A,5132.4407,N,00000.8373,W,1.27,306.13,170815,,,A*77,51.5406837463,-0.0139549994,14:52:58,17/8/2015,18,7,22.27,0.00,25
$GPRMC,145259.000,A,5132.4411,N,00000.8380,W,0.62,306.82,170815,,,A*75,51.5406837463,-0.0139666008,14:52:59,17/8/2015,11,18,21.29,0.00,26
$GPRMC,145300.000,A,5132.4420,N,00000.8391,W,2.81,309.55,170815,,,A*70,51.5406990051,-0.0139849996,14:53:0,17/8/2015,18,7,21.29,0.00,26
$GPRMC,145301.000,A,5132.4417,N,00000.8405,W,2.36,296.52,170815,,,A*73,51.5406990051,-0.0140083003,14:53:0,17/8/2015,19,16,20.80,0.00,20
$GPRMC,145302.000,A,5132.4422,N,00000.8414,W,1.88,304.75,170815,,,A*7F,51.5407066345,-0.0140233016,14:53:2,17/8/2015,17,18,22.27,0.00,23
$GPRMC,145303.000,A,5132.4423,N,00000.8421,W,1.36,290.87,170815,,,A*7D,51.5407066345,-0.0140349998,14:53:3,17/8/2015,21,13,21.78,0.00,20
$GPRMC,145304.000,A,5132.4430,N,00000.8433,W,2.92,301.84,170815,,,A*7C,51.5407142639,-0.0140550003,14:53:4,17/8/2015,18,15,21.29,0.00,25
$GPRMC,145305.000,A,5132.4436,N,00000.8449,W,3.69,315.34,170815,,,A*7D,51.5407218933,-0.0140815997,14:53:4,17/8/2015,18,18,22.75,0.00,24
$GPRMC,145306.000,A,5132.4441,N,00000.8463,W,3.49,315.20,170815,,,A*71,51.5407371520,-0.0141050004,14:53:6,17/8/2015,21,18,20.31,0.00,25
$GPRMC,145307.000,A,5132.4445,N,00000.8476,W,3.32,303.30,170815,,,A*7A,51.5407371520,-0.0141266002,14:53:7,17/8/2015,17,19,22.75,0.00,21
$GPRMC,145308.000,A,5132.4451,N,00000.8488,W,3.97,307.47,170815,,,A*7A,51.5407562255,-0.0141465997,14:53:8,17/8/2015,16,15,25.20,0.00,26
$GPRMC,145309.000,A,5132.4458,N,00000.8499,W,2.82,311.73,170815,,,A*77,51.5407638549,-0.0141650009,14:53:8,17/8/2015,11,10,20.80,0.00,16
$GPRMC,145310.000,A,5132.4466,N,00000.8511,W,2.13,307.43,170815,,,A*7F,51.5407791137,-0.0141849994,14:53:10,17/8/2015,16,13,20.80,0.00,24
$GPRMC,145311.000,A,5132.4471,N,00000.8521,W,1.98,292.90,170815,,,A*78,51.5407867431,-0.0142015991,14:53:11,17/8/2015,16,17,22.75,0.00,19
$GPRMC,145312.000,A,5132.4477,N,00000.8531,W,2.18,317.40,170815,,,A*76,51.5407943725,-0.0142183008,14:53:12,17/8/2015,16,16,22.75,0.00,17
$GPRMC,145313.000,A,5132.4494,N,00000.8538,W,4.09,331.60,170815,,,A*73,51.5408210754,-0.0142300009,14:53:12,17/8/2015,19,9,22.27,0.00,21
$GPRMC,145314.000,A,5132.4502,N,00000.8548,W,4.09,323.13,170815,,,A*7A,51.5408363342,-0.0142466011,14:53:14,17/8/2015,17,16,20.80,0.00,26
$GPRMC,145315.000,A,5132.4511,N,00000.8561,W,4.06,315.25,170815,,,A*7D,51.5408515930,-0.0142683005,14:53:15,17/8/2015,19,12,20.80,0.00,25
$GPRMC,145316.000,A,5132.4521,N,00000.8572,W,3.29,318.74,170815,,,A*7C,51.5408706665,-0.0142866015,14:53:16,17/8/2015,19,12,20.80,0.00,26
$GPRMC,145317.000,A,5132.4524,N,00000.8581,W,1.63,295.68,170815,,,A*71,51.5408782958,-0.0143015995,14:53:16,17/8/2015,17,10,23.24,0.00,17
$GPRMC,145318.000,A,5132.4527,N,00000.8590,W,1.89,294.23,170815,,,A*77,51.5408782958,-0.0143166007,14:53:18,17/8/2015,15,7,22.27,0.00,26
$GPRMC,145319.000,A,5132.4530,N,00000.8600,W,1.92,282.97,170815,,,A*78,51.5408859252,-0.0143333015,14:53:19,17/8/2015,18,8,23.24,0.00,23
$GPRMC,145320.000,A,5132.4534,N,00000.8610,W,2.42,315.51,170815,,,A*7C,51.5408935546,-0.0143499994,14:53:20,17/8/2015,11,11,19.82,0.00,26
$GPRMC,145321.000,A,5132.4541,N,00000.8620,W,3.69,322.08,170815,,,A*7C,51.5409011840,-0.0143666005,14:53:20,17/8/2015,15,13,23.24,0.00,22
$GPRMC,145322.000,A,5132.4551,N,00000.8631,W,2.98,310.71,170815,,,A*7E,51.5409164428,-0.0143850016,14:53:22,17/8/2015,19,0,21.29,0.00,25
$GPRMC,145323.000,A,5132.4558,N,00000.8640,W,1.85,298.11,170815,,,A*78,51.5409278869,-0.0144000005,14:53:23,17/8/2015,19,15,22.27,0.00,26
$GPRMC,145324.000,A,5132.4563,N,00000.8652,W,2.11,286.83,170815,,,A*7E,51.5409355163,-0.0144200015,14:53:24,17/8/2015,12,9,20.31,0.00,25
$GPRMC,145325.000,A,5132.4574,N,00000.8659,W,3.10,314.92,170815,,,A*78,51.5409584045,-0.0144316005,14:53:24,17/8/2015,15,13,22.27,0.00,20
$GPRMC,145326.000,A,5132.4587,N,00000.8667,W,4.55,334.37,170815,,,A*71,51.5409736633,-0.0144450006,14:53:26,17/8/2015,15,14,22.27,0.00,21
$GPRMC,145327.000,A,5132.4599,N,00000.8681,W,3.36,320.02,170815,,,A*76,51.5410003662,-0.0144683003,14:53:27,17/8/2015,14,14,21.29,0.00,26
$GPRMC,145328.000,A,5132.4605,N,00000.8693,W,2.71,306.81,170815,,,A*71,51.5410079956,-0.0144883012,14:53:28,17/8/2015,14,5,22.27,0.00,25
$GPRMC,145329.000,A,5132.4613,N,00000.8703,W,3.55,319.08,170815,,,A*77,51.5410232543,-0.0145050001,14:53:28,17/8/2015,15,1,22.27,0.00,25
$GPRMC,145330.000,A,5132.4623,N,00000.8712,W,3.69,333.00,170815,,,A*73,51.5410385131,-0.0145200014,14:53:30,17/8/2015,12,1,22.27,0.00,25
$GPRMC,145331.000,A,5132.4630,N,00000.8723,W,4.41,326.01,170815,,,A*7A,51.5410499572,-0.0145383000,14:53:31,17/8/2015,13,5,22.27,0.00,20
$GPRMC,145332.000,A,5132.4635,N,00000.8738,W,3.32,304.62,170815,,,A*70,51.5410575866,-0.0145633006,14:53:32,17/8/2015,16,1,21.78,0.00,25
$GPRMC,145333.000,A,5132.4638,N,00000.8751,W,2.81,289.83,170815,,,A*71,51.5410652160,-0.0145850000,14:53:32,17/8/2015,14,2,22.27,0.00,25
$GPRMC,145334.000,A,5132.4641,N,00000.8765,W,3.10,301.33,170815,,,A*7C,51.5410652160,-0.0146082997,14:53:34,17/8/2015,17,24,23.73,0.00,25
$GPRMC,145335.000,A,5132.4644,N,00000.8778,W,3.40,280.21,170815,,,A*7A,51.5410728454,-0.0146300020,14:53:35,17/8/2015,19,0,21.78,0.00,23
$GPRMC,145336.000,A,5132.4649,N,00000.8793,W,3.57,292.89,170815,,,A*76,51.5410804748,-0.0146549997,14:53:36,17/8/2015,19,2,22.27,0.00,24
$GPRMC,145337.000,A,5132.4652,N,00000.8807,W,3.48,292.82,170815,,,A*7A,51.5410881042,-0.0146783008,14:53:36,17/8/2015,18,2,22.27,0.00,24
$GPRMC,145338.000,A,5132.4655,N,00000.8818,W,3.06,298.35,170815,,,A*70,51.5410881042,-0.0146965990,14:53:38,17/8/2015,18,0,20.80,0.00,25
$GPRMC,145339.000,A,5132.4662,N,00000.8828,W,3.19,306.22,170815,,,A*78,51.5411033630,-0.0147133007,14:53:39,17/8/2015,20,2,23.24,0.00,27
$GPRMC,145340.000,A,5132.4667,N,00000.8840,W,3.11,295.84,170815,,,A*72,51.5411148071,-0.0147333011,14:53:40,17/8/2015,21,0,21.78,0.00,25
$GPRMC,145341.000,A,5132.4670,N,00000.8849,W,2.43,281.56,170815,,,A*70,51.5411148071,-0.0147483005,14:53:40,17/8/2015,20,11,22.27,0.00,20
$GPRMC,145342.000,A,5132.4674,N,00000.8858,W,1.90,286.73,170815,,,A*7A,51.5411224365,-0.0147633004,14:53:42,17/8/2015,18,1,21.78,0.00,24
$GPRMC,145343.000,A,5132.4682,N,00000.8866,W,3.14,313.43,170815,,,A*7F,51.5411376953,-0.0147766008,14:53:43,17/8/2015,18,5,23.24,0.00,29
$GPRMC,145344.000,A,5132.4689,N,00000.8875,W,2.19,312.39,170815,,,A*71,51.5411453247,-0.0147916021,14:53:44,17/8/2015,19,0,21.29,0.00,25
$GPRMC,145345.000,A,5132.4693,N,00000.8886,W,2.88,306.68,170815,,,A*7E,51.5411529541,-0.0148100004,14:53:44,17/8/2015,17,0,22.27,0.00,25
$GPRMC,145346.000,A,5132.4700,N,00000.8898,W,4.15,320.96,170815,,,A*7E,51.5411720275,-0.0148299989,14:53:46,17/8/2015,20,0,22.75,0.00,25
$GPRMC,145347.000,A,5132.4708,N,00000.8906,W,2.94,327.61,170815,,,A*71,51.5411796569,-0.0148433017,14:53:47,17/8/2015,17,0,22.75,0.00,25
$GPRMC,145348.000,A,5132.4718,N,00000.8913,W,3.43,329.06,170815,,,A*7F,51.5411949157,-0.0148550009,14:53:48,17/8/2015,19,1,22.75,0.00,24
$GPRMC,145349.000,A,5132.4726,N,00000.8921,W,3.44,331.26,170815,,,A*7E,51.5412101745,-0.0148683013,14:53:48,17/8/2015,20,0,21.78,0.00,23
$GPRMC,145350.000,A,5132.4732,N,00000.8932,W,3.63,324.45,170815,,,A*75,51.5412178039,-0.0148866009,14:53:50,17/8/2015,22,6,22.27,0.00,24
$GPRMC,145351.000,A,5132.4732,N,00000.8944,W,2.54,307.98,170815,,,A*71,51.5412178039,-0.0149065995,14:53:51,17/8/2015,20,6,21.29,0.00,25
$GPRMC,145352.000,A,5132.4737,N,00000.8953,W,2.35,301.31,170815,,,A*73,51.5412254333,-0.0149216008,14:53:52,17/8/2015,18,7,22.27,0.00,25
$GPRMC,145353.000,A,5132.4737,N,00000.8966,W,2.08,277.12,170815,,,A*7B,51.5412254333,-0.0149433002,14:53:52,17/8/2015,18,4,23.73,0.00,25
$GPRMC,145354.000,A,5132.4741,N,00000.8975,W,2.02,304.17,170815,,,A*75,51.5412368774,-0.0149583005,14:53:54,17/8/2015,19,2,22.27,0.00,25
$GPRMC,145355.000,A,5132.4740,N,00000.8990,W,2.70,288.71,170815,,,A*7E,51.5412368774,-0.0149832987,14:53:55,17/8/2015,19,8,22.27,0.00,21
$GPRMC,145356.000,A,5132.4743,N,00000.9000,W,2.14,276.63,170815,,,A*7F,51.5412368774,-0.0150000000,14:53:56,17/8/2015,19,4,20.80,0.00,25
$GPRMC,145357.000,A,5132.4748,N,00000.9011,W,2.45,293.83,170815,,,A*74,51.5412445068,-0.0150183010,14:53:56,17/8/2015,18,4,21.29,0.00,25
$GPRMC,145358.000,A,5132.4757,N,00000.9023,W,3.05,313.89,170815,,,A*72,51.5412597656,-0.0150382995,14:53:58,17/8/2015,18,5,21.78,0.00,25
$GPRMC,145359.000,A,5132.4765,N,00000.9034,W,4.14,323.23,170815,,,A*70,51.5412750244,-0.0150565996,14:53:59,17/8/2015,19,3,23.73,0.00,25
$GPRMC,145400.000,A,5132.4767,N,00000.9048,W,3.56,293.13,170815,,,A*7A,51.5412750244,-0.0150800013,14:54:0,17/8/2015,20,9,20.31,0.00,27
$GPRMC,145401.000,A,5132.4774,N,00000.9058,W,2.51,299.75,170815,,,A*74,51.5412940979,-0.0150966024,14:54:0,17/8/2015,17,2,21.29,0.00,25
$GPRMC,145402.000,A,5132.4784,N,00000.9064,W,2.19,319.59,170815,,,A*7C,51.5413093566,-0.0151066007,14:54:2,17/8/2015,18,15,22.75,0.00,25
$GPRMC,145403.000,A,5132.4787,N,00000.9074,W,2.37,264.21,170815,,,A*77,51.5413093566,-0.0151233015,14:54:3,17/8/2015,19,6,22.75,0.00,20
$GPRMC,145404.000,A,5132.4791,N,00000.9084,W,2.34,283.81,170815,,,A*78,51.5413169860,-0.0151399993,14:54:4,17/8/2015,19,1,21.29,0.00,25
$GPRMC,145405.000,A,5132.4801,N,00000.9095,W,3.05,306.98,170815,,,A*78,51.5413322448,-0.0151583003,14:54:4,17/8/2015,18,2,22.27,0.00,25
$GPRMC,145406.000,A,5132.4813,N,00000.9106,W,3.80,315.33,170815,,,A*7D,51.5413589477,-0.0151766004,14:54:6,17/8/2015,15,3,21.29,0.00,25
$GPRMC,145407.000,A,5132.4823,N,00000.9119,W,4.26,310.78,170815,,,A*70,51.5413742065,-0.0151983013,14:54:7,17/8/2015,17,2,21.78,0.00,28
$GPRMC,145408.000,A,5132.4831,N,00000.9131,W,3.85,306.31,170815,,,A*72,51.5413818359,-0.0152183008,14:54:8,17/8/2015,17,12,22.27,0.00,25
$GPRMC,145409.000,A,5132.4840,N,00000.9142,W,3.21,303.54,170815,,,A*79,51.5413970947,-0.0152365994,14:54:8,17/8/2015,19,2,22.27,0.00,23
$GPRMC,145410.000,A,5132.4848,N,00000.9151,W,2.93,303.00,170815,,,A*72,51.5414161682,-0.0152516007,14:54:10,17/8/2015,18,1,21.78,0.00,24
$GPRMC,145411.000,A,5132.4858,N,00000.9162,W,3.89,305.64,170815,,,A*7C,51.5414314270,-0.0152700004,14:54:11,17/8/2015,18,0,22.27,0.00,25
$GPRMC,145412.000,A,5132.4864,N,00000.9174,W,2.96,301.97,170815,,,A*70,51.5414390563,-0.0152900004,14:54:12,17/8/2015,18,0,20.80,0.00,24
$GPRMC,145413.000,A,5132.4867,N,00000.9187,W,2.18,280.32,170815,,,A*7F,51.5414466857,-0.0153115997,14:54:12,17/8/2015,20,1,20.31,0.00,20
$GPRMC,145414.000,A,5132.4871,N,00000.9200,W,3.28,284.52,170815,,,A*73,51.5414543151,-0.0153333005,14:54:14,17/8/2015,19,5,20.31,0.00,25
$GPRMC,145415.000,A,5132.4875,N,00000.9215,W,4.51,293.47,170815,,,A*79,51.5414543151,-0.0153583002,14:54:15,17/8/2015,18,4,21.29,0.00,25
$GPRMC,145416.000,A,5132.4882,N,00000.9234,W,4.14,303.57,170815,,,A*79,51.5414695739,-0.0153900003,14:54:16,17/8/2015,18,5,21.29,0.00,21
$GPRMC,145417.000,A,5132.4885,N,00000.9245,W,3.41,308.11,170815,,,A*77,51.5414695739,-0.0154083013,14:54:16,17/8/2015,18,4,21.78,0.00,25
$GPRMC,145418.000,A,5132.4889,N,00000.9256,W,2.87,310.19,170815,,,A*7C,51.5414810180,-0.0154266014,14:54:18,17/8/2015,22,5,23.24,0.00,25
$GPRMC,145419.000,A,5132.4889,N,00000.9267,W,2.62,292.22,170815,,,A*77,51.5414810180,-0.0154449996,14:54:19,17/8/2015,19,0,22.27,0.00,25
$GPRMC,145420.000,A,5132.4890,N,00000.9279,W,2.79,281.82,170815,,,A*78,51.5414810180,-0.0154649996,14:54:20,17/8/2015,16,0,23.24,0.00,21
$GPRMC,145421.000,A,5132.4892,N,00000.9291,W,3.11,290.24,170815,,,A*7E,51.5414886474,-0.0154850006,14:54:20,17/8/2015,16,2,21.78,0.00,25
$GPRMC,145422.000,A,5132.4893,N,00000.9303,W,3.12,294.56,170815,,,A*74,51.5414886474,-0.0155050015,14:54:22,17/8/2015,18,2,22.27,0.00,29
$GPRMC,145423.000,A,5132.4895,N,00000.9319,W,3.88,295.78,170815,,,A*76,51.5414886474,-0.0155316009,14:54:23,17/8/2015,25,2,22.27,0.00,25
$GPRMC,145424.000,A,5132.4900,N,00000.9335,W,4.00,297.71,170815,,,A*7E,51.5415039062,-0.0155583009,14:54:24,17/8/2015,25,0,21.78,0.00,25
$GPRMC,145425.000,A,5132.4902,N,00000.9351,W,3.52,288.26,170815,,,A*73,51.5415039062,-0.0155850005,14:54:24,17/8/2015,19,1,22.27,0.00,25
$GPRMC,145426.000,A,5132.4902,N,00000.9365,W,2.99,277.60,170815,,,A*73,51.5415039062,-0.0156083002,14:54:26,17/8/2015,15,4,21.78,0.00,21
$GPRMC,145427.000,A,5132.4913,N,00000.9370,W,2.93,252.33,170815,,,A*7D,51.5415191650,-0.0156166005,14:54:27,17/8/2015,15,1,21.78,0.00,25
$GPRMC,145428.000,A,5132.4904,N,00000.9377,W,2.97,238.83,170815,,,A*70,51.5415039062,-0.0156283006,14:54:28,17/8/2015,14,0,23.24,0.00,20
$GPRMC,145429.000,A,5132.4897,N,00000.9386,W,3.32,240.76,170815,,,A*7F,51.5414962768,-0.0156433000,14:54:28,17/8/2015,14,0,21.29,0.00,25
$GPRMC,145430.000,A,5132.4890,N,00000.9393,W,3.72,251.00,170815,,,A*71,51.5414810180,-0.0156550025,14:54:30,17/8/2015,14,0,21.78,0.00,25
$GPRMC,145431.000,A,5132.4891,N,00000.9395,W,2.80,226.56,170815,,,A*78,51.5414886474,-0.0156583013,14:54:31,17/8/2015,14,3,23.24,0.00,28
$GPRMC,145432.000,A,5132.4890,N,00000.9401,W,2.71,223.12,170815,,,A*7B,51.5414810180,-0.0156683015,14:54:32,17/8/2015,15,0,21.78,0.00,25
$GPRMC,145433.000,A,5132.4885,N,00000.9414,W,3.03,235.63,170815,,,A*7F,51.5414695739,-0.0156900000,14:54:32,17/8/2015,13,1,21.78,0.00,20
$GPRMC,145434.000,A,5132.4880,N,00000.9427,W,3.08,232.58,170815,,,A*79,51.5414619445,-0.0157115993,14:54:34,17/8/2015,14,7,21.29,0.00,25
$GPRMC,145435.000,A,5132.4897,N,00000.9429,W,2.85,239.44,170815,,,A*72,51.5414962768,-0.0157150020,14:54:35,17/8/2015,14,1,21.78,0.00,25
$GPRMC,145436.000,A,5132.4903,N,00000.9436,W,2.24,249.13,170815,,,A*7D,51.5415039062,-0.0157265996,14:54:36,17/8/2015,15,1,22.75,0.00,25
$GPRMC,145437.000,A,5132.4906,N,00000.9443,W,2.17,238.26,170815,,,A*7B,51.5415115356,-0.0157383012,14:54:36,17/8/2015,12,3,20.31,0.00,26
$GPRMC,145438.000,A,5132.4907,N,00000.9447,W,2.74,226.16,170815,,,A*78,51.5415115356,-0.0157450008,14:54:38,17/8/2015,14,1,21.29,0.00,25
$GPRMC,145439.000,A,5132.4907,N,00000.9455,W,2.83,236.20,170815,,,A*76,51.5415115356,-0.0157582998,14:54:39,17/8/2015,16,3,21.78,0.00,25
$GPRMC,145440.000,A,5132.4910,N,00000.9464,W,2.90,259.67,170815,,,A*74,51.5415191650,-0.0157732987,14:54:40,17/8/2015,16,1,22.75,0.00,20
$GPRMC,145441.000,A,5132.4913,N,00000.9475,W,3.28,266.35,170815,,,A*7F,51.5415191650,-0.0157916011,14:54:40,17/8/2015,14,3,21.78,0.00,26
$GPRMC,145442.000,A,5132.4919,N,00000.9486,W,3.38,268.71,170815,,,A*75,51.5415267944,-0.0158100008,14:54:42,17/8/2015,14,0,21.78,0.00,26
$GPRMC,145443.000,A,5132.4923,N,00000.9498,W,3.44,271.74,170815,,,A*74,51.5415382385,-0.0158300018,14:54:43,17/8/2015,12,0,23.24,0.00,25
$GPRMC,145444.000,A,5132.4926,N,00000.9512,W,3.01,268.13,170815,,,A*7D,51.5415458679,-0.0158533000,14:54:44,17/8/2015,13,2,22.75,0.00,21
$GPRMC,145445.000,A,5132.4933,N,00000.9520,W,2.83,277.35,170815,,,A*78,51.5415534973,-0.0158666000,14:54:44,17/8/2015,14,0,22.27,0.00,25
$GPRMC,145446.000,A,5132.4940,N,00000.9532,W,3.27,276.03,170815,,,A*77,51.5415687561,-0.0158866024,14:54:46,17/8/2015,14,5,21.78,0.00,25
$GPRMC,145447.000,A,5132.4943,N,00000.9547,W,3.64,279.37,170815,,,A*78,51.5415687561,-0.0159116020,14:54:47,17/8/2015,14,0,21.78,0.00,26
$GPRMC,145448.000,A,5132.4950,N,00000.9560,W,3.46,284.27,170815,,,A*73,51.5415840148,-0.0159333014,14:54:48,17/8/2015,14,0,22.27,0.00,25
$GPRMC,145449.000,A,5132.4952,N,00000.9579,W,3.36,284.40,170815,,,A*7E,51.5415840148,-0.0159650015,14:54:48,17/8/2015,14,1,21.78,0.00,25
$GPRMC,145450.000,A,5132.4958,N,00000.9595,W,3.63,289.44,170815,,,A*77,51.5415916442,-0.0159915995,14:54:50,17/8/2015,14,3,22.75,0.00,26
$GPRMC,145451.000,A,5132.4962,N,00000.9608,W,3.21,286.94,170815,,,A*7C,51.5416030883,-0.0160133004,14:54:51,17/8/2015,14,1,22.27,0.00,24
$GPRMC,145452.000,A,5132.4956,N,00000.9631,W,2.61,257.06,170815,,,A*70,51.5415916442,-0.0160515999,14:54:52,17/8/2015,14,9,22.27,0.00,21
$GPRMC,145453.000,A,5132.4951,N,00000.9652,W,2.99,253.51,170815,,,A*72,51.5415840148,-0.0160866012,14:54:52,17/8/2015,14,21,21.29,0.00,25
$GPRMC,145454.000,A,5132.4953,N,00000.9664,W,2.88,276.79,170815,,,A*7F,51.5415840148,-0.0161065998,14:54:54,17/8/2015,14,6,22.75,0.00,25
$GPRMC,145455.000,A,5132.4959,N,00000.9675,W,3.19,291.21,170815,,,A*79,51.5416030883,-0.0161250009,14:54:55,17/8/2015,14,5,22.75,0.00,25
$GPRMC,145456.000,A,5132.4959,N,00000.9692,W,2.81,290.14,170815,,,A*74,51.5416030883,-0.0161532998,14:54:56,17/8/2015,14,1,22.27,0.00,25
$GPRMC,145457.000,A,5132.4967,N,00000.9699,W,2.70,297.65,170815,,,A*7C,51.5416107177,-0.0161649999,14:54:56,17/8/2015,12,2,22.27,0.00,21
$GPRMC,145458.000,A,5132.4981,N,00000.9707,W,3.86,314.41,170815,,,A*79,51.5416336059,-0.0161783003,14:54:58,17/8/2015,15,4,21.78,0.00,25
$GPRMC,145459.000,A,5132.4985,N,00000.9717,W,4.39,304.09,170815,,,A*73,51.5416412353,-0.0161950006,14:54:59,17/8/2015,14,2,22.27,0.00,20
$GPRMC,145500.000,A,5132.4986,N,00000.9734,W,4.08,306.11,170815,,,A*75,51.5416412353,-0.0162232995,14:55:0,17/8/2015,14,0,21.29,0.00,25
$GPRMC,145501.000,A,5132.4986,N,00000.9752,W,3.62,305.63,170815,,,A*79,51.5416412353,-0.0162532997,14:55:0,17/8/2015,14,1,22.75,0.00,25
$GPRMC,145502.000,A,5132.4986,N,00000.9768,W,3.65,308.28,170815,,,A*76,51.5416412353,-0.0162800016,14:55:2,17/8/2015,13,1,21.78,0.00,25
$GPRMC,145503.000,A,5132.4987,N,00000.9785,W,3.85,304.23,170815,,,A*7C,51.5416412353,-0.0163083004,14:55:3,17/8/2015,14,1,22.27,0.00,24
$GPRMC,145504.000,A,5132.4983,N,00000.9802,W,2.45,275.87,170815,,,A*7B,51.5416412353,-0.0163366022,14:55:4,17/8/2015,14,2,22.27,0.00,25
$GPRMC,145505.000,A,5132.4983,N,00000.9812,W,2.67,260.26,170815,,,A*74,51.5416412353,-0.0163532996,14:55:4,17/8/2015,16,0,21.78,0.00,25
$GPRMC,145506.000,A,5132.4975,N,00000.9833,W,2.46,265.81,170815,,,A*76,51.5416259765,-0.0163882994,14:55:6,17/8/2015,11,0,22.75,0.00,25
$GPRMC,145507.000,A,5132.4971,N,00000.9848,W,3.01,273.19,170815,,,A*7B,51.5416183471,-0.0164133000,14:55:7,17/8/2015,14,1,22.27,0.00,25
$GPRMC,145508.000,A,5132.4968,N,00000.9866,W,3.28,293.17,170815,,,A*7B,51.5416107177,-0.0164433002,14:55:8,17/8/2015,14,0,21.78,0.00,25
$GPRMC,145509.000,A,5132.4971,N,00000.9880,W,4.13,307.77,170815,,,A*7F,51.5416183471,-0.0164666008,14:55:8,17/8/2015,13,6,22.27,0.00,25
$GPRMC,145510.000,A,5132.4977,N,00000.9892,W,2.01,290.68,170815,,,A*76,51.5416259765,-0.0164866018,14:55:10,17/8/2015,13,0,22.27,0.00,21
$GPRMC,145511.000,A,5132.4979,N,00000.9901,W,1.84,266.50,170815,,,A*7E,51.5416336059,-0.0165015993,14:55:11,17/8/2015,14,0,20.80,0.00,25
$GPRMC,145512.000,A,5132.4984,N,00000.9914,W,3.05,284.26,170815,,,A*7D,51.5416412353,-0.0165233001,14:55:12,17/8/2015,14,0,21.78,0.00,22
$GPRMC,145513.000,A,5132.4989,N,00000.9925,W,2.96,282.59,170815,,,A*76,51.5416488647,-0.0165416002,14:55:12,17/8/2015,15,0,21.78,0.00,29
$GPRMC,145514.000,A,5132.4996,N,00000.9938,W,3.56,281.19,170815,,,A*79,51.5416603088,-0.0165632987,14:55:14,17/8/2015,14,0,23.24,0.00,25
$GPRMC,145515.000,A,5132.5002,N,00000.9953,W,4.21,289.89,170815,,,A*76,51.5416679382,-0.0165883007,14:55:15,17/8/2015,14,1,21.78,0.00,25
$GPRMC,145516.000,A,5132.5004,N,00000.9969,W,4.21,294.83,170815,,,A*7C,51.5416755676,-0.0166149997,14:55:16,17/8/2015,14,2,21.78,0.00,29
$GPRMC,145517.000,A,5132.5007,N,00000.9988,W,3.59,292.28,170815,,,A*7E,51.5416755676,-0.0166466007,14:55:16,17/8/2015,14,0,22.27,0.00,24
$GPRMC,145518.000,A,5132.5010,N,00001.0004,W,3.65,290.71,170815,,,A*73,51.5416831970,-0.0166733002,14:55:18,17/8/2015,14,1,21.29,0.00,25
$GPRMC,145519.000,A,5132.5012,N,00001.0020,W,3.94,281.56,170815,,,A*7D,51.5416831970,-0.0167000007,14:55:19,17/8/2015,14,1,22.27,0.00,25
$GPRMC,145520.000,A,5132.5013,N,00001.0036,W,4.06,279.73,170815,,,A*7D,51.5416908264,-0.0167266011,14:55:20,17/8/2015,14,2,21.29,0.00,25
$GPRMC,145521.000,A,5132.5010,N,00001.0053,W,3.76,268.68,170815,,,A*76,51.5416831970,-0.0167550015,14:55:20,17/8/2015,14,0,22.27,0.00,25
$GPRMC,145522.000,A,5132.5009,N,00001.0068,W,3.38,257.82,170815,,,A*77,51.5416831970,-0.0167800006,14:55:22,17/8/2015,14,2,22.27,0.00,25
$GPRMC,145523.000,A,5132.5007,N,00001.0082,W,3.68,250.74,170815,,,A*77,51.5416755676,-0.0168033003,14:55:23,17/8/2015,14,19,22.27,0.00,28
$GPRMC,145524.000,A,5132.5004,N,00001.0095,W,3.55,261.53,170815,,,A*7C,51.5416755676,-0.0168249988,14:55:24,17/8/2015,12,0,22.27,0.00,26
$GPRMC,145525.000,A,5132.5007,N,00001.0109,W,3.39,272.80,170815,,,A*7C,51.5416755676,-0.0168482995,14:55:24,17/8/2015,14,0,21.78,0.00,28
$GPRMC,145526.000,A,5132.5006,N,00001.0122,W,3.04,270.72,170815,,,A*76,51.5416755676,-0.0168699989,14:55:26,17/8/2015,14,1,21.78,0.00,27
$GPRMC,145527.000,A,5132.5003,N,00001.0134,W,2.60,255.32,170815,,,A*75,51.5416755676,-0.0168900012,14:55:27,17/8/2015,14,1,21.78,0.00,25
$GPRMC,145528.000,A,5132.4996,N,00001.0145,W,2.99,227.68,170815,,,A*74,51.5416603088,-0.0169082999,14:55:28,17/8/2015,14,0,22.27,0.00,25
$GPRMC,145529.000,A,5132.4991,N,00001.0157,W,3.16,231.49,170815,,,A*73,51.5416488647,-0.0169283018,14:55:28,17/8/2015,16,1,22.27,0.00,20
$GPRMC,145530.000,A,5132.4991,N,00001.0170,W,3.66,265.96,170815,,,A*7A,51.5416488647,-0.0169500017,14:55:30,17/8/2015,14,2,21.78,0.00,20
$GPRMC,145531.000,A,5132.4991,N,00001.0183,W,3.61,275.59,170815,,,A*72,51.5416488647,-0.0169716000,14:55:31,17/8/2015,14,7,22.75,0.00,24
$GPRMC,145532.000,A,5132.4984,N,00001.0190,W,2.99,250.97,170815,,,A*74,51.5416412353,-0.0169833002,14:55:32,17/8/2015,12,2,24.22,0.00,25
$GPRMC,145533.000,A,5132.4977,N,00001.0205,W,3.24,235.56,170815,,,A*7F,51.5416259765,-0.0170083022,14:55:32,17/8/2015,11,3,21.78,0.00,24
$GPRMC,145534.000,A,5132.4972,N,00001.0216,W,3.35,251.00,170815,,,A*7E,51.5416183471,-0.0170266017,14:55:34,17/8/2015,14,1,22.75,0.00,24
$GPRMC,145535.000,A,5132.4966,N,00001.0224,W,3.40,258.33,170815,,,A*70,51.5416107177,-0.0170400009,14:55:35,17/8/2015,14,4,20.31,0.00,25
$GPRMC,145536.000,A,5132.4958,N,00001.0234,W,2.96,227.44,170815,,,A*7D,51.5415916442,-0.0170566010,14:55:36,17/8/2015,14,2,22.75,0.00,24
$GPRMC,145537.000,A,5132.4948,N,00001.0240,W,3.30,218.76,170815,,,A*7E,51.5415763854,-0.0170665988,14:55:36,17/8/2015,14,5,22.75,0.00,21
$GPRMC,145538.000,A,5132.4943,N,00001.0248,W,2.97,241.62,170815,,,A*77,51.5415687561,-0.0170800018,14:55:38,17/8/2015,14,2,22.27,0.00,24
$GPRMC,145539.000,A,5132.4935,N,00001.0256,W,3.29,231.93,170815,,,A*75,51.5415611267,-0.0170933008,14:55:39,17/8/2015,14,2,21.29,0.00,25
$GPRMC,145540.000,A,5132.4932,N,00001.0268,W,2.68,237.41,170815,,,A*7C,51.5415534973,-0.0171132993,14:55:40,17/8/2015,12,16,22.27,0.00,25
$GPRMC,145541.000,A,5132.4924,N,00001.0275,W,4.06,256.39,170815,,,A*70,51.5415382385,-0.0171250009,14:55:40,17/8/2015,13,26,21.78,0.00,23
$GPRMC,145542.000,A,5132.4917,N,00001.0288,W,3.85,245.01,170815,,,A*74,51.5415267944,-0.0171466007,14:55:42,17/8/2015,14,9,22.75,0.00,25
$GPRMC,145543.000,A,5132.4911,N,00001.0298,W,3.41,248.78,170815,,,A*79,51.5415191650,-0.0171633005,14:55:43,17/8/2015,12,69,22.27,0.00,24
$GPRMC,145544.000,A,5132.4911,N,00001.0311,W,3.69,278.34,170815,,,A*7F,51.5415191650,-0.0171850013,14:55:44,17/8/2015,13,15,22.27,0.00,21
$GPRMC,145545.000,A,5132.4909,N,00001.0327,W,3.14,268.50,170815,,,A*7B,51.5415115356,-0.0172115993,14:55:44,17/8/2015,13,24,23.73,0.00,24
$GPRMC,145546.000,A,5132.4908,N,00001.0341,W,2.67,258.35,170815,,,A*7C,51.5415115356,-0.0172350025,14:55:46,17/8/2015,15,18,21.78,0.00,25
$GPRMC,145547.000,A,5132.4905,N,00001.0355,W,3.04,243.52,170815,,,A*7A,51.5415115356,-0.0172582998,14:55:47,17/8/2015,11,3,21.78,0.00,26
$GPRMC,145548.000,A,5132.4902,N,00001.0368,W,3.05,248.52,170815,,,A*76,51.5415039062,-0.0172800006,14:55:48,17/8/2015,14,3,22.27,0.00,23
$GPRMC,145549.000,A,5132.4900,N,00001.0381,W,3.24,255.91,170815,,,A*72,51.5415039062,-0.0173016014,14:55:48,17/8/2015,14,1,22.27,0.00,25
$GPRMC,145550.000,A,5132.4896,N,00001.0394,W,3.05,247.36,170815,,,A*7D,51.5414962768,-0.0173233022,14:55:50,17/8/2015,13,21,22.75,0.00,25
$GPRMC,145551.000,A,5132.4893,N,00001.0406,W,2.97,254.60,170815,,,A*7E,51.5414886474,-0.0173433008,14:55:51,17/8/2015,13,0,21.78,0.00,25
$GPRMC,145552.000,A,5132.4888,N,00001.0420,W,3.15,222.48,170815,,,A*73,51.5414810180,-0.0173666000,14:55:52,17/8/2015,11,0,22.27,0.00,24
$GPRMC,145553.000,A,5132.4884,N,00001.0431,W,2.54,230.93,170815,,,A*7F,51.5414695739,-0.0173850002,14:55:52,17/8/2015,11,5,22.27,0.00,25
$GPRMC,145554.000,A,5132.4875,N,00001.0439,W,3.21,193.50,170815,,,A*78,51.5414543151,-0.0173982992,14:55:54,17/8/2015,13,3,20.80,0.00,25
$GPRMC,145555.000,A,5132.4870,N,00001.0450,W,3.38,184.03,170815,,,A*7B,51.5414466857,-0.0174165987,14:55:55,17/8/2015,14,5,21.78,0.00,24
$GPRMC,145556.000,A,5132.4866,N,00001.0457,W,4.04,256.38,170815,,,A*74,51.5414466857,-0.0174283018,14:55:56,17/8/2015,14,4,21.78,0.00,25
$GPRMC,145557.000,A,5132.4862,N,00001.0473,W,3.58,250.11,170815,,,A*74,51.5414390563,-0.0174549999,14:55:56,17/8/2015,14,4,21.78,0.00,24
$GPRMC,145558.000,A,5132.4864,N,00001.0486,W,4.44,284.61,170815,,,A*73,51.5414390563,-0.0174766006,14:55:58,17/8/2015,14,0,21.78,0.00,21
$GPRMC,145559.000,A,5132.4860,N,00001.0498,W,2.91,258.32,170815,,,A*70,51.5414314270,-0.0174965991,14:55:59,17/8/2015,14,11,22.27,0.00,20
$GPRMC,145600.000,A,5132.4855,N,00001.0510,W,2.98,244.58,170815,,,A*70,51.5414237976,-0.0175166010,14:56:0,17/8/2015,12,4,23.24,0.00,20
$GPRMC,145601.000,A,5132.4852,N,00001.0524,W,2.85,246.09,170815,,,A*7B,51.5414237976,-0.0175400009,14:56:0,17/8/2015,14,6,20.80,0.00,24
$GPRMC,145602.000,A,5132.4852,N,00001.0538,W,2.29,247.57,170815,,,A*79,51.5414237976,-0.0175633010,14:56:2,17/8/2015,11,4,22.27,0.00,25
$GPRMC,145603.000,A,5132.4850,N,00001.0549,W,3.28,267.04,170815,,,A*78,51.5414161682,-0.0175816001,14:56:3,17/8/2015,14,7,21.78,0.00,24
$GPRMC,145604.000,A,5132.4848,N,00001.0562,W,3.30,267.90,170815,,,A*7B,51.5414161682,-0.0176033010,14:56:4,17/8/2015,14,4,20.80,0.00,25
$GPRMC,145605.000,A,5132.4843,N,00001.0578,W,3.53,250.74,170815,,,A*71,51.5414047241,-0.0176300024,14:56:4,17/8/2015,11,2,21.78,0.00,20
$GPRMC,145606.000,A,5132.4838,N,00001.0592,W,3.24,247.27,170815,,,A*7A,51.5413970947,-0.0176532993,14:56:6,17/8/2015,14,0,22.75,0.00,24
$GPRMC,145607.000,A,5132.4838,N,00001.0606,W,2.87,253.29,170815,,,A*76,51.5413970947,-0.0176765990,14:56:7,17/8/2015,16,3,21.78,0.00,26
$GPRMC,145608.000,A,5132.4834,N,00001.0621,W,2.45,225.12,170815,,,A*77,51.5413894653,-0.0177015995,14:56:8,17/8/2015,12,17,22.27,0.00,24
$GPRMC,145609.000,A,5132.4833,N,00001.0634,W,2.40,243.15,170815,,,A*77,51.5413894653,-0.0177232990,14:56:8,17/8/2015,14,7,22.75,0.00,22
$GPRMC,145610.000,A,5132.4831,N,00001.0647,W,3.67,266.36,170815,,,A*7B,51.5413818359,-0.0177449998,14:56:10,17/8/2015,12,4,21.29,0.00,24
$GPRMC,145611.000,A,5132.4828,N,00001.0662,W,3.55,264.96,170815,,,A*7C,51.5413818359,-0.0177699995,14:56:11,17/8/2015,14,2,21.78,0.00,24
$GPRMC,145612.000,A,5132.4822,N,00001.0679,W,3.66,252.37,170815,,,A*71,51.5413742065,-0.0177983021,14:56:12,17/8/2015,16,8,22.75,0.00,21
$GPRMC,145613.000,A,5132.4816,N,00001.0693,W,2.94,244.84,170815,,,A*70,51.5413589477,-0.0178216004,14:56:12,17/8/2015,14,5,23.24,0.00,24
$GPRMC,145614.000,A,5132.4813,N,00001.0707,W,3.52,263.59,170815,,,A*70,51.5413589477,-0.0178450012,14:56:14,17/8/2015,14,3,22.27,0.00,24
$GPRMC,145615.000,A,5132.4807,N,00001.0722,W,3.18,251.37,170815,,,A*74,51.5413398742,-0.0178700017,14:56:15,17/8/2015,14,4,21.29,0.00,24
$GPRMC,145616.000,A,5132.4802,N,00001.0735,W,2.90,243.39,170815,,,A*78,51.5413322448,-0.0178915987,14:56:16,17/8/2015,14,1,22.27,0.00,20
$GPRMC,145617.000,A,5132.4800,N,00001.0751,W,3.11,256.70,170815,,,A*78,51.5413322448,-0.0179183006,14:56:16,17/8/2015,13,6,22.27,0.00,20
$GPRMC,145618.000,A,5132.4795,N,00001.0768,W,3.35,252.39,170815,,,A*71,51.5413246154,-0.0179466009,14:56:18,17/8/2015,14,7,21.78,0.00,20
$GPRMC,145619.000,A,5132.4791,N,00001.0784,W,2.93,238.28,170815,,,A*77,51.5413169860,-0.0179733014,14:56:19,17/8/2015,14,13,22.75,0.00,27
$GPRMC,145620.000,A,5132.4788,N,00001.0796,W,2.92,260.05,170815,,,A*75,51.5413169860,-0.0179933013,14:56:20,17/8/2015,12,0,23.24,0.00,24
$GPRMC,145621.000,A,5132.4781,N,00001.0810,W,3.30,243.28,170815,,,A*7B,51.5413017272,-0.0180166006,14:56:20,17/8/2015,14,12,21.78,0.00,24
$GPRMC,145622.000,A,5132.4770,N,00001.0821,W,4.32,193.37,170815,,,A*71,51.5412826538,-0.0180350008,14:56:22,17/8/2015,14,7,21.78,0.00,24
$GPRMC,145623.000,A,5132.4766,N,00001.0835,W,3.45,230.07,170815,,,A*7C,51.5412750244,-0.0180583000,14:56:23,17/8/2015,14,2,21.29,0.00,25
$GPRMC,145624.000,A,5132.4762,N,00001.0850,W,3.76,256.00,170815,,,A*7B,51.5412673950,-0.0180833005,14:56:24,17/8/2015,14,3,22.75,0.00,24
$GPRMC,145625.000,A,5132.4759,N,00001.0864,W,3.30,259.69,170815,,,A*77,51.5412673950,-0.0181066017,14:56:24,17/8/2015,14,0,23.24,0.00,25
$GPRMC,145626.000,A,5132.4757,N,00001.0882,W,2.60,239.82,170815,,,A*75,51.5412597656,-0.0181365985,14:56:26,17/8/2015,14,5,22.75,0.00,24
$GPRMC,145627.000,A,5132.4754,N,00001.0897,W,2.80,245.54,170815,,,A*7D,51.5412597656,-0.0181616010,14:56:27,17/8/2015,14,4,22.75,0.00,25
$GPRMC,145628.000,A,5132.4749,N,00001.0910,W,3.50,251.42,170815,,,A*7E,51.5412521362,-0.0181833000,14:56:28,17/8/2015,14,14,22.27,0.00,24
$GPRMC,145629.000,A,5132.4747,N,00001.0926,W,3.06,252.36,170815,,,A*77,51.5412445068,-0.0182100000,14:56:28,17/8/2015,12,2,22.75,0.00,23
$GPRMC,145630.000,A,5132.4745,N,00001.0942,W,3.32,257.77,170815,,,A*78,51.5412445068,-0.0182366008,14:56:30,17/8/2015,12,4,21.78,0.00,24
$GPRMC,145631.000,A,5132.4740,N,00001.0959,W,3.97,255.14,170815,,,A*7E,51.5412368774,-0.0182650012,14:56:31,17/8/2015,14,27,20.80,0.00,24
$GPRMC,145632.000,A,5132.4736,N,00001.0975,W,3.09,244.67,170815,,,A*71,51.5412254333,-0.0182915992,14:56:32,17/8/2015,14,5,24.22,0.00,24
$GPRMC,145633.000,A,5132.4737,N,00001.0991,W,3.02,267.34,170815,,,A*77,51.5412254333,-0.0183183012,14:56:32,17/8/2015,13,9,21.78,0.00,19
$GPRMC,145634.000,A,5132.4735,N,00001.1009,W,3.91,257.64,170815,,,A*77,51.5412254333,-0.0183483009,14:56:34,17/8/2015,14,9,21.78,0.00,25
$GPRMC,145635.000,A,5132.4732,N,00001.1027,W,3.07,237.33,170815,,,A*76,51.5412178039,-0.0183783006,14:56:35,17/8/2015,11,9,22.27,0.00,20
$GPRMC,145636.000,A,5132.4729,N,00001.1045,W,3.57,258.16,170815,,,A*70,51.5412101745,-0.0184082994,14:56:36,17/8/2015,14,30,22.27,0.00,25
$GPRMC,145637.000,A,5132.4728,N,00001.1062,W,4.09,270.27,170815,,,A*71,51.5412101745,-0.0184366016,14:56:36,17/8/2015,15,9,22.27,0.00,24
$GPRMC,145638.000,A,5132.4727,N,00001.1079,W,4.16,265.99,170815,,,A*74,51.5412101745,-0.0184650001,14:56:38,17/8/2015,14,44,21.78,0.00,24
$GPRMC,145639.000,A,5132.4725,N,00001.1095,W,2.76,235.53,170815,,,A*76,51.5412101745,-0.0184916000,14:56:39,17/8/2015,14,6,21.78,0.00,25
$GPRMC,145640.000,A,5132.4726,N,00001.1110,W,3.57,263.17,170815,,,A*76,51.5412101745,-0.0185165996,14:56:40,17/8/2015,14,11,21.78,0.00,25
$GPRMC,145641.000,A,5132.4726,N,00001.1124,W,3.20,267.04,170815,,,A*76,51.5412101745,-0.0185400009,14:56:40,17/8/2015,14,0,22.27,0.00,25
$GPRMC,145642.000,A,5132.4727,N,00001.1141,W,3.86,272.91,170815,,,A*73,51.5412101745,-0.0185683012,14:56:42,17/8/2015,14,6,22.27,0.00,26
$GPRMC,145643.000,A,5132.4726,N,00001.1157,W,3.22,262.12,170815,,,A*70,51.5412101745,-0.0185950012,14:56:43,17/8/2015,16,16,22.27,0.00,25
$GPRMC,145644.000,A,5132.4727,N,00001.1172,W,2.36,246.58,170815,,,A*7D,51.5412101745,-0.0186200008,14:56:44,17/8/2015,14,6,22.27,0.00,24
$GPRMC,145645.000,A,5132.4729,N,00001.1183,W,2.71,271.02,170815,,,A*74,51.5412101745,-0.0186383008,14:56:44,17/8/2015,14,6,21.78,0.00,24
$GPRMC,145646.000,A,5132.4731,N,00001.1199,W,3.83,275.99,170815,,,A*7F,51.5412178039,-0.0186649990,14:56:46,17/8/2015,13,4,21.78,0.00,24
$GPRMC,145647.000,A,5132.4729,N,00001.1215,W,4.21,272.15,170815,,,A*7C,51.5412101745,-0.0186916007,14:56:47,17/8/2015,14,0,21.78,0.00,27
$GPRMC,145648.000,A,5132.4727,N,00001.1233,W,4.04,262.10,170815,,,A*7A,51.5412101745,-0.0187216014,14:56:48,17/8/2015,14,9,22.27,0.00,23
$GPRMC,145649.000,A,5132.4724,N,00001.1248,W,2.89,246.54,170815,,,A*71,51.5412025451,-0.0187466011,14:56:48,17/8/2015,14,8,21.29,0.00,25
$GPRMC,145650.000,A,5132.4722,N,00001.1261,W,3.44,270.42,170815,,,A*76,51.5412025451,-0.0187683010,14:56:50,17/8/2015,11,29,22.27,0.00,25
$GPRMC,145651.000,A,5132.4722,N,00001.1275,W,2.32,249.28,170815,,,A*74,51.5412025451,-0.0187915992,14:56:51,17/8/2015,14,18,22.27,0.00,24
$GPRMC,145652.000,A,5132.4723,N,00001.1288,W,3.87,277.25,170815,,,A*7B,51.5412025451,-0.0188133001,14:56:52,17/8/2015,14,4,20.80,0.00,24
$GPRMC,145653.000,A,5132.4721,N,00001.1301,W,3.02,258.55,170815,,,A*7F,51.5412025451,-0.0188350009,14:56:52,17/8/2015,14,13,22.27,0.00,24
$GPRMC,145654.000,A,5132.4722,N,00001.1316,W,3.36,274.45,170815,,,A*75,51.5412025451,-0.0188600006,14:56:54,17/8/2015,14,11,21.78,0.00,24
$GPRMC,145655.000,A,5132.4724,N,00001.1332,W,3.76,274.75,170815,,,A*73,51.5412025451,-0.0188865995,14:56:55,17/8/2015,14,10,21.78,0.00,19
$GPRMC,145656.000,A,5132.4723,N,00001.1348,W,3.86,260.28,170815,,,A*78,51.5412025451,-0.0189132995,14:56:56,17/8/2015,14,20,22.27,0.00,24
$GPRMC,145657.000,A,5132.4723,N,00001.1364,W,2.08,240.17,170815,,,A*7E,51.5412025451,-0.0189400005,14:56:56,17/8/2015,14,7,22.75,0.00,20
$GPRMC,145658.000,A,5132.4724,N,00001.1378,W,3.05,267.15,170815,,,A*70,51.5412025451,-0.0189633007,14:56:58,17/8/2015,14,92,22.27,0.00,26
$GPRMC,145659.000,A,5132.4726,N,00001.1394,W,5.38,272.44,170815,,,A*79,51.5412101745,-0.0189900016,14:56:59,17/8/2015,14,3,22.27,0.00,20
$GPRMC,145700.000,A,5132.4729,N,00001.1415,W,4.82,274.01,170815,,,A*72,51.5412101745,-0.0190249996,14:57:0,17/8/2015,14,1,21.78,0.00,20
$GPRMC,145701.000,A,5132.4730,N,00001.1434,W,3.96,272.13,170815,,,A*7F,51.5412178039,-0.0190566005,14:57:0,17/8/2015,14,3,21.78,0.00,25
$GPRMC,145702.000,A,5132.4733,N,00001.1450,W,3.47,275.02,170815,,,A*76,51.5412178039,-0.0190832996,14:57:2,17/8/2015,14,2,21.78,0.00,26
$GPRMC,145703.000,A,5132.4733,N,00001.1464,W,2.97,268.20,170815,,,A*70,51.5412178039,-0.0191065998,14:57:3,17/8/2015,11,6,21.78,0.00,25
$GPRMC,145704.000,A,5132.4733,N,00001.1476,W,2.62,263.69,170815,,,A*78,51.5412178039,-0.0191266002,14:57:4,17/8/2015,14,10,22.75,0.00,24
$GPRMC,145705.000,A,5132.4733,N,00001.1489,W,3.19,266.71,170815,,,A*78,51.5412178039,-0.0191483001,14:57:4,17/8/2015,14,16,22.75,0.00,20
$GPRMC,145706.000,A,5132.4734,N,00001.1500,W,2.25,278.39,170815,,,A*71,51.5412254333,-0.0191666011,14:57:6,17/8/2015,14,12,22.75,0.00,24
$GPRMC,145707.000,A,5132.4732,N,00001.1513,W,3.66,259.63,170815,,,A*7E,51.5412178039,-0.0191883010,14:57:7,17/8/2015,14,19,21.78,0.00,25
$GPRMC,145708.000,A,5132.4730,N,00001.1527,W,3.72,259.19,170815,,,A*7C,51.5412178039,-0.0192115993,14:57:8,17/8/2015,14,47,22.75,0.00,26
$GPRMC,145709.000,A,5132.4728,N,00001.1538,W,1.18,201.51,170815,,,A*75,51.5412101745,-0.0192300014,14:57:8,17/8/2015,12,11,22.75,0.00,25
$GPRMC,145710.000,A,5132.4723,N,00001.1550,W,3.08,230.35,170815,,,A*7B,51.5412025451,-0.0192500019,14:57:10,17/8/2015,14,20,22.75,0.00,26
$GPRMC,145711.000,A,5132.4722,N,00001.1563,W,3.32,254.80,170815,,,A*7E,51.5412025451,-0.0192716007,14:57:11,17/8/2015,14,12,21.78,0.00,23
$GPRMC,145712.000,A,5132.4721,N,00001.1580,W,1.99,253.53,170815,,,A*79,51.5412025451,-0.0193000011,14:57:12,17/8/2015,14,6,21.78,0.00,19
$GPRMC,145713.000,A,5132.4720,N,00001.1591,W,3.56,260.37,170815,,,A*7A,51.5412025451,-0.0193183002,14:57:12,17/8/2015,14,16,22.27,0.00,25
$GPRMC,145714.000,A,5132.4717,N,00001.1605,W,3.15,244.55,170815,,,A*72,51.5411949157,-0.0193416004,14:57:14,17/8/2015,13,3,21.29,0.00,28
$GPRMC,145715.000,A,5132.4719,N,00001.1615,W,3.25,278.57,170815,,,A*72,51.5411949157,-0.0193583011,14:57:15,17/8/2015,14,7,23.24,0.00,24
$GPRMC,145716.000,A,5132.4718,N,00001.1632,W,3.82,261.21,170815,,,A*71,51.5411949157,-0.0193866014,14:57:16,17/8/2015,14,16,21.78,0.00,21
$GPRMC,145717.000,A,5132.4718,N,00001.1650,W,3.40,267.85,170815,,,A*72,51.5411949157,-0.0194166002,14:57:16,17/8/2015,14,8,22.75,0.00,24
$GPRMC,145718.000,A,5132.4717,N,00001.1666,W,3.83,264.42,170815,,,A*70,51.5411949157,-0.0194433021,14:57:18,17/8/2015,13,7,21.29,0.00,25
$GPRMC,145719.000,A,5132.4719,N,00001.1681,W,3.46,276.58,170815,,,A*77,51.5411949157,-0.0194683017,14:57:19,17/8/2015,11,0,21.29,0.00,25
$GPRMC,145720.000,A,5132.4719,N,00001.1697,W,3.98,262.76,170815,,,A*70,51.5411949157,-0.0194950008,14:57:20,17/8/2015,15,2,21.78,0.00,27
$GPRMC,145721.000,A,5132.4719,N,00001.1713,W,3.26,262.40,170815,,,A*7C,51.5411949157,-0.0195215997,14:57:20,17/8/2015,15,5,23.24,0.00,27
$GPRMC,145722.000,A,5132.4721,N,00001.1726,W,2.42,279.11,170815,,,A*7F,51.5412025451,-0.0195432996,14:57:22,17/8/2015,14,0,22.27,0.00,25
$GPRMC,145723.000,A,5132.4721,N,00001.1739,W,2.85,274.69,170815,,,A*79,51.5412025451,-0.0195649995,14:57:23,17/8/2015,13,3,23.24,0.00,24
$GPRMC,145724.000,A,5132.4724,N,00001.1753,W,2.64,278.10,170815,,,A*7A,51.5412025451,-0.0195883007,14:57:24,17/8/2015,15,2,21.78,0.00,25
$GPRMC,145725.000,A,5132.4724,N,00001.1766,W,2.60,268.16,170815,,,A*7E,51.5412025451,-0.0196100006,14:57:24,17/8/2015,15,0,21.78,0.00,24
$GPRMC,145726.000,A,5132.4724,N,00001.1779,W,3.67,268.67,170815,,,A*73,51.5412025451,-0.0196316003,14:57:26,17/8/2015,14,8,22.27,0.00,25
$GPRMC,145727.000,A,5132.4725,N,00001.1791,W,2.82,272.34,170815,,,A*72,51.5412101745,-0.0196515989,14:57:27,17/8/2015,14,21,22.27,0.00,27
$GPRMC,145728.000,A,5132.4726,N,00001.1802,W,2.02,281.65,170815,,,A*7B,51.5412101745,-0.0196700019,14:57:28,17/8/2015,14,6,22.27,0.00,25
$GPRMC,145729.000,A,5132.4724,N,00001.1811,W,2.38,256.60,170815,,,A*7C,51.5412025451,-0.0196850004,14:57:28,17/8/2015,12,5,21.29,0.00,20
$GPRMC,145730.000,A,5132.4723,N,00001.1821,W,2.37,257.22,170815,,,A*78,51.5412025451,-0.0197016000,14:57:30,17/8/2015,14,0,21.78,0.00,21
$GPRMC,145731.000,A,5132.4721,N,00001.1834,W,4.17,264.35,170815,,,A*7D,51.5412025451,-0.0197232990,14:57:31,17/8/2015,14,0,21.29,0.00,25
$GPRMC,145732.000,A,5132.4720,N,00001.1849,W,3.43,263.83,170815,,,A*79,51.5412025451,-0.0197483005,14:57:32,17/8/2015,15,2,22.27,0.00,25
$GPRMC,145733.000,A,5132.4715,N,00001.1861,W,2.59,204.03,170815,,,A*77,51.5411949157,-0.0197683000,14:57:32,17/8/2015,12,10,21.29,0.00,25
$GPRMC,145734.000,A,5132.4714,N,00001.1867,W,1.39,221.19,170815,,,A*7E,51.5411872863,-0.0197783012,14:57:34,17/8/2015,14,4,21.78,0.00,23
$GPRMC,145735.000,A,5132.4713,N,00001.1876,W,4.06,266.79,170815,,,A*74,51.5411872863,-0.0197933006,14:57:35,17/8/2015,14,0,22.75,0.00,26
$GPRMC,145736.000,A,5132.4712,N,00001.1891,W,4.24,268.02,170815,,,A*7D,51.5411872863,-0.0198183002,14:57:36,17/8/2015,14,42,22.27,0.00,25
$GPRMC,145737.000,A,5132.4712,N,00001.1906,W,4.17,270.46,170815,,,A*7A,51.5411872863,-0.0198433017,14:57:36,17/8/2015,14,32,22.27,0.00,25
$GPRMC,145738.000,A,5132.4710,N,00001.1921,W,3.89,258.64,170815,,,A*78,51.5411872863,-0.0198683013,14:57:38,17/8/2015,12,9,22.27,0.00,26
