
$GPRMC,074153.000,A,5132.4493,N,00000.6770,W,0.26,292.85,180815,,,A*74,51.5408210754,-0.0112832999,7:41:53,18/8/2015,35,0,17.87,0.00,37
$GPRMC,074154.000,A,5132.4494,N,00000.6772,W,0.26,283.37,180815,,,A*7F,51.5408210754,-0.0112866008,7:41:54,18/8/2015,42,11,17.87,0.00,36
$GPRMC,074155.000,A,5132.4494,N,00000.6773,W,0.28,273.25,180815,,,A*7D,51.5408210754,-0.0112882995,7:41:55,18/8/2015,33,9,17.38,0.00,35
$GPRMC,074156.000,A,5132.4494,N,00000.6774,W,0.50,274.98,180815,,,A*77,51.5408210754,-0.0112900006,7:41:56,18/8/2015,32,0,18.36,0.00,36
$GPRMC,074157.000,A,5132.4494,N,00000.6776,W,0.76,269.75,180815,,,A*7F,51.5408210754,-0.0112933003,7:41:57,18/8/2015,32,13,18.36,0.00,38
$GPRMC,074158.000,A,5132.4495,N,00000.6784,W,1.02,271.21,180815,,,A*76,51.5408287048,-0.0113066005,7:41:58,18/8/2015,32,13,17.38,0.00,35
$GPRMC,074159.000,A,5132.4494,N,00000.6791,W,1.06,267.66,180815,,,A*72,51.5408210754,-0.0113182997,7:41:59,18/8/2015,28,14,17.87,0.00,41
$GPRMC,074200.000,A,5132.4494,N,00000.6798,W,1.16,269.03,180815,,,A*78,51.5408210754,-0.0113300001,7:42:0,18/8/2015,34,14,15.92,0.00,36
$GPRMC,074201.000,A,5132.4495,N,00000.6805,W,1.36,273.39,180815,,,A*73,51.5408287048,-0.0113416004,7:42:1,18/8/2015,39,13,16.41,0.00,42
$GPRMC,074202.000,A,5132.4496,N,00000.6813,W,1.48,272.98,180815,,,A*77,51.5408287048,-0.0113550007,7:42:2,18/8/2015,34,12,16.41,0.00,36
$GPRMC,074203.000,A,5132.4494,N,00000.6826,W,1.80,267.14,180815,,,A*76,51.5408210754,-0.0113766002,7:42:3,18/8/2015,32,0,16.89,0.00,36
$GPRMC,074204.000,A,5132.4495,N,00000.6835,W,1.73,269.86,180815,,,A*7B,51.5408287048,-0.0113915991,7:42:4,18/8/2015,31,0,16.89,0.00,37
$GPRMC,074205.000,A,5132.4495,N,00000.6844,W,1.65,264.55,180815,,,A*78,51.5408287048,-0.0114066004,7:42:5,18/8/2015,31,1,17.38,0.00,37
$GPRMC,074206.000,A,5132.4497,N,00000.6853,W,1.54,267.48,180815,,,A*72,51.5408287048,-0.0114215993,7:42:6,18/8/2015,28,14,17.38,0.00,34
$GPRMC,074207.000,A,5132.4495,N,00000.6862,W,1.64,263.36,180815,,,A*7D,51.5408287048,-0.0114366006,7:42:7,18/8/2015,35,12,16.89,0.00,51
$GPRMC,074208.000,A,5132.4494,N,00000.6871,W,1.79,262.00,180815,,,A*79,51.5408210754,-0.0114516007,7:42:8,18/8/2015,26,11,18.36,0.00,35
$GPRMC,074209.000,A,5132.4492,N,00000.6881,W,1.90,259.38,180815,,,A*75,51.5408210754,-0.0114683008,7:42:9,18/8/2015,32,14,16.89,0.00,30
$GPRMC,074210.000,A,5132.4482,N,00000.6892,W,2.08,254.02,180815,,,A*78,51.5408058166,-0.0114866006,7:42:10,18/8/2015,31,17,18.36,0.00,35
$GPRMC,074211.000,A,5132.4469,N,00000.6908,W,2.59,249.23,180815,,,A*75,51.5407791137,-0.0115133011,7:42:11,18/8/2015,28,12,17.38,0.00,35
$GPRMC,074212.000,A,5132.4463,N,00000.6926,W,2.89,251.42,180815,,,A*73,51.5407714843,-0.0115433001,7:42:12,18/8/2015,39,11,20.31,0.00,38
$GPRMC,074213.000,A,5132.4458,N,00000.6938,W,2.92,248.76,180815,,,A*70,51.5407638549,-0.0115632998,7:42:13,18/8/2015,26,11,16.41,0.00,35
$GPRMC,074214.000,A,5132.4452,N,00000.6954,W,2.95,247.27,180815,,,A*7B,51.5407562255,-0.0115900003,7:42:14,18/8/2015,31,16,15.43,0.00,28
$GPRMC,074215.000,A,5132.4449,N,00000.6970,W,2.06,257.44,180815,,,A*78,51.5407485961,-0.0116166007,7:42:15,18/8/2015,31,14,20.31,0.00,35
$GPRMC,074216.000,A,5132.4449,N,00000.6985,W,1.23,273.03,180815,,,A*70,51.5407485961,-0.0116416001,7:42:16,18/8/2015,31,13,20.31,0.00,37
$GPRMC,074217.000,A,5132.4446,N,00000.6997,W,1.51,214.44,180815,,,A*7A,51.5407485961,-0.0116615998,7:42:17,18/8/2015,28,12,16.41,0.00,35
$GPRMC,074218.000,A,5132.4441,N,00000.7007,W,2.17,223.30,180815,,,A*75,51.5407371520,-0.0116782999,7:42:18,18/8/2015,31,14,14.45,0.00,24
$GPRMC,074219.000,A,5132.4435,N,00000.7019,W,2.83,223.30,180815,,,A*75,51.5407218933,-0.0116983008,7:42:19,18/8/2015,32,14,15.92,0.00,23
$GPRMC,074220.000,A,5132.4430,N,00000.7031,W,2.26,228.85,180815,,,A*7A,51.5407142639,-0.0117182993,7:42:20,18/8/2015,51,9,16.41,0.00,35
$GPRMC,074221.000,A,5132.4426,N,00000.7041,W,1.80,230.81,180815,,,A*79,51.5407066345,-0.0117350006,7:42:21,18/8/2015,54,33,19.34,0.00,43
$GPRMC,074222.000,A,5132.4420,N,00000.7055,W,2.61,233.74,180815,,,A*7C,51.5406990051,-0.0117583012,7:42:22,18/8/2015,39,5,18.36,81.00,56
$GPRMC,074223.000,A,5132.4416,N,00000.7066,W,2.54,236.92,180815,,,A*73,51.5406913757,-0.0117765998,7:42:23,18/8/2015,35,4,18.85,81.00,40
$GPRMC,074224.000,A,5132.4412,N,00000.7081,W,2.93,244.80,180815,,,A*74,51.5406913757,-0.0118016004,7:42:24,18/8/2015,35,0,17.87,81.00,39
$GPRMC,074225.000,A,5132.4410,N,00000.7092,W,2.03,251.73,180815,,,A*74,51.5406837463,-0.0118200004,7:42:25,18/8/2015,35,2,18.85,81.00,39
$GPRMC,074226.000,A,5132.4407,N,00000.7103,W,2.16,245.73,180815,,,A*79,51.5406837463,-0.0118383002,7:42:26,18/8/2015,35,15,18.36,81.00,39
$GPRMC,074227.000,A,5132.4409,N,00000.7113,W,0.93,22.39,180815,,,A*45,51.5406837463,-0.0118550003,7:42:27,18/8/2015,34,1,18.85,81.00,38
$GPRMC,074228.000,A,5132.4404,N,00000.7123,W,2.34,248.16,180815,,,A*78,51.5406723022,-0.0118716001,7:42:28,18/8/2015,34,4,17.87,81.00,38
$GPRMC,074229.000,A,5132.4396,N,00000.7137,W,4.03,233.20,180815,,,A*7B,51.5406570434,-0.0118949996,7:42:29,18/8/2015,34,1,17.38,81.00,37
$GPRMC,074230.000,A,5132.4389,N,00000.7154,W,4.20,239.92,180815,,,A*7A,51.5406494140,-0.0119232999,7:42:30,18/8/2015,34,0,17.87,81.00,38
$GPRMC,074231.000,A,5132.4381,N,00000.7170,W,3.93,236.41,180815,,,A*7B,51.5406341552,-0.0119500005,7:42:31,18/8/2015,34,0,17.38,81.00,37
$GPRMC,074232.000,A,5132.4376,N,00000.7182,W,1.69,197.96,180815,,,A*78,51.5406265258,-0.0119700002,7:42:32,18/8/2015,34,0,18.36,81.00,37
$GPRMC,074233.000,A,5132.4369,N,00000.7190,W,2.57,221.80,180815,,,A*73,51.5406150817,-0.0119833003,7:42:33,18/8/2015,33,2,18.36,81.00,37
$GPRMC,074234.000,A,5132.4363,N,00000.7204,W,3.40,228.31,180815,,,A*74,51.5406074523,-0.0120065999,7:42:34,18/8/2015,32,5,17.87,81.00,36
$GPRMC,074235.000,A,5132.4360,N,00000.7212,W,1.61,226.24,180815,,,A*7A,51.5405998229,-0.0120200014,7:42:35,18/8/2015,32,4,20.80,81.00,60
$GPRMC,074236.000,A,5132.4357,N,00000.7219,W,2.39,230.37,180815,,,A*7D,51.5405921936,-0.0120316004,7:42:36,18/8/2015,32,5,16.41,81.00,30
$GPRMC,074237.000,A,5132.4353,N,00000.7230,W,3.15,234.05,180815,,,A*79,51.5405845642,-0.0120500016,7:42:37,18/8/2015,32,7,18.85,81.00,33
$GPRMC,074238.000,A,5132.4348,N,00000.7240,W,3.40,235.95,180815,,,A*73,51.5405769348,-0.0120666015,7:42:38,18/8/2015,32,0,17.38,81.00,36
$GPRMC,074239.000,A,5132.4344,N,00000.7250,W,2.89,233.70,180815,,,A*76,51.5405769348,-0.0120833003,7:42:39,18/8/2015,32,7,18.36,81.00,32
$GPRMC,074240.000,A,5132.4337,N,00000.7261,W,3.65,221.94,180815,,,A*74,51.5405616760,-0.0121016013,7:42:40,18/8/2015,32,10,17.87,81.00,36
$GPRMC,074241.000,A,5132.4330,N,00000.7273,W,3.70,224.53,180815,,,A*7B,51.5405502319,-0.0121216011,7:42:41,18/8/2015,32,18,18.36,81.00,51
$GPRMC,074242.000,A,5132.4321,N,00000.7287,W,4.02,227.05,180815,,,A*71,51.5405349731,-0.0121450006,7:42:42,18/8/2015,31,14,14.45,81.00,36
$GPRMC,074243.000,A,5132.4315,N,00000.7301,W,2.47,207.46,180815,,,A*7A,51.5405273437,-0.0121683001,7:42:43,18/8/2015,33,17,17.87,81.00,23
$GPRMC,074244.000,A,5132.4306,N,00000.7308,W,3.35,208.66,180815,,,A*7F,51.5405120849,-0.0121800005,7:42:44,18/8/2015,31,6,17.87,81.00,36
$GPRMC,074245.000,A,5132.4299,N,00000.7319,W,2.99,216.54,180815,,,A*70,51.5404930114,-0.0121983003,7:42:45,18/8/2015,40,15,14.45,81.00,35
$GPRMC,074246.000,A,5132.4292,N,00000.7328,W,4.13,232.04,180815,,,A*7D,51.5404853820,-0.0122133004,7:42:46,18/8/2015,25,7,17.87,81.00,36
$GPRMC,074247.000,A,5132.4285,N,00000.7340,W,4.13,229.30,180815,,,A*79,51.5404777526,-0.0122333002,7:42:47,18/8/2015,31,9,17.38,81.00,36
$GPRMC,074248.000,A,5132.4279,N,00000.7351,W,3.45,228.56,180815,,,A*70,51.5404624938,-0.0122516012,7:42:48,18/8/2015,32,17,17.87,81.00,48
$GPRMC,074249.000,A,5132.4274,N,00000.7363,W,3.19,236.73,180815,,,A*7C,51.5404548645,-0.0122715997,7:42:49,18/8/2015,28,11,17.87,81.00,40
$GPRMC,074250.000,A,5132.4267,N,00000.7374,W,3.16,219.09,180815,,,A*7F,51.5404472351,-0.0122900009,7:42:50,18/8/2015,31,13,17.87,81.00,31
$GPRMC,074251.000,A,5132.4259,N,00000.7386,W,3.25,218.06,180815,,,A*70,51.5404281616,-0.0123099994,7:42:51,18/8/2015,31,14,17.87,81.00,36
$GPRMC,074252.000,A,5132.4254,N,00000.7393,W,2.70,220.63,180815,,,A*73,51.5404205322,-0.0123216009,7:42:52,18/8/2015,31,18,19.34,81.00,42
$GPRMC,074253.000,A,5132.4246,N,00000.7402,W,3.27,213.78,180815,,,A*77,51.5404129028,-0.0123366010,7:42:53,18/8/2015,33,8,17.87,57.00,35
$GPRMC,074254.000,A,5132.4240,N,00000.7411,W,2.56,219.56,180815,,,A*75,51.5403976440,-0.0123516011,7:42:54,18/8/2015,31,14,17.38,57.00,35
$GPRMC,074255.000,A,5132.4236,N,00000.7420,W,2.64,220.10,180815,,,A*7E,51.5403976440,-0.0123666012,7:42:55,18/8/2015,37,11,15.43,57.00,32
$GPRMC,074256.000,A,5132.4231,N,00000.7430,W,2.87,228.13,180815,,,A*7D,51.5403900146,-0.0123833000,7:42:56,18/8/2015,40,13,17.38,57.00,39
$GPRMC,074257.000,A,5132.4226,N,00000.7441,W,3.09,230.67,180815,,,A*71,51.5403709411,-0.0124015998,7:42:57,18/8/2015,30,16,16.89,57.00,35
$GPRMC,074258.000,A,5132.4220,N,00000.7453,W,3.50,231.45,180815,,,A*76,51.5403633117,-0.0124215996,7:42:58,18/8/2015,31,21,16.89,57.00,38
$GPRMC,074259.000,A,5132.4216,N,00000.7466,W,2.05,216.84,180815,,,A*7D,51.5403556823,-0.0124433004,7:42:59,18/8/2015,38,9,19.82,57.00,52
$GPRMC,074300.000,A,5132.4209,N,00000.7473,W,3.47,228.19,180815,,,A*74,51.5403480529,-0.0124550008,7:43:0,18/8/2015,31,13,16.89,57.00,35
$GPRMC,074301.000,A,5132.4204,N,00000.7481,W,2.69,220.17,180815,,,A*7E,51.5403404235,-0.0124682998,7:43:1,18/8/2015,31,14,20.80,57.00,49
$GPRMC,074302.000,A,5132.4196,N,00000.7491,W,3.43,226.09,180815,,,A*74,51.5403251647,-0.0124850010,7:43:2,18/8/2015,26,16,17.38,57.00,35
$GPRMC,074303.000,A,5132.4190,N,00000.7503,W,2.91,224.87,180815,,,A*73,51.5403175354,-0.0125050008,7:43:3,18/8/2015,31,11,17.38,57.00,29
$GPRMC,074304.000,A,5132.4184,N,00000.7513,W,3.52,229.70,180815,,,A*7B,51.5403060913,-0.0125216007,7:43:4,18/8/2015,28,13,17.38,57.00,42
$GPRMC,074305.000,A,5132.4178,N,00000.7527,W,3.41,228.33,180815,,,A*7A,51.5402984619,-0.0125450015,7:43:5,18/8/2015,32,14,17.38,57.00,35
$GPRMC,074306.000,A,5132.4174,N,00000.7538,W,2.78,235.33,180815,,,A*7C,51.5402908325,-0.0125633001,7:43:6,18/8/2015,29,13,17.38,57.00,35
$GPRMC,074307.000,A,5132.4167,N,00000.7550,W,3.59,224.68,180815,,,A*7D,51.5402755737,-0.0125833010,7:43:7,18/8/2015,33,22,17.87,57.00,38
$GPRMC,074308.000,A,5132.4162,N,00000.7562,W,3.58,232.38,180815,,,A*75,51.5402679443,-0.0126033008,7:43:8,18/8/2015,25,15,17.38,57.00,35
$GPRMC,074309.000,A,5132.4157,N,00000.7578,W,3.57,223.92,180815,,,A*76,51.5402603149,-0.0126300001,7:43:9,18/8/2015,25,13,17.38,57.00,34
$GPRMC,074310.000,A,5132.4150,N,00000.7591,W,3.68,218.62,180815,,,A*75,51.5402488708,-0.0126516008,7:43:10,18/8/2015,31,16,16.89,57.00,35
$GPRMC,074311.000,A,5132.4143,N,00000.7603,W,3.92,223.97,180815,,,A*79,51.5402336120,-0.0126716017,7:43:11,18/8/2015,31,7,15.43,57.00,35
$GPRMC,074312.000,A,5132.4137,N,00000.7613,W,3.16,228.08,180815,,,A*79,51.5402259826,-0.0126883006,7:43:12,18/8/2015,31,19,17.38,57.00,35
$GPRMC,074313.000,A,5132.4131,N,00000.7624,W,3.08,219.45,180815,,,A*7E,51.5402183532,-0.0127066016,7:43:13,18/8/2015,30,13,15.92,57.00,36
$GPRMC,074314.000,A,5132.4125,N,00000.7634,W,3.53,228.62,180815,,,A*74,51.5402107238,-0.0127233004,7:43:14,18/8/2015,33,3,16.89,57.00,36
$GPRMC,074315.000,A,5132.4118,N,00000.7646,W,3.73,230.64,180815,,,A*73,51.5401954650,-0.0127433001,7:43:15,18/8/2015,30,6,16.89,57.00,36
$GPRMC,074316.000,A,5132.4114,N,00000.7654,W,2.67,227.15,180815,,,A*7B,51.5401954650,-0.0127565991,7:43:16,18/8/2015,30,2,16.89,57.00,58
$GPRMC,074317.000,A,5132.4108,N,00000.7666,W,2.87,223.09,180815,,,A*71,51.5401763916,-0.0127766001,7:43:17,18/8/2015,30,5,17.38,57.00,50
$GPRMC,074318.000,A,5132.4102,N,00000.7674,W,2.78,227.45,180815,,,A*7B,51.5401687622,-0.0127900004,7:43:18,18/8/2015,30,0,17.38,57.00,38
$GPRMC,074319.000,A,5132.4096,N,00000.7686,W,3.33,233.94,180815,,,A*7C,51.5401611328,-0.0128100013,7:43:19,18/8/2015,30,0,16.41,57.00,37
$GPRMC,074320.000,A,5132.4091,N,00000.7699,W,3.39,241.90,180815,,,A*74,51.5401535034,-0.0128315997,7:43:20,18/8/2015,30,1,16.89,57.00,37
$GPRMC,074321.000,A,5132.4085,N,00000.7710,W,2.93,231.71,180815,,,A*79,51.5401458740,-0.0128499996,7:43:21,18/8/2015,30,2,16.89,57.00,37
$GPRMC,074322.000,A,5132.4080,N,00000.7719,W,2.82,228.81,180815,,,A*71,51.5401382446,-0.0128650009,7:43:22,18/8/2015,29,4,17.38,57.00,37
$GPRMC,074323.000,A,5132.4072,N,00000.7732,W,3.31,229.07,180815,,,A*72,51.5401191711,-0.0128866004,7:43:23,18/8/2015,30,4,16.89,12.00,37
$GPRMC,074324.000,A,5132.4067,N,00000.7744,W,3.26,239.91,180815,,,A*78,51.5401115417,-0.0129065990,7:43:24,18/8/2015,30,0,17.38,12.00,36
$GPRMC,074325.000,A,5132.4061,N,00000.7758,W,3.58,234.19,180815,,,A*76,51.5401039123,-0.0129300010,7:43:25,18/8/2015,31,5,16.41,12.00,36
$GPRMC,074326.000,A,5132.4055,N,00000.7769,W,3.31,227.61,180815,,,A*72,51.5400886535,-0.0129483008,7:43:26,18/8/2015,30,0,17.38,12.00,36
$GPRMC,074327.000,A,5132.4050,N,00000.7781,W,3.64,227.24,180815,,,A*71,51.5400810241,-0.0129683006,7:43:27,18/8/2015,32,0,16.41,12.00,37
$GPRMC,074328.000,A,5132.4042,N,00000.7793,W,3.51,223.77,180815,,,A*7A,51.5400733947,-0.0129883003,7:43:28,18/8/2015,32,0,16.89,12.00,36
$GPRMC,074329.000,A,5132.4035,N,00000.7804,W,3.63,229.61,180815,,,A*76,51.5400543212,-0.0130066013,7:43:29,18/8/2015,32,2,16.89,12.00,37
$GPRMC,074330.000,A,5132.4030,N,00000.7815,W,3.22,231.33,180815,,,A*70,51.5400466918,-0.0130250000,7:43:30,18/8/2015,45,7,17.38,12.00,36
$GPRMC,074331.000,A,5132.4030,N,00000.7825,W,2.12,238.09,180815,,,A*70,51.5400466918,-0.0130416011,7:43:31,18/8/2015,48,0,17.38,12.00,35
$GPRMC,074332.000,A,5132.4029,N,00000.7833,W,1.77,249.29,180815,,,A*78,51.5400466918,-0.0130550003,7:43:32,18/8/2015,45,9,17.38,12.00,32
$GPRMC,074333.000,A,5132.4032,N,00000.7839,W,0.96,286.91,180815,,,A*77,51.5400543212,-0.0130649995,7:43:33,18/8/2015,45,0,16.89,12.00,37
$GPRMC,074334.000,A,5132.4031,N,00000.7850,W,2.43,250.40,180815,,,A*71,51.5400543212,-0.0130833005,7:43:34,18/8/2015,41,2,16.89,12.00,36
$GPRMC,074335.000,A,5132.4031,N,00000.7861,W,2.93,252.18,180815,,,A*70,51.5400543212,-0.0131016016,7:43:35,18/8/2015,44,0,16.41,12.00,35
$GPRMC,074336.000,A,5132.4030,N,00000.7871,W,2.21,256.31,180815,,,A*75,51.5400466918,-0.0131183004,7:43:36,18/8/2015,45,0,17.38,12.00,36
$GPRMC,074337.000,A,5132.4031,N,00000.7880,W,1.78,264.26,180815,,,A*73,51.5400543212,-0.0131333005,7:43:37,18/8/2015,42,2,16.89,12.00,35
$GPRMC,074338.000,A,5132.4033,N,00000.7887,W,1.84,276.37,180815,,,A*79,51.5400543212,-0.0131450009,7:43:38,18/8/2015,38,7,16.89,12.00,35
$GPRMC,074339.000,A,5132.4038,N,00000.7896,W,1.96,291.63,180815,,,A*78,51.5400619506,-0.0131600010,7:43:39,18/8/2015,38,1,16.89,12.00,35
$GPRMC,074340.000,A,5132.4039,N,00000.7905,W,1.42,273.12,180815,,,A*7F,51.5400619506,-0.0131749999,7:43:40,18/8/2015,39,1,19.82,12.00,35
$GPRMC,074341.000,A,5132.4040,N,00000.7911,W,1.78,283.87,180815,,,A*7F,51.5400619506,-0.0131850004,7:43:41,18/8/2015,39,5,13.96,12.00,35
$GPRMC,074342.000,A,5132.4043,N,00000.7918,W,1.57,300.08,180815,,,A*76,51.5400733947,-0.0131966006,7:43:42,18/8/2015,38,5,18.36,12.00,36
$GPRMC,074343.000,A,5132.4045,N,00000.7927,W,2.26,297.79,180815,,,A*71,51.5400733947,-0.0132115983,7:43:43,18/8/2015,32,8,17.38,12.00,35
$GPRMC,074344.000,A,5132.4046,N,00000.7937,W,2.28,291.27,180815,,,A*77,51.5400810241,-0.0132282996,7:43:44,18/8/2015,39,9,15.43,12.00,35
$GPRMC,074345.000,A,5132.4050,N,00000.7947,W,1.98,291.35,180815,,,A*7D,51.5400810241,-0.0132449996,7:43:45,18/8/2015,26,12,20.80,12.00,22
$GPRMC,074346.000,A,5132.4056,N,00000.7955,W,1.65,298.12,180815,,,A*75,51.5400962829,-0.0132582998,7:43:46,18/8/2015,31,8,17.38,12.00,35
$GPRMC,074347.000,A,5132.4059,N,00000.7960,W,1.52,308.40,180815,,,A*76,51.5400962829,-0.0132665991,7:43:47,18/8/2015,30,10,16.89,12.00,35
$GPRMC,074348.000,A,5132.4063,N,00000.7967,W,1.86,312.48,180815,,,A*7D,51.5401039123,-0.0132783007,7:43:48,18/8/2015,34,9,16.41,12.00,50
$GPRMC,074349.000,A,5132.4068,N,00000.7974,W,2.08,317.61,180815,,,A*7E,51.5401115417,-0.0132900011,7:43:49,18/8/2015,38,8,14.94,12.00,35
$GPRMC,074350.000,A,5132.4071,N,00000.7982,W,2.14,312.46,180815,,,A*7A,51.5401191711,-0.0133033013,7:43:50,18/8/2015,43,6,14.94,12.00,35
$GPRMC,074351.000,A,5132.4076,N,00000.7992,W,2.35,313.67,180815,,,A*7C,51.5401268005,-0.0133200001,7:43:51,18/8/2015,43,12,16.89,12.00,34
$GPRMC,074352.000,A,5132.4079,N,00000.8001,W,2.01,311.15,180815,,,A*7C,51.5401268005,-0.0133350014,7:43:52,18/8/2015,40,8,22.27,12.00,36
$GPRMC,074353.000,A,5132.4085,N,00000.8012,W,2.25,313.93,180815,,,A*76,51.5401458740,-0.0133533000,7:43:53,18/8/2015,35,8,16.89,85.00,35
$GPRMC,074354.000,A,5132.4094,N,00000.8024,W,2.60,300.92,180815,,,A*76,51.5401535034,-0.0133733010,7:43:54,18/8/2015,42,5,17.38,85.00,36
$GPRMC,074355.000,A,5132.4100,N,00000.8035,W,2.39,303.87,180815,,,A*70,51.5401687622,-0.0133916008,7:43:55,18/8/2015,43,11,19.34,85.00,22
$GPRMC,074356.000,A,5132.4103,N,00000.8044,W,2.26,309.92,180815,,,A*76,51.5401687622,-0.0134066009,7:43:56,18/8/2015,41,7,16.41,85.00,35
$GPRMC,074357.000,A,5132.4109,N,00000.8055,W,2.38,304.63,180815,,,A*71,51.5401840209,-0.0134250020,7:43:57,18/8/2015,39,0,16.89,85.00,36
$GPRMC,074358.000,A,5132.4110,N,00000.8061,W,1.80,306.45,180815,,,A*77,51.5401840209,-0.0134350001,7:43:58,18/8/2015,44,10,16.89,85.00,36
$GPRMC,074359.000,A,5132.4114,N,00000.8070,W,1.79,303.92,180815,,,A*7B,51.5401954650,-0.0134500002,7:43:59,18/8/2015,44,11,16.89,85.00,35
$GPRMC,074400.000,A,5132.4121,N,00000.8079,W,2.27,317.40,180815,,,A*7D,51.5402030944,-0.0134650003,7:44:0,18/8/2015,41,10,16.89,85.00,34
$GPRMC,074401.000,A,5132.4127,N,00000.8088,W,2.19,314.57,180815,,,A*7C,51.5402107238,-0.0134800016,7:44:1,18/8/2015,42,10,20.31,85.00,23
$GPRMC,074402.000,A,5132.4130,N,00000.8094,W,1.76,311.38,180815,,,A*72,51.5402183532,-0.0134899997,7:44:2,18/8/2015,36,7,17.38,85.00,34
$GPRMC,074403.000,A,5132.4138,N,00000.8101,W,2.03,315.33,180815,,,A*78,51.5402259826,-0.0135016012,7:44:3,18/8/2015,45,11,17.87,85.00,39
$GPRMC,074404.000,A,5132.4142,N,00000.8108,W,2.10,306.80,180815,,,A*73,51.5402336120,-0.0135133004,7:44:4,18/8/2015,43,12,14.45,85.00,22
$GPRMC,074405.000,A,5132.4145,N,00000.8118,W,2.43,286.88,180815,,,A*73,51.5402412414,-0.0135299992,7:44:5,18/8/2015,45,9,16.89,85.00,33
$GPRMC,074406.000,A,5132.4149,N,00000.8125,W,1.77,301.35,180815,,,A*7E,51.5402488708,-0.0135416007,7:44:6,18/8/2015,40,7,14.94,85.00,42
$GPRMC,074407.000,A,5132.4152,N,00000.8133,W,2.17,267.27,180815,,,A*75,51.5402488708,-0.0135550010,7:44:7,18/8/2015,33,9,15.92,85.00,48
$GPRMC,074408.000,A,5132.4154,N,00000.8143,W,1.96,283.62,180815,,,A*7A,51.5402603149,-0.0135716009,7:44:8,18/8/2015,41,8,16.89,85.00,34
$GPRMC,074409.000,A,5132.4156,N,00000.8151,W,1.73,288.44,180815,,,A*7E,51.5402603149,-0.0135850000,7:44:9,18/8/2015,45,14,16.89,85.00,34
$GPRMC,074410.000,A,5132.4158,N,00000.8157,W,1.46,292.50,180815,,,A*76,51.5402679443,-0.0135950016,7:44:10,18/8/2015,37,10,17.38,85.00,33
$GPRMC,074411.000,A,5132.4162,N,00000.8164,W,1.65,298.80,180815,,,A*78,51.5402679443,-0.0136066019,7:44:11,18/8/2015,36,13,20.80,85.00,35
$GPRMC,074412.000,A,5132.4163,N,00000.8172,W,1.56,285.21,180815,,,A*7A,51.5402755737,-0.0136200010,7:44:12,18/8/2015,43,11,20.80,85.00,31
$GPRMC,074413.000,A,5132.4163,N,00000.8177,W,1.37,279.86,180815,,,A*77,51.5402755737,-0.0136283016,7:44:13,18/8/2015,32,13,14.45,85.00,33
$GPRMC,074414.000,A,5132.4166,N,00000.8186,W,1.75,276.20,180815,,,A*7E,51.5402755737,-0.0136433005,7:44:14,18/8/2015,39,4,16.89,85.00,33
$GPRMC,074415.000,A,5132.4174,N,00000.8194,W,1.51,291.49,180815,,,A*7F,51.5402908325,-0.0136565995,7:44:15,18/8/2015,39,11,14.94,85.00,37
$GPRMC,074416.000,A,5132.4178,N,00000.8203,W,1.84,286.93,180815,,,A*74,51.5402984619,-0.0136716008,7:44:16,18/8/2015,39,12,16.89,85.00,48
$GPRMC,074417.000,A,5132.4183,N,00000.8211,W,1.76,296.11,180815,,,A*74,51.5403060913,-0.0136850011,7:44:17,18/8/2015,37,15,16.89,85.00,34
$GPRMC,074418.000,A,5132.4187,N,00000.8219,W,1.82,288.51,180815,,,A*77,51.5403060913,-0.0136983013,7:44:18,18/8/2015,42,8,16.89,85.00,27
$GPRMC,074419.000,A,5132.4196,N,00000.8225,W,1.09,317.83,180815,,,A*72,51.5403251647,-0.0137082993,7:44:19,18/8/2015,41,4,16.41,85.00,33
$GPRMC,074420.000,A,5132.4201,N,00000.8229,W,1.24,301.19,180815,,,A*72,51.5403327941,-0.0137150001,7:44:20,18/8/2015,38,15,-48.54,85.00,33
$GPRMC,074421.000,A,5132.4202,N,00000.8232,W,1.05,309.58,180815,,,A*74,51.5403404235,-0.0137200009,7:44:21,18/8/2015,36,1,16.89,85.00,33
$GPRMC,074422.000,A,5132.4203,N,00000.8238,W,1.69,275.38,180815,,,A*7A,51.5403404235,-0.0137300014,7:44:22,18/8/2015,36,5,17.38,85.00,33
$GPRMC,074423.000,A,5132.4205,N,00000.8244,W,1.38,262.45,180815,,,A*7E,51.5403404235,-0.0137400007,7:44:23,18/8/2015,37,25,16.89,85.00,32
$GPRMC,074425.000,A,5132.4214,N,00000.8258,W,1.37,284.80,180815,,,A*7B,51.5403556823,-0.0137632989,7:44:25,18/8/2015,38,8,17.38,622.00,34
$GPRMC,074426.000,A,5132.4219,N,00000.8266,W,1.82,290.39,180815,,,A*71,51.5403633117,-0.0137766003,7:44:26,18/8/2015,36,16,16.41,622.00,33
$GPRMC,074427.000,A,5132.4225,N,00000.8276,W,2.19,289.82,180815,,,A*77,51.5403709411,-0.0137933015,7:44:27,18/8/2015,39,10,16.89,622.00,31
$GPRMC,074428.000,A,5132.4232,N,00000.8289,W,2.39,279.26,180815,,,A*7D,51.5403900146,-0.0138150000,7:44:28,18/8/2015,42,8,16.89,622.00,32
$GPRMC,074429.000,A,5132.4237,N,00000.8299,W,1.80,291.63,180815,,,A*7E,51.5403976440,-0.0138316011,7:44:29,18/8/2015,40,22,16.89,622.00,33
$GPRMC,074430.000,A,5132.4238,N,00000.8306,W,1.77,299.32,180815,,,A*7A,51.5403976440,-0.0138433003,7:44:30,18/8/2015,37,3,16.89,622.00,33
$GPRMC,074431.000,A,5132.4242,N,00000.8314,W,1.97,299.56,180815,,,A*79,51.5404052734,-0.0138566017,7:44:31,18/8/2015,36,0,17.38,622.00,32
$GPRMC,074432.000,A,5132.4246,N,00000.8323,W,2.29,301.84,180815,,,A*73,51.5404129028,-0.0138715993,7:44:32,18/8/2015,39,0,17.38,622.00,32
$GPRMC,074433.000,A,5132.4252,N,00000.8332,W,2.25,311.82,180815,,,A*7C,51.5404205322,-0.0138866006,7:44:33,18/8/2015,44,1,16.41,622.00,33
$GPRMC,074434.000,A,5132.4281,N,00000.8352,W,2.50,306.07,180815,,,A*7A,51.5404701232,-0.0139199995,7:44:34,18/8/2015,45,7,15.92,622.00,35
$GPRMC,074435.000,A,5132.4285,N,00000.8359,W,1.98,302.47,180815,,,A*73,51.5404777526,-0.0139316010,7:44:35,18/8/2015,38,10,17.87,622.00,31
$GPRMC,074436.000,A,5132.4293,N,00000.8372,W,2.30,295.51,180815,,,A*77,51.5404853820,-0.0139532995,7:44:36,18/8/2015,40,16,17.38,622.00,31
$GPRMC,074437.000,A,5132.4301,N,00000.8383,W,2.09,303.84,180815,,,A*7E,51.5405044555,-0.0139716005,7:44:37,18/8/2015,41,11,14.45,622.00,48
$GPRMC,074438.000,A,5132.4302,N,00000.8394,W,2.63,290.37,180815,,,A*7B,51.5405044555,-0.0139900016,7:44:38,18/8/2015,45,0,16.89,622.00,34
$GPRMC,074439.000,A,5132.4302,N,00000.8407,W,2.74,282.94,180815,,,A*7B,51.5405044555,-0.0140116000,7:44:39,18/8/2015,40,2,17.38,622.00,33
$GPRMC,074440.000,A,5132.4306,N,00000.8416,W,2.18,293.43,180815,,,A*71,51.5405120849,-0.0140265998,7:44:40,18/8/2015,37,7,18.85,622.00,37
$GPRMC,074441.000,A,5132.4308,N,00000.8425,W,2.13,295.81,180815,,,A*7D,51.5405120849,-0.0140416011,7:44:41,18/8/2015,37,0,16.41,622.00,28
$GPRMC,074442.000,A,5132.4321,N,00000.8440,W,2.58,292.80,180815,,,A*7F,51.5405349731,-0.0140666007,7:44:42,18/8/2015,41,0,16.89,622.00,27
$GPRMC,074443.000,A,5132.4331,N,00000.8454,W,2.36,306.76,180815,,,A*77,51.5405502319,-0.0140900001,7:44:43,18/8/2015,40,4,16.89,622.00,30
$GPRMC,074444.000,A,5132.4340,N,00000.8466,W,2.82,317.53,180815,,,A*7F,51.5405693054,-0.0141100001,7:44:44,18/8/2015,37,1,15.92,622.00,32
$GPRMC,074445.000,A,5132.4352,N,00000.8479,W,3.09,301.55,180815,,,A*70,51.5405845642,-0.0141316008,7:44:45,18/8/2015,36,0,16.89,622.00,33
$GPRMC,074446.000,A,5132.4358,N,00000.8489,W,2.61,297.10,180815,,,A*76,51.5405998229,-0.0141483011,7:44:46,18/8/2015,36,1,17.38,622.00,33
$GPRMC,074447.000,A,5132.4360,N,00000.8497,W,2.17,289.21,180815,,,A*7F,51.5405998229,-0.0141616001,7:44:47,18/8/2015,40,0,16.89,622.00,32
$GPRMC,074448.000,A,5132.4366,N,00000.8505,W,1.54,289.80,180815,,,A*73,51.5406074523,-0.0141750001,7:44:48,18/8/2015,40,4,16.89,622.00,37
$GPRMC,074449.000,A,5132.4372,N,00000.8512,W,1.32,282.93,180815,,,A*78,51.5406150817,-0.0141866016,7:44:49,18/8/2015,30,9,17.38,622.00,22
$GPRMC,074450.000,A,5132.4379,N,00000.8519,W,1.25,304.12,180815,,,A*70,51.5406341552,-0.0141983008,7:44:50,18/8/2015,36,10,16.89,622.00,43
$GPRMC,074451.000,A,5132.4379,N,00000.8526,W,1.41,285.09,180815,,,A*7D,51.5406341552,-0.0142100000,7:44:51,18/8/2015,39,3,15.43,622.00,34
$GPRMC,074452.000,A,5132.4404,N,00000.8543,W,1.71,279.43,180815,,,A*7E,51.5406723022,-0.0142383003,7:44:52,18/8/2015,39,0,16.89,622.00,32
$GPRMC,074453.000,A,5132.4407,N,00000.8552,W,1.72,267.59,180815,,,A*7B,51.5406837463,-0.0142533006,7:44:53,18/8/2015,38,14,16.89,622.00,32
$GPRMC,074454.000,A,5132.4412,N,00000.8562,W,1.74,260.89,180815,,,A*77,51.5406913757,-0.0142700014,7:44:54,18/8/2015,34,3,16.89,622.00,32
$GPRMC,074455.000,A,5132.4415,N,00000.8569,W,1.43,278.84,180815,,,A*7A,51.5406913757,-0.0142816009,7:44:55,18/8/2015,32,7,16.41,96.00,32
$GPRMC,074456.000,A,5132.4417,N,00000.8578,W,1.58,270.20,180815,,,A*77,51.5406990051,-0.0142966008,7:44:56,18/8/2015,30,2,16.89,96.00,32
$GPRMC,074457.000,A,5132.4419,N,00000.8586,W,1.70,268.37,180815,,,A*7C,51.5406990051,-0.0143100013,7:44:57,18/8/2015,29,3,16.89,96.00,32
$GPRMC,074458.000,A,5132.4422,N,00000.8597,W,1.95,268.41,180815,,,A*71,51.5407066345,-0.0143283009,7:44:58,18/8/2015,31,5,19.34,96.00,34
$GPRMC,074459.000,A,5132.4424,N,00000.8605,W,1.53,282.24,180815,,,A*73,51.5407066345,-0.0143416023,7:44:59,18/8/2015,30,11,16.89,96.00,32
$GPRMC,074500.000,A,5132.4425,N,00000.8610,W,1.23,290.71,180815,,,A*7F,51.5407066345,-0.0143499994,7:45:0,18/8/2015,30,6,17.38,96.00,28
$GPRMC,074501.000,A,5132.4428,N,00000.8616,W,1.24,291.16,180815,,,A*72,51.5407142639,-0.0143599996,7:45:1,18/8/2015,31,1,16.41,96.00,33
$GPRMC,074502.000,A,5132.4429,N,00000.8622,W,1.47,267.62,180815,,,A*78,51.5407142639,-0.0143700003,7:45:2,18/8/2015,31,2,16.89,96.00,33
$GPRMC,074503.000,A,5132.4430,N,00000.8629,W,1.74,263.27,180815,,,A*7F,51.5407142639,-0.0143816003,7:45:3,18/8/2015,32,1,16.89,96.00,34
$GPRMC,074504.000,A,5132.4431,N,00000.8635,W,1.03,278.94,180815,,,A*76,51.5407142639,-0.0143915996,7:45:4,18/8/2015,35,2,17.38,96.00,19
$GPRMC,074505.000,A,5132.4430,N,00000.8643,W,2.20,257.65,180815,,,A*76,51.5407142639,-0.0144050002,7:45:5,18/8/2015,35,2,16.89,96.00,32
$GPRMC,074506.000,A,5132.4433,N,00000.8652,W,1.39,277.73,180815,,,A*78,51.5407218933,-0.0144200015,7:45:6,18/8/2015,40,0,16.89,96.00,32
$GPRMC,074507.000,A,5132.4435,N,00000.8660,W,1.85,263.41,180815,,,A*7D,51.5407218933,-0.0144333004,7:45:7,18/8/2015,38,3,16.89,96.00,32
$GPRMC,074508.000,A,5132.4439,N,00000.8669,W,1.34,265.66,180815,,,A*7E,51.5407295227,-0.0144483017,7:45:8,18/8/2015,34,0,16.89,96.00,32
$GPRMC,074509.000,A,5132.4472,N,00000.8692,W,1.58,275.67,180815,,,A*7E,51.5407867431,-0.0144865999,7:45:9,18/8/2015,37,1,16.89,96.00,33
$GPRMC,074510.000,A,5132.4479,N,00000.8700,W,1.21,282.93,180815,,,A*7A,51.5407943725,-0.0145000004,7:45:10,18/8/2015,42,2,17.38,96.00,31
$GPRMC,074511.000,A,5132.4491,N,00000.8709,W,1.48,318.32,180815,,,A*72,51.5408210754,-0.0145150003,7:45:11,18/8/2015,41,0,17.38,96.00,32
$GPRMC,074512.000,A,5132.4501,N,00000.8717,W,1.68,303.71,180815,,,A*79,51.5408363342,-0.0145283007,7:45:12,18/8/2015,39,6,15.43,96.00,31
$GPRMC,074513.000,A,5132.4510,N,00000.8725,W,1.78,304.24,180815,,,A*7F,51.5408515930,-0.0145415997,7:45:13,18/8/2015,34,3,16.41,96.00,31
$GPRMC,074514.000,A,5132.4518,N,00000.8733,W,2.00,304.71,180815,,,A*7B,51.5408592224,-0.0145550012,7:45:14,18/8/2015,39,1,16.89,96.00,32
$GPRMC,074515.000,A,5132.4529,N,00000.8743,W,2.26,313.64,180815,,,A*79,51.5408859252,-0.0145716009,7:45:15,18/8/2015,41,0,17.38,96.00,31
$GPRMC,074516.000,A,5132.4536,N,00000.8751,W,2.17,324.48,180815,,,A*7F,51.5408935546,-0.0145850000,7:45:16,18/8/2015,43,1,16.89,96.00,32
$GPRMC,074517.000,A,5132.4541,N,00000.8758,W,2.18,312.01,180815,,,A*70,51.5409011840,-0.0145965995,7:45:17,18/8/2015,44,1,17.38,96.00,32
$GPRMC,074518.000,A,5132.4544,N,00000.8765,W,1.79,301.01,180815,,,A*72,51.5409088134,-0.0146082997,7:45:18,18/8/2015,40,3,16.89,96.00,28
$GPRMC,074519.000,A,5132.4549,N,00000.8773,W,1.58,294.65,180815,,,A*75,51.5409164428,-0.0146216011,7:45:19,18/8/2015,42,5,16.41,96.00,32
$GPRMC,074520.000,A,5132.4556,N,00000.8781,W,1.44,313.75,180815,,,A*7E,51.5409278869,-0.0146350002,7:45:20,18/8/2015,51,7,16.89,96.00,33
$GPRMC,074521.000,A,5132.4557,N,00000.8787,W,1.38,289.40,180815,,,A*77,51.5409278869,-0.0146449995,7:45:21,18/8/2015,43,4,16.89,96.00,33
$GPRMC,074522.000,A,5132.4561,N,00000.8795,W,1.14,285.17,180815,,,A*72,51.5409355163,-0.0146583008,7:45:22,18/8/2015,38,0,16.89,96.00,33
$GPRMC,074523.000,A,5132.4564,N,00000.8802,W,1.05,274.02,180815,,,A*7D,51.5409431457,-0.0146700010,7:45:23,18/8/2015,37,7,16.89,96.00,22
$GPRMC,074524.000,A,5132.4565,N,00000.8809,W,1.62,261.22,180815,,,A*77,51.5409431457,-0.0146816015,7:45:24,18/8/2015,39,1,16.89,96.00,33
$GPRMC,074525.000,A,5132.4566,N,00000.8816,W,1.34,267.20,180815,,,A*7C,51.5409431457,-0.0146933021,7:45:25,18/8/2015,44,0,16.89,96.00,32
$GPRMC,074526.000,A,5132.4573,N,00000.8824,W,1.50,275.58,180815,,,A*74,51.5409584045,-0.0147065997,7:45:26,18/8/2015,42,0,16.89,91.00,32
$GPRMC,074527.000,A,5132.4578,N,00000.8833,W,1.40,290.08,180815,,,A*77,51.5409660339,-0.0147216010,7:45:27,18/8/2015,38,4,15.92,91.00,33
$GPRMC,074528.000,A,5132.4581,N,00000.8843,W,2.03,278.90,180815,,,A*7A,51.5409660339,-0.0147382998,7:45:28,18/8/2015,39,9,15.92,91.00,32
$GPRMC,074529.000,A,5132.4583,N,00000.8852,W,1.66,289.84,180815,,,A*72,51.5409736633,-0.0147532997,7:45:29,18/8/2015,44,0,16.89,91.00,32
$GPRMC,074530.000,A,5132.4583,N,00000.8862,W,2.28,264.47,180815,,,A*7C,51.5409736633,-0.0147699999,7:45:30,18/8/2015,47,5,17.38,91.00,32
$GPRMC,074531.000,A,5132.4589,N,00000.8870,W,1.77,272.04,180815,,,A*7D,51.5409812927,-0.0147833013,7:45:31,18/8/2015,44,4,16.89,91.00,32
$GPRMC,074532.000,A,5132.4594,N,00000.8879,W,1.48,283.23,180815,,,A*7C,51.5409927368,-0.0147983002,7:45:32,18/8/2015,38,0,17.38,91.00,32
$GPRMC,074533.000,A,5132.4598,N,00000.8888,W,1.89,287.76,180815,,,A*76,51.5410003662,-0.0148133015,7:45:33,18/8/2015,38,11,16.41,91.00,24
$GPRMC,074534.000,A,5132.4601,N,00000.8898,W,1.99,271.17,180815,,,A*7C,51.5410003662,-0.0148299989,7:45:34,18/8/2015,43,0,17.38,91.00,32
$GPRMC,074535.000,A,5132.4604,N,00000.8908,W,1.44,299.94,180815,,,A*7D,51.5410079956,-0.0148465991,7:45:35,18/8/2015,40,3,16.89,91.00,32
$GPRMC,074536.000,A,5132.4610,N,00000.8916,W,1.90,284.81,180815,,,A*75,51.5410156250,-0.0148600006,7:45:36,18/8/2015,37,1,16.89,91.00,26
$GPRMC,074537.000,A,5132.4612,N,00000.8926,W,2.31,266.86,180815,,,A*76,51.5410232543,-0.0148766016,7:45:37,18/8/2015,35,3,17.38,91.00,32
$GPRMC,074538.000,A,5132.4617,N,00000.8934,W,1.48,263.25,180815,,,A*7E,51.5410308837,-0.0148900008,7:45:38,18/8/2015,35,0,16.89,91.00,31
$GPRMC,074539.000,A,5132.4625,N,00000.8942,W,1.43,300.69,180815,,,A*78,51.5410385131,-0.0149033012,7:45:39,18/8/2015,39,0,17.38,91.00,32
$GPRMC,074540.000,A,5132.4636,N,00000.8953,W,2.13,309.96,180815,,,A*7B,51.5410575866,-0.0149216008,7:45:40,18/8/2015,42,1,16.89,91.00,32
$GPRMC,074541.000,A,5132.4644,N,00000.8966,W,2.00,296.05,180815,,,A*76,51.5410728454,-0.0149433002,7:45:41,18/8/2015,39,0,17.38,91.00,35
$GPRMC,074542.000,A,5132.4658,N,00000.8979,W,1.97,302.09,180815,,,A*7B,51.5410957336,-0.0149650001,7:45:42,18/8/2015,34,0,16.89,91.00,32
$GPRMC,074543.000,A,5132.4673,N,00000.8993,W,2.62,307.12,180815,,,A*71,51.5411224365,-0.0149883008,7:45:43,18/8/2015,38,0,16.41,91.00,31
$GPRMC,074544.000,A,5132.4682,N,00000.9006,W,2.46,304.54,180815,,,A*7B,51.5411376953,-0.0150100002,7:45:44,18/8/2015,41,0,15.43,91.00,32
$GPRMC,074545.000,A,5132.4693,N,00000.9018,W,2.36,303.74,180815,,,A*77,51.5411529541,-0.0150300002,7:45:45,18/8/2015,41,3,16.41,91.00,32
$GPRMC,074546.000,A,5132.4726,N,00000.9041,W,2.31,301.36,180815,,,A*74,51.5412101745,-0.0150683021,7:45:46,18/8/2015,38,1,16.41,91.00,33
$GPRMC,074547.000,A,5132.4733,N,00000.9051,W,2.34,293.85,180815,,,A*77,51.5412178039,-0.0150850000,7:45:47,18/8/2015,34,2,16.89,91.00,32
$GPRMC,074548.000,A,5132.4738,N,00000.9061,W,2.05,302.56,180815,,,A*75,51.5412254333,-0.0151015996,7:45:48,18/8/2015,39,1,16.89,91.00,32
$GPRMC,074549.000,A,5132.4745,N,00000.9073,W,2.29,299.68,180815,,,A*7D,51.5412445068,-0.0151216006,7:45:49,18/8/2015,42,4,15.92,91.00,32
$GPRMC,074550.000,A,5132.4768,N,00000.9091,W,2.27,301.65,180815,,,A*75,51.5412750244,-0.0151516008,7:45:50,18/8/2015,40,0,17.38,91.00,32
$GPRMC,074551.000,A,5132.4775,N,00000.9103,W,2.51,301.89,180815,,,A*71,51.5412940979,-0.0151716003,7:45:51,18/8/2015,34,1,15.43,91.00,32
$GPRMC,074552.000,A,5132.4783,N,00000.9114,W,1.97,309.31,180815,,,A*7F,51.5413093566,-0.0151900005,7:45:52,18/8/2015,33,1,16.89,91.00,32
$GPRMC,074553.000,A,5132.4791,N,00000.9125,W,2.31,305.55,180815,,,A*7E,51.5413169860,-0.0152083015,7:45:53,18/8/2015,33,3,17.38,91.00,32
$GPRMC,074554.000,A,5132.4795,N,00000.9137,W,2.51,284.35,180815,,,A*76,51.5413246154,-0.0152283000,7:45:54,18/8/2015,32,0,16.89,91.00,31
$GPRMC,074555.000,A,5132.4798,N,00000.9149,W,2.27,276.90,180815,,,A*70,51.5413322448,-0.0152482995,7:45:55,18/8/2015,32,3,16.89,91.00,31
$GPRMC,074556.000,A,5132.4800,N,00000.9160,W,2.14,277.32,180815,,,A*7F,51.5413322448,-0.0152665996,7:45:56,18/8/2015,32,2,16.89,89.00,32
$GPRMC,074557.000,A,5132.4801,N,00000.9170,W,2.05,286.35,180815,,,A*77,51.5413322448,-0.0152832994,7:45:57,18/8/2015,30,6,14.94,89.00,48
$GPRMC,074558.000,A,5132.4805,N,00000.9178,W,1.61,302.55,180815,,,A*7E,51.5413398742,-0.0152965998,7:45:58,18/8/2015,29,0,15.92,89.00,31
$GPRMC,074559.000,A,5132.4811,N,00000.9187,W,1.83,307.71,180815,,,A*75,51.5413475036,-0.0153115997,7:45:59,18/8/2015,30,0,17.38,89.00,29
$GPRMC,074600.000,A,5132.4815,N,00000.9195,W,1.76,312.18,180815,,,A*7C,51.5413589477,-0.0153250002,7:46:0,18/8/2015,30,2,16.89,89.00,32
$GPRMC,074601.000,A,5132.4819,N,00000.9203,W,1.91,301.58,180815,,,A*72,51.5413665771,-0.0153383007,7:46:1,18/8/2015,31,0,16.89,89.00,32
$GPRMC,074602.000,A,5132.4821,N,00000.9214,W,2.35,290.44,180815,,,A*75,51.5413665771,-0.0153566002,7:46:2,18/8/2015,31,0,17.38,89.00,31
$GPRMC,074603.000,A,5132.4825,N,00000.9225,W,2.31,291.55,180815,,,A*77,51.5413742065,-0.0153750000,7:46:3,18/8/2015,33,2,16.89,89.00,32
$GPRMC,074604.000,A,5132.4831,N,00000.9236,W,2.18,309.11,180815,,,A*7C,51.5413818359,-0.0153933000,7:46:4,18/8/2015,39,0,16.89,89.00,26
$GPRMC,074605.000,A,5132.4836,N,00000.9247,W,2.28,297.03,180815,,,A*7A,51.5413894653,-0.0154116010,7:46:5,18/8/2015,40,1,16.89,89.00,32
$GPRMC,074606.000,A,5132.4839,N,00000.9257,W,1.88,304.71,180815,,,A*70,51.5413970947,-0.0154283022,7:46:6,18/8/2015,33,0,17.38,89.00,31
$GPRMC,074607.000,A,5132.4846,N,00000.9265,W,2.03,310.98,180815,,,A*7A,51.5414047241,-0.0154415988,7:46:7,18/8/2015,31,0,16.89,89.00,31
$GPRMC,074608.000,A,5132.4852,N,00000.9274,W,2.30,315.12,180815,,,A*77,51.5414237976,-0.0154566001,7:46:8,18/8/2015,30,0,15.43,89.00,31
$GPRMC,074609.000,A,5132.4861,N,00000.9284,W,2.70,319.03,180815,,,A*71,51.5414390563,-0.0154732999,7:46:9,18/8/2015,30,2,17.38,89.00,31
$GPRMC,074610.000,A,5132.4870,N,00000.9294,W,2.73,316.22,180815,,,A*77,51.5414466857,-0.0154900002,7:46:10,18/8/2015,31,0,17.38,89.00,31
$GPRMC,074611.000,A,5132.4880,N,00000.9304,W,2.72,312.11,180815,,,A*74,51.5414619445,-0.0155066003,7:46:11,18/8/2015,28,0,16.89,89.00,31
$GPRMC,074612.000,A,5132.4887,N,00000.9315,W,2.45,307.88,180815,,,A*70,51.5414810180,-0.0155250000,7:46:12,18/8/2015,31,3,16.89,89.00,31
$GPRMC,074613.000,A,5132.4896,N,00000.9326,W,2.64,311.54,180815,,,A*74,51.5414962768,-0.0155432996,7:46:13,18/8/2015,30,1,16.89,89.00,31
$GPRMC,074614.000,A,5132.4902,N,00000.9336,W,2.77,304.19,180815,,,A*71,51.5415039062,-0.0155599999,7:46:14,18/8/2015,32,0,17.38,89.00,31
$GPRMC,074615.000,A,5132.4907,N,00000.9347,W,2.46,303.96,180815,,,A*71,51.5415115356,-0.0155783009,7:46:15,18/8/2015,30,0,17.38,89.00,31
$GPRMC,074616.000,A,5132.4914,N,00000.9358,W,2.92,301.09,180815,,,A*73,51.5415191650,-0.0155965995,7:46:16,18/8/2015,31,0,15.92,89.00,30
$GPRMC,074617.000,A,5132.4922,N,00000.9371,W,2.77,308.85,180815,,,A*7A,51.5415382385,-0.0156183004,7:46:17,18/8/2015,31,1,16.89,89.00,32
$GPRMC,074618.000,A,5132.4928,N,00000.9380,W,2.57,312.65,180815,,,A*76,51.5415458679,-0.0156333017,7:46:18,18/8/2015,33,3,17.38,89.00,31
$GPRMC,074619.000,A,5132.4935,N,00000.9390,W,2.41,304.26,180815,,,A*7D,51.5415611267,-0.0156500005,7:46:19,18/8/2015,30,1,16.89,89.00,31
$GPRMC,074620.000,A,5132.4937,N,00000.9400,W,2.28,295.38,180815,,,A*72,51.5415611267,-0.0156666016,7:46:20,18/8/2015,30,1,15.43,89.00,32
$GPRMC,074621.000,A,5132.4943,N,00000.9411,W,2.16,303.03,180815,,,A*7B,51.5415687561,-0.0156850004,7:46:21,18/8/2015,30,0,16.89,89.00,31
$GPRMC,074622.000,A,5132.4946,N,00000.9420,W,2.33,297.75,180815,,,A*75,51.5415763854,-0.0157000007,7:46:22,18/8/2015,29,1,16.41,89.00,31
$GPRMC,074623.000,A,5132.4949,N,00000.9432,W,2.42,287.96,180815,,,A*72,51.5415840148,-0.0157200002,7:46:23,18/8/2015,30,0,16.89,89.00,34
$GPRMC,074624.000,A,5132.4952,N,00000.9444,W,2.68,281.94,180815,,,A*72,51.5415840148,-0.0157399997,7:46:24,18/8/2015,29,0,17.38,89.00,34
$GPRMC,074625.000,A,5132.4959,N,00000.9457,W,2.28,297.82,180815,,,A*7E,51.5416030883,-0.0157616004,7:46:25,18/8/2015,27,0,17.38,89.00,31
$GPRMC,074626.000,A,5132.4964,N,00000.9468,W,2.62,301.57,180815,,,A*77,51.5416107177,-0.0157800006,7:46:26,18/8/2015,29,1,16.89,89.00,30
$GPRMC,074627.000,A,5132.4984,N,00000.9488,W,2.50,295.14,180815,,,A*7C,51.5416412353,-0.0158133006,7:46:27,18/8/2015,29,1,15.43,757.00,31
$GPRMC,074628.000,A,5132.5003,N,00000.9509,W,2.64,291.72,180815,,,A*7F,51.5416755676,-0.0158483018,7:46:28,18/8/2015,28,0,16.89,757.00,26
$GPRMC,074629.000,A,5132.5018,N,00000.9533,W,2.74,287.79,180815,,,A*70,51.5416984558,-0.0158882999,7:46:29,18/8/2015,29,3,17.38,757.00,31
$GPRMC,074630.000,A,5132.5030,N,00000.9557,W,2.57,282.50,180815,,,A*7F,51.5417137145,-0.0159282994,7:46:30,18/8/2015,29,0,16.89,757.00,31
$GPRMC,074631.000,A,5132.5040,N,00000.9577,W,2.54,288.06,180815,,,A*71,51.5417327880,-0.0159616003,7:46:31,18/8/2015,29,3,16.89,757.00,31
$GPRMC,074632.000,A,5132.5052,N,00000.9596,W,3.07,282.88,180815,,,A*75,51.5417556762,-0.0159932994,7:46:32,18/8/2015,29,4,16.89,757.00,30
$GPRMC,074633.000,A,5132.5065,N,00000.9618,W,3.20,283.11,180815,,,A*71,51.5417709350,-0.0160300006,7:46:33,18/8/2015,29,0,15.92,757.00,30
$GPRMC,074634.000,A,5132.5073,N,00000.9637,W,3.66,272.28,180815,,,A*7A,51.5417900085,-0.0160616016,7:46:34,18/8/2015,28,3,17.38,757.00,28
$GPRMC,074635.000,A,5132.5084,N,00000.9657,W,3.14,283.00,180815,,,A*74,51.5418052673,-0.0160950002,7:46:35,18/8/2015,29,1,17.38,757.00,30
$GPRMC,074636.000,A,5132.5097,N,00000.9678,W,3.34,285.40,180815,,,A*78,51.5418281555,-0.0161300001,7:46:36,18/8/2015,30,0,16.89,757.00,32
$GPRMC,074637.000,A,5132.5110,N,00000.9697,W,2.82,293.77,180815,,,A*79,51.5418548583,-0.0161615991,7:46:37,18/8/2015,27,2,16.89,757.00,30
$GPRMC,074638.000,A,5132.5120,N,00000.9716,W,2.99,290.80,180815,,,A*7C,51.5418701171,-0.0161933002,7:46:38,18/8/2015,29,0,17.38,757.00,31
$GPRMC,074639.000,A,5132.5122,N,00000.9728,W,2.95,288.98,180815,,,A*7E,51.5418701171,-0.0162133002,7:46:39,18/8/2015,28,0,17.38,757.00,32
$GPRMC,074640.000,A,5132.5124,N,00000.9742,W,3.10,282.71,180815,,,A*7B,51.5418701171,-0.0162366008,7:46:40,18/8/2015,29,0,17.38,757.00,31
$GPRMC,074641.000,A,5132.5127,N,00000.9754,W,2.85,286.10,180815,,,A*70,51.5418777465,-0.0162566003,7:46:41,18/8/2015,29,1,16.89,757.00,31
$GPRMC,074642.000,A,5132.5131,N,00000.9766,W,2.92,293.36,180815,,,A*73,51.5418853759,-0.0162766003,7:46:42,18/8/2015,30,1,17.38,757.00,31
$GPRMC,074643.000,A,5132.5139,N,00000.9774,W,2.83,309.09,180815,,,A*77,51.5418930053,-0.0162899994,7:46:43,18/8/2015,29,0,17.38,757.00,30
$GPRMC,074644.000,A,5132.5142,N,00000.9786,W,2.89,298.22,180815,,,A*7B,51.5419044494,-0.0163100004,7:46:44,18/8/2015,26,0,16.89,757.00,25
$GPRMC,074645.000,A,5132.5144,N,00000.9797,W,2.82,293.90,180815,,,A*75,51.5419044494,-0.0163283014,7:46:45,18/8/2015,28,0,16.89,757.00,31
$GPRMC,074646.000,A,5132.5147,N,00000.9809,W,2.81,294.26,180815,,,A*74,51.5419120788,-0.0163483009,7:46:46,18/8/2015,29,2,17.38,757.00,30
$GPRMC,074647.000,A,5132.5151,N,00000.9821,W,3.05,294.88,180815,,,A*71,51.5419197082,-0.0163683009,7:46:47,18/8/2015,29,0,16.89,757.00,31
$GPRMC,074648.000,A,5132.5154,N,00000.9832,W,2.96,289.98,180815,,,A*7F,51.5419273376,-0.0163865995,7:46:48,18/8/2015,30,1,17.38,757.00,31
$GPRMC,074649.000,A,5132.5166,N,00000.9848,W,2.95,292.83,180815,,,A*71,51.5419425964,-0.0164133000,7:46:49,18/8/2015,27,0,16.89,757.00,30
$GPRMC,074650.000,A,5132.5170,N,00000.9861,W,3.21,288.33,180815,,,A*7B,51.5419502258,-0.0164350008,7:46:50,18/8/2015,29,0,17.38,757.00,25
$GPRMC,074651.000,A,5132.5178,N,00000.9872,W,3.46,302.39,180815,,,A*78,51.5419578552,-0.0164533019,7:46:51,18/8/2015,31,2,16.89,757.00,30
$GPRMC,074652.000,A,5132.5182,N,00000.9882,W,2.82,301.19,180815,,,A*79,51.5419692993,-0.0164700007,7:46:52,18/8/2015,29,1,16.89,757.00,30
$GPRMC,074653.000,A,5132.5183,N,00000.9891,W,2.90,297.59,180815,,,A*72,51.5419692993,-0.0164849996,7:46:53,18/8/2015,31,2,15.43,757.00,31
$GPRMC,074654.000,A,5132.5185,N,00000.9904,W,2.97,291.91,180815,,,A*7B,51.5419769287,-0.0165066003,7:46:54,18/8/2015,32,2,16.89,757.00,30
$GPRMC,074655.000,A,5132.5188,N,00000.9915,W,2.93,299.79,180815,,,A*7D,51.5419845581,-0.0165250005,7:46:55,18/8/2015,31,2,15.92,757.00,31
$GPRMC,074656.000,A,5132.5191,N,00000.9929,W,3.48,291.59,180815,,,A*74,51.5419845581,-0.0165482997,7:46:56,18/8/2015,30,1,16.89,757.00,31
$GPRMC,074657.000,A,5132.5195,N,00000.9943,W,3.55,296.60,180815,,,A*7C,51.5419921875,-0.0165715990,7:46:57,18/8/2015,30,1,16.89,35.00,31
$GPRMC,074658.000,A,5132.5197,N,00000.9957,W,3.13,289.33,180815,,,A*7E,51.5419921875,-0.0165950002,7:46:58,18/8/2015,29,2,16.89,35.00,25
$GPRMC,074659.000,A,5132.5198,N,00000.9969,W,3.34,287.41,180815,,,A*73,51.5419998168,-0.0166149997,7:46:59,18/8/2015,27,0,15.92,35.00,31
$GPRMC,074700.000,A,5132.5203,N,00000.9983,W,3.52,294.28,180815,,,A*76,51.5420074462,-0.0166383018,7:47:0,18/8/2015,29,8,16.89,35.00,31
$GPRMC,074701.000,A,5132.5204,N,00000.9996,W,3.80,289.87,180815,,,A*72,51.5420074462,-0.0166600012,7:47:1,18/8/2015,29,2,16.41,35.00,31
$GPRMC,074702.000,A,5132.5204,N,00001.0012,W,3.29,282.24,180815,,,A*7D,51.5420074462,-0.0166866006,7:47:2,18/8/2015,29,0,16.89,35.00,28
$GPRMC,074703.000,A,5132.5205,N,00001.0024,W,3.19,282.66,180815,,,A*7D,51.5420074462,-0.0167065992,7:47:3,18/8/2015,29,1,16.89,35.00,31
$GPRMC,074704.000,A,5132.5203,N,00001.0040,W,3.61,276.64,180815,,,A*78,51.5420074462,-0.0167333006,7:47:4,18/8/2015,30,1,17.38,35.00,32
$GPRMC,074705.000,A,5132.5201,N,00001.0057,W,3.70,274.38,180815,,,A*76,51.5419998168,-0.0167616009,7:47:5,18/8/2015,31,3,17.38,35.00,30
$GPRMC,074706.000,A,5132.5192,N,00001.0071,W,3.39,259.80,180815,,,A*79,51.5419845581,-0.0167849993,7:47:6,18/8/2015,32,5,16.89,35.00,31
$GPRMC,074707.000,A,5132.5178,N,00001.0081,W,3.29,239.71,180815,,,A*7A,51.5419578552,-0.0168015980,7:47:7,18/8/2015,41,0,16.89,35.00,31
$GPRMC,074708.000,A,5132.5168,N,00001.0090,W,2.57,226.66,180815,,,A*74,51.5419425964,-0.0168165993,7:47:8,18/8/2015,50,2,17.38,35.00,31
$GPRMC,074709.000,A,5132.5160,N,00001.0100,W,3.44,242.80,180815,,,A*7C,51.5419349670,-0.0168333029,7:47:9,18/8/2015,35,10,16.89,35.00,31
$GPRMC,074710.000,A,5132.5150,N,00001.0114,W,3.76,228.57,180815,,,A*75,51.5419197082,-0.0168566012,7:47:10,18/8/2015,29,1,16.41,35.00,31
$GPRMC,074711.000,A,5132.5142,N,00001.0127,W,4.01,227.48,180815,,,A*71,51.5419044494,-0.0168783006,7:47:11,18/8/2015,29,1,15.43,35.00,31
$GPRMC,074712.000,A,5132.5133,N,00001.0138,W,3.48,215.43,180815,,,A*7A,51.5418853759,-0.0168966031,7:47:12,18/8/2015,29,1,16.89,35.00,32
$GPRMC,074713.000,A,5132.5122,N,00001.0146,W,3.60,211.38,180815,,,A*70,51.5418701171,-0.0169099998,7:47:13,18/8/2015,28,0,17.38,35.00,32
$GPRMC,074714.000,A,5132.5114,N,00001.0152,W,3.49,204.32,180815,,,A*72,51.5418548583,-0.0169200000,7:47:14,18/8/2015,28,0,16.89,35.00,32
$GPRMC,074715.000,A,5132.5115,N,00001.0167,W,3.19,214.50,180815,,,A*74,51.5418624877,-0.0169450020,7:47:15,18/8/2015,29,0,16.89,35.00,32
$GPRMC,074716.000,A,5132.5115,N,00001.0183,W,2.62,201.99,180815,,,A*71,51.5418624877,-0.0169716000,7:47:16,18/8/2015,26,5,15.92,35.00,32
$GPRMC,074717.000,A,5132.5111,N,00001.0202,W,3.18,209.74,180815,,,A*79,51.5418548583,-0.0170032987,7:47:17,18/8/2015,29,0,16.89,35.00,31
$GPRMC,074718.000,A,5132.5108,N,00001.0217,W,3.07,211.68,180815,,,A*70,51.5418472290,-0.0170283007,7:47:18,18/8/2015,29,0,16.41,35.00,31
$GPRMC,074719.000,A,5132.5107,N,00001.0231,W,2.77,207.92,180815,,,A*7E,51.5418472290,-0.0170516014,7:47:19,18/8/2015,28,2,16.89,35.00,32
$GPRMC,074720.000,A,5132.5100,N,00001.0240,W,2.44,202.64,180815,,,A*79,51.5418281555,-0.0170665988,7:47:20,18/8/2015,29,2,16.89,35.00,31
$GPRMC,074721.000,A,5132.5092,N,00001.0247,W,2.55,196.12,180815,,,A*7A,51.5418205261,-0.0170783019,7:47:21,18/8/2015,28,1,15.92,35.00,31
$GPRMC,074722.000,A,5132.5085,N,00001.0253,W,2.69,204.30,180815,,,A*7D,51.5418052673,-0.0170882997,7:47:22,18/8/2015,27,0,16.89,35.00,31
$GPRMC,074723.000,A,5132.5075,N,00001.0261,W,3.63,213.94,180815,,,A*71,51.5417900085,-0.0171015987,7:47:23,18/8/2015,26,2,15.43,35.00,33
$GPRMC,074724.000,A,5132.5068,N,00001.0268,W,3.73,218.53,180815,,,A*72,51.5417823791,-0.0171132993,7:47:24,18/8/2015,29,0,16.41,35.00,32
$GPRMC,074725.000,A,5132.5062,N,00001.0283,W,3.27,223.98,180815,,,A*72,51.5417709350,-0.0171383008,7:47:25,18/8/2015,28,2,16.41,35.00,32
$GPRMC,074726.000,A,5132.5057,N,00001.0292,W,3.27,216.25,180815,,,A*77,51.5417633056,-0.0171533002,7:47:26,18/8/2015,29,4,16.41,35.00,25
$GPRMC,074727.000,A,5132.5050,N,00001.0304,W,2.57,197.24,180815,,,A*72,51.5417480468,-0.0171732997,7:47:27,18/8/2015,28,9,17.38,35.00,31
$GPRMC,074728.000,A,5132.5043,N,00001.0314,W,2.08,204.57,180815,,,A*79,51.5417404174,-0.0171900024,7:47:28,18/8/2015,29,7,16.41,83.00,30
$GPRMC,074729.000,A,5132.5035,N,00001.0321,W,5.30,241.30,180815,,,A*73,51.5417251586,-0.0172016010,7:47:29,18/8/2015,28,7,17.38,83.00,32
$GPRMC,074730.000,A,5132.5024,N,00001.0332,W,5.47,231.94,180815,,,A*70,51.5417060852,-0.0172199988,7:47:30,18/8/2015,28,3,17.38,83.00,31
$GPRMC,074731.000,A,5132.5018,N,00001.0344,W,4.19,225.03,180815,,,A*7E,51.5416984558,-0.0172399997,7:47:31,18/8/2015,29,2,16.41,83.00,31
$GPRMC,074732.000,A,5132.5010,N,00001.0352,W,3.00,197.15,180815,,,A*70,51.5416831970,-0.0172533025,7:47:32,18/8/2015,28,3,15.43,83.00,31
$GPRMC,074733.000,A,5132.5029,N,00001.0356,W,2.57,176.35,180815,,,A*71,51.5417137145,-0.0172600021,7:47:33,18/8/2015,28,2,14.94,83.00,31
$GPRMC,074734.000,A,5132.5040,N,00001.0363,W,1.89,174.91,180815,,,A*73,51.5417327880,-0.0172716007,7:47:34,18/8/2015,28,1,16.41,83.00,30
$GPRMC,074735.000,A,5132.5049,N,00001.0370,W,2.82,219.98,180815,,,A*70,51.5417480468,-0.0172832989,7:47:35,18/8/2015,29,2,15.92,83.00,31
$GPRMC,074736.000,A,5132.5052,N,00001.0393,W,3.69,219.76,180815,,,A*70,51.5417556762,-0.0173215999,7:47:36,18/8/2015,29,10,17.38,83.00,31
$GPRMC,074737.000,A,5132.5044,N,00001.0411,W,4.12,211.77,180815,,,A*79,51.5417404174,-0.0173516011,7:47:37,18/8/2015,29,0,16.41,83.00,25
$GPRMC,074738.000,A,5132.5041,N,00001.0432,W,3.53,200.39,180815,,,A*7A,51.5417327880,-0.0173866024,7:47:38,18/8/2015,28,5,17.38,83.00,26
$GPRMC,074739.000,A,5132.5035,N,00001.0442,W,2.95,200.20,180815,,,A*7C,51.5417251586,-0.0174033021,7:47:39,18/8/2015,28,0,17.38,83.00,31
$GPRMC,074740.000,A,5132.5029,N,00001.0452,W,2.94,196.39,180815,,,A*7B,51.5417137145,-0.0174200000,7:47:40,18/8/2015,29,2,16.41,83.00,31
$GPRMC,074741.000,A,5132.5025,N,00001.0460,W,3.17,208.82,180815,,,A*79,51.5417060852,-0.0174333024,7:47:41,18/8/2015,28,1,17.38,83.00,30
$GPRMC,074742.000,A,5132.5031,N,00001.0470,W,2.68,210.74,180815,,,A*77,51.5417137145,-0.0174500012,7:47:42,18/8/2015,29,0,16.41,83.00,31
$GPRMC,074743.000,A,5132.5024,N,00001.0480,W,3.73,221.12,180815,,,A*74,51.5417060852,-0.0174666023,7:47:43,18/8/2015,27,0,16.89,83.00,31
$GPRMC,074744.000,A,5132.5015,N,00001.0492,W,3.48,218.10,180815,,,A*72,51.5416908264,-0.0174866008,7:47:44,18/8/2015,29,0,17.38,83.00,31
$GPRMC,074745.000,A,5132.5008,N,00001.0501,W,3.60,211.12,180815,,,A*75,51.5416831970,-0.0175015997,7:47:45,18/8/2015,28,4,16.41,83.00,31
$GPRMC,074746.000,A,5132.5001,N,00001.0508,W,3.23,177.31,180815,,,A*73,51.5416679382,-0.0175133013,7:47:46,18/8/2015,29,2,17.38,83.00,31
$GPRMC,074747.000,A,5132.4996,N,00001.0514,W,3.18,159.40,180815,,,A*7B,51.5416603088,-0.0175233006,7:47:47,18/8/2015,29,1,16.41,83.00,32
$GPRMC,074748.000,A,5132.4991,N,00001.0521,W,2.78,188.03,180815,,,A*79,51.5416488647,-0.0175350008,7:47:48,18/8/2015,29,1,16.89,83.00,31
$GPRMC,074749.000,A,5132.4984,N,00001.0528,W,3.54,215.87,180815,,,A*71,51.5416412353,-0.0175466003,7:47:49,18/8/2015,28,0,16.89,83.00,31
$GPRMC,074750.000,A,5132.4977,N,00001.0536,W,3.17,219.93,180815,,,A*74,51.5416259765,-0.0175600028,7:47:50,18/8/2015,30,0,16.41,83.00,31
$GPRMC,074751.000,A,5132.4971,N,00001.0548,W,3.78,222.32,180815,,,A*70,51.5416183471,-0.0175800013,7:47:51,18/8/2015,28,2,16.89,83.00,30
$GPRMC,074752.000,A,5132.4963,N,00001.0559,W,3.79,211.24,180815,,,A*76,51.5416030883,-0.0175983009,7:47:52,18/8/2015,28,1,16.89,83.00,28
$GPRMC,074753.000,A,5132.4955,N,00001.0564,W,3.86,215.13,180815,,,A*7C,51.5415916442,-0.0176065993,7:47:53,18/8/2015,28,1,16.89,83.00,32
$GPRMC,074754.000,A,5132.4951,N,00001.0569,W,3.07,207.49,180815,,,A*77,51.5415840148,-0.0176149988,7:47:54,18/8/2015,26,6,15.92,83.00,31
$GPRMC,074755.000,A,5132.4942,N,00001.0574,W,3.02,212.78,180815,,,A*7B,51.5415687561,-0.0176233029,7:47:55,18/8/2015,26,0,16.41,83.00,32
$GPRMC,074756.000,A,5132.4935,N,00001.0576,W,3.68,222.66,180815,,,A*7A,51.5415611267,-0.0176266012,7:47:56,18/8/2015,28,4,16.41,83.00,32
$GPRMC,074757.000,A,5132.4929,N,00001.0585,W,3.07,214.23,180815,,,A*77,51.5415458679,-0.0176416015,7:47:57,18/8/2015,28,1,16.41,83.00,31
$GPRMC,074758.000,A,5132.4921,N,00001.0588,W,3.12,204.26,180815,,,A*7D,51.5415382385,-0.0176466012,7:47:58,18/8/2015,28,0,17.38,54.00,32
$GPRMC,074759.000,A,5132.4916,N,00001.0595,W,2.40,199.48,180815,,,A*7D,51.5415267944,-0.0176583003,7:47:59,18/8/2015,25,0,15.92,54.00,31
$GPRMC,074800.000,A,5132.4910,N,00001.0600,W,2.41,193.61,180815,,,A*77,51.5415191650,-0.0176666011,7:48:0,18/8/2015,29,0,16.41,54.00,25
$GPRMC,074801.000,A,5132.4905,N,00001.0607,W,3.17,218.84,180815,,,A*7C,51.5415115356,-0.0176782989,7:48:1,18/8/2015,28,4,16.89,54.00,31
$GPRMC,074802.000,A,5132.4898,N,00001.0619,W,4.05,223.13,180815,,,A*77,51.5414962768,-0.0176982998,7:48:2,18/8/2015,29,1,15.92,54.00,32
$GPRMC,074803.000,A,5132.4895,N,00001.0631,W,3.82,222.81,180815,,,A*73,51.5414886474,-0.0177183017,7:48:3,18/8/2015,29,2,15.92,54.00,31
$GPRMC,074804.000,A,5132.4891,N,00001.0645,W,3.55,225.05,180815,,,A*72,51.5414886474,-0.0177415990,7:48:4,18/8/2015,28,1,16.89,54.00,32
$GPRMC,074805.000,A,5132.4886,N,00001.0656,W,3.79,230.87,180815,,,A*77,51.5414810180,-0.0177600011,7:48:5,18/8/2015,28,1,16.41,54.00,31
$GPRMC,074806.000,A,5132.4882,N,00001.0667,W,3.81,231.03,180815,,,A*78,51.5414695739,-0.0177783012,7:48:6,18/8/2015,28,0,16.89,54.00,33
$GPRMC,074807.000,A,5132.4876,N,00001.0680,W,3.31,229.06,180815,,,A*7C,51.5414619445,-0.0178000020,7:48:7,18/8/2015,29,2,16.41,54.00,31
$GPRMC,074808.000,A,5132.4872,N,00001.0685,W,3.25,228.79,180815,,,A*7E,51.5414543151,-0.0178083000,7:48:8,18/8/2015,28,0,16.89,54.00,31
$GPRMC,074809.000,A,5132.4866,N,00001.0698,W,3.33,221.68,180815,,,A*78,51.5414466857,-0.0178300008,7:48:9,18/8/2015,27,0,16.89,54.00,30
$GPRMC,074810.000,A,5132.4860,N,00001.0709,W,3.41,224.59,180815,,,A*7D,51.5414314270,-0.0178483009,7:48:10,18/8/2015,28,1,17.38,54.00,31
$GPRMC,074811.000,A,5132.4851,N,00001.0724,W,3.75,218.35,180815,,,A*73,51.5414161682,-0.0178733005,7:48:11,18/8/2015,28,3,16.41,54.00,31
$GPRMC,074812.000,A,5132.4842,N,00001.0735,W,3.69,213.47,180815,,,A*71,51.5414047241,-0.0178915987,7:48:12,18/8/2015,28,3,16.89,54.00,32
$GPRMC,074813.000,A,5132.4836,N,00001.0743,W,3.75,222.97,180815,,,A*70,51.5413894653,-0.0179049992,7:48:13,18/8/2015,28,2,16.89,54.00,31
$GPRMC,074814.000,A,5132.4830,N,00001.0753,W,3.95,226.12,180815,,,A*77,51.5413818359,-0.0179216003,7:48:14,18/8/2015,28,2,16.89,54.00,25
$GPRMC,074815.000,A,5132.4822,N,00001.0768,W,3.32,221.79,180815,,,A*7A,51.5413742065,-0.0179466009,7:48:15,18/8/2015,28,5,16.89,54.00,31
$GPRMC,074816.000,A,5132.4816,N,00001.0774,W,2.92,213.42,180815,,,A*71,51.5413589477,-0.0179566011,7:48:16,18/8/2015,28,0,16.41,54.00,25
$GPRMC,074817.000,A,5132.4809,N,00001.0782,W,3.06,210.35,180815,,,A*78,51.5413475036,-0.0179699993,7:48:17,18/8/2015,28,0,17.38,54.00,31
$GPRMC,074818.000,A,5132.4801,N,00001.0788,W,3.76,216.85,180815,,,A*7F,51.5413322448,-0.0179800024,7:48:18,18/8/2015,28,0,17.38,54.00,31
$GPRMC,074819.000,A,5132.4794,N,00001.0799,W,3.57,219.31,180815,,,A*7E,51.5413246154,-0.0179983005,7:48:19,18/8/2015,28,0,16.41,54.00,31
$GPRMC,074820.000,A,5132.4786,N,00001.0812,W,3.86,225.38,180815,,,A*71,51.5413093566,-0.0180200004,7:48:20,18/8/2015,28,0,16.41,54.00,31
$GPRMC,074821.000,A,5132.4779,N,00001.0826,W,2.97,221.22,180815,,,A*79,51.5413017272,-0.0180433025,7:48:21,18/8/2015,29,1,16.89,54.00,25
$GPRMC,074822.000,A,5132.4773,N,00001.0839,W,2.59,223.71,180815,,,A*78,51.5412940979,-0.0180650024,7:48:22,18/8/2015,26,1,16.41,54.00,30
$GPRMC,074823.000,A,5132.4767,N,00001.0853,W,2.90,228.03,180815,,,A*7B,51.5412750244,-0.0180883026,7:48:23,18/8/2015,28,3,16.41,54.00,25
$GPRMC,074824.000,A,5132.4760,N,00001.0867,W,3.60,237.01,180815,,,A*7E,51.5412673950,-0.0181115999,7:48:24,18/8/2015,28,0,16.41,54.00,30
$GPRMC,074825.000,A,5132.4751,N,00001.0880,W,3.45,231.91,180815,,,A*7C,51.5412521362,-0.0181333007,7:48:25,18/8/2015,28,1,16.41,54.00,31
$GPRMC,074826.000,A,5132.4744,N,00001.0894,W,3.78,238.42,180815,,,A*77,51.5412445068,-0.0181565999,7:48:26,18/8/2015,28,2,16.89,54.00,31
$GPRMC,074827.000,A,5132.4738,N,00001.0913,W,3.57,239.61,180815,,,A*7E,51.5412254333,-0.0181882991,7:48:27,18/8/2015,28,6,16.41,54.00,31
$GPRMC,074828.000,A,5132.4733,N,00001.0928,W,3.34,240.35,180815,,,A*78,51.5412178039,-0.0182133007,7:48:28,18/8/2015,29,4,16.41,54.00,32
$GPRMC,074829.000,A,5132.4734,N,00001.0943,W,3.02,258.93,180815,,,A*73,51.5412254333,-0.0182383003,7:48:29,18/8/2015,28,1,16.89,97.00,31
$GPRMC,074830.000,A,5132.4733,N,00001.0958,W,3.77,260.24,180815,,,A*73,51.5412178039,-0.0182633018,7:48:30,18/8/2015,26,1,16.89,97.00,25
$GPRMC,074831.000,A,5132.4731,N,00001.0968,W,2.90,261.61,180815,,,A*7B,51.5412178039,-0.0182800006,7:48:31,18/8/2015,27,0,16.41,97.00,29
$GPRMC,074832.000,A,5132.4732,N,00001.0981,W,3.10,265.81,180815,,,A*7F,51.5412178039,-0.0183016004,7:48:32,18/8/2015,28,4,16.41,97.00,31
$GPRMC,074833.000,A,5132.4731,N,00001.0999,W,3.39,261.69,180815,,,A*7D,51.5412178039,-0.0183316001,7:48:33,18/8/2015,29,0,15.92,97.00,31
$GPRMC,074834.000,A,5132.4728,N,00001.1017,W,3.51,261.26,180815,,,A*79,51.5412101745,-0.0183615989,7:48:34,18/8/2015,29,0,16.89,97.00,31
$GPRMC,074835.000,A,5132.4725,N,00001.1036,W,3.85,252.65,180815,,,A*78,51.5412101745,-0.0183933010,7:48:35,18/8/2015,28,1,16.41,97.00,31
$GPRMC,074836.000,A,5132.4722,N,00001.1054,W,3.60,252.14,180815,,,A*75,51.5412025451,-0.0184233007,7:48:36,18/8/2015,28,1,15.92,97.00,30
$GPRMC,074837.000,A,5132.4721,N,00001.1069,W,3.11,259.53,180815,,,A*77,51.5412025451,-0.0184483003,7:48:37,18/8/2015,29,6,16.41,97.00,31
$GPRMC,074838.000,A,5132.4720,N,00001.1084,W,2.95,260.66,180815,,,A*7B,51.5412025451,-0.0184733009,7:48:38,18/8/2015,29,3,16.41,97.00,25
$GPRMC,074839.000,A,5132.4719,N,00001.1101,W,3.32,262.86,180815,,,A*7C,51.5411949157,-0.0185016021,7:48:39,18/8/2015,29,2,16.41,97.00,30
$GPRMC,074840.000,A,5132.4717,N,00001.1118,W,3.77,264.18,180815,,,A*74,51.5411949157,-0.0185300016,7:48:40,18/8/2015,29,0,15.92,97.00,30
$GPRMC,074841.000,A,5132.4716,N,00001.1132,W,3.04,268.35,180815,,,A*7B,51.5411949157,-0.0185532999,7:48:41,18/8/2015,28,6,14.45,97.00,31
$GPRMC,074842.000,A,5132.4716,N,00001.1147,W,3.30,266.12,180815,,,A*76,51.5411949157,-0.0185783004,7:48:42,18/8/2015,29,2,14.94,97.00,30
$GPRMC,074843.000,A,5132.4716,N,00001.1162,W,3.19,263.46,180815,,,A*7F,51.5411949157,-0.0186033010,7:48:43,18/8/2015,30,3,16.41,97.00,30
$GPRMC,074844.000,A,5132.4718,N,00001.1174,W,2.77,269.55,180815,,,A*70,51.5411949157,-0.0186232995,7:48:44,18/8/2015,28,4,15.92,97.00,30
$GPRMC,074845.000,A,5132.4719,N,00001.1187,W,2.84,268.18,180815,,,A*78,51.5411949157,-0.0186450004,7:48:45,18/8/2015,28,1,15.92,97.00,31
$GPRMC,074846.000,A,5132.4719,N,00001.1200,W,3.12,272.08,180815,,,A*73,51.5411949157,-0.0186666011,7:48:46,18/8/2015,26,3,16.41,97.00,31
$GPRMC,074847.000,A,5132.4718,N,00001.1215,W,3.39,266.75,180815,,,A*71,51.5411949157,-0.0186916007,7:48:47,18/8/2015,28,1,16.89,97.00,31
$GPRMC,074848.000,A,5132.4719,N,00001.1231,W,3.43,264.40,180815,,,A*70,51.5411949157,-0.0187183008,7:48:48,18/8/2015,28,9,15.92,97.00,31
$GPRMC,074849.000,A,5132.4720,N,00001.1246,W,3.54,268.02,180815,,,A*77,51.5412025451,-0.0187433004,7:48:49,18/8/2015,28,6,16.41,97.00,31
$GPRMC,074850.000,A,5132.4721,N,00001.1261,W,3.34,270.82,180815,,,A*7C,51.5412025451,-0.0187683010,7:48:50,18/8/2015,27,4,16.41,97.00,31
$GPRMC,074851.000,A,5132.4718,N,00001.1274,W,3.39,261.62,180815,,,A*70,51.5411949157,-0.0187900009,7:48:51,18/8/2015,28,14,16.41,97.00,31
$GPRMC,074852.000,A,5132.4717,N,00001.1288,W,2.85,263.11,180815,,,A*7F,51.5411949157,-0.0188133001,7:48:52,18/8/2015,28,0,16.41,97.00,29
$GPRMC,074853.000,A,5132.4715,N,00001.1301,W,3.31,266.68,180815,,,A*79,51.5411949157,-0.0188350009,7:48:53,18/8/2015,28,11,17.38,97.00,31
$GPRMC,074854.000,A,5132.4715,N,00001.1313,W,2.79,271.81,180815,,,A*71,51.5411949157,-0.0188550014,7:48:54,18/8/2015,28,10,14.94,97.00,26
$GPRMC,074855.000,A,5132.4715,N,00001.1330,W,3.33,273.85,180815,,,A*78,51.5411949157,-0.0188832998,7:48:55,18/8/2015,29,8,16.41,97.00,31
$GPRMC,074856.000,A,5132.4715,N,00001.1345,W,3.26,270.47,180815,,,A*70,51.5411949157,-0.0189082994,7:48:56,18/8/2015,28,10,16.89,97.00,31
$GPRMC,074857.000,A,5132.4714,N,00001.1359,W,3.33,271.03,180815,,,A*78,51.5411872863,-0.0189316005,7:48:57,18/8/2015,27,5,15.92,97.00,31
$GPRMC,074858.000,A,5132.4712,N,00001.1374,W,3.14,267.36,180815,,,A*7A,51.5411872863,-0.0189566020,7:48:58,18/8/2015,29,3,16.41,97.00,30
$GPRMC,074859.000,A,5132.4710,N,00001.1388,W,3.38,272.03,180815,,,A*76,51.5411872863,-0.0189799995,7:48:59,18/8/2015,27,6,16.41,87.00,30
$GPRMC,074900.000,A,5132.4709,N,00001.1404,W,3.10,261.99,180815,,,A*7B,51.5411796569,-0.0190066003,7:49:0,18/8/2015,29,3,14.94,87.00,31
$GPRMC,074901.000,A,5132.4708,N,00001.1419,W,3.01,263.31,180815,,,A*77,51.5411796569,-0.0190316009,7:49:1,18/8/2015,27,8,16.41,87.00,31
$GPRMC,074902.000,A,5132.4707,N,00001.1433,W,2.97,265.81,180815,,,A*70,51.5411796569,-0.0190550022,7:49:2,18/8/2015,28,7,16.89,87.00,29
$GPRMC,074903.000,A,5132.4707,N,00001.1446,W,3.32,272.98,180815,,,A*73,51.5411796569,-0.0190766029,7:49:3,18/8/2015,27,6,14.94,87.00,30
$GPRMC,074904.000,A,5132.4705,N,00001.1460,W,2.77,256.51,180815,,,A*71,51.5411796569,-0.0191000003,7:49:4,18/8/2015,29,31,16.41,87.00,24
$GPRMC,074905.000,A,5132.4705,N,00001.1472,W,3.04,267.38,180815,,,A*7B,51.5411796569,-0.0191200008,7:49:5,18/8/2015,26,3,16.41,87.00,27
$GPRMC,074906.000,A,5132.4705,N,00001.1487,W,3.08,276.69,180815,,,A*7A,51.5411796569,-0.0191450004,7:49:6,18/8/2015,29,14,15.92,87.00,30
$GPRMC,074907.000,A,5132.4706,N,00001.1500,W,3.51,273.02,180815,,,A*72,51.5411796569,-0.0191666011,7:49:7,18/8/2015,28,12,16.89,87.00,30
$GPRMC,074908.000,A,5132.4704,N,00001.1516,W,2.96,264.06,180815,,,A*70,51.5411720275,-0.0191933012,7:49:8,18/8/2015,29,12,16.41,87.00,24
$GPRMC,074909.000,A,5132.4703,N,00001.1528,W,3.07,263.68,180815,,,A*7D,51.5411720275,-0.0192133007,7:49:9,18/8/2015,26,9,14.94,87.00,31
$GPRMC,074910.000,A,5132.4703,N,00001.1540,W,2.84,261.54,180815,,,A*7C,51.5411720275,-0.0192332992,7:49:10,18/8/2015,26,5,16.41,87.00,24
