
$GPRMC,235944.800,V,,,,,0.00,0.00,050180,,,N*44,0.0000000000,0.0000000000,23:59:44,0/0/200,81,0,2.27,25,21.29,0,0
$GPRMC,235945.799,V,,,,,0.00,0.00,050180,,,N*4A,0.0000000000,0.0000000000,23:59:45,0/0/200,75,0,0.64,12,21.29,0,0
$GPRMC,235946.799,V,,,,,0.00,0.00,050180,,,N*49,0.0000000000,0.0000000000,23:59:46,0/0/200,57,0,2.17,26,21.29,0,0
$GPRMC,235947.799,V,,,,,0.00,0.00,050180,,,N*48,0.0000000000,0.0000000000,23:59:47,5/1/2080,37,0,1.24,14,21.29,0,0
$GPRMC,235948.799,V,,,,,0.00,0.00,050180,,,N*47,0.0000000000,0.0000000000,23:59:48,5/1/2080,27,0,0.78,15,21.29,0,0
$GPRMC,235949.799,V,,,,,0.00,0.00,050180,,,N*46,0.0000000000,0.0000000000,23:59:49,5/1/2080,26,0,0.26,13,21.29,0,0
$GPGGA,235950.799,,,,,0,00,,,M,,M,,*77,0.0000000000,0.0000000000,23:59:50,5/1/2080,27,0,0.85,35,20.80,0,0
$GPRMC,235950.799,V,,,,,0.00,0.00,050180,,,N*4E,0.0000000000,0.0000000000,23:59:50,5/1/2080,27,0,0.00,0,20.80,0,0
$GPRMC,235951.800,V,,,,,0.00,0.00,050180,,,N*40,0.0000000000,0.0000000000,23:59:51,5/1/2080,24,19,7.21,60,20.80,0,0
$GPRMC,235952.800,V,,,,,0.00,0.00,050180,,,N*43,0.0000000000,0.0000000000,23:59:52,5/1/2080,23,5,7.34,31,20.31,0,0
$GPRMC,235953.800,V,,,,,0.00,0.00,050180,,,N*42,0.0000000000,0.0000000000,23:59:53,5/1/2080,27,13,7.76,37,20.31,0,0
$GPRMC,235954.800,V,,,,,0.00,0.00,050180,,,N*45,0.0000000000,0.0000000000,23:59:54,5/1/2080,25,0,5.45,26,20.31,0,0
$GPRMC,235955.800,V,,,,,0.00,0.00,050180,,,N*44,0.0000000000,0.0000000000,23:59:55,5/1/2080,23,0,0.05,3,19.82,0,0
$GPRMC,235956.800,V,,,,,0.00,0.00,050180,,,N*47,0.0000000000,0.0000000000,23:59:56,5/1/2080,23,0,11.91,59,20.31,0,0
$GPRMC,235957.800,V,,,,,0.00,0.00,050180,,,N*46,0.0000000000,0.0000000000,23:59:57,5/1/2080,25,0,5.79,68,20.31,0,0
$GPRMC,235958.800,V,,,,,0.00,0.00,050180,,,N*49,0.0000000000,0.0000000000,23:59:58,5/1/2080,24,9,22.20,64,19.82,0,0
$GPRMC,235959.800,V,,,,,0.00,0.00,050180,,,N*48,0.0000000000,0.0000000000,23:59:59,5/1/2080,22,0,6.96,25,20.31,0,0
$GPRMC,000000.800,V,,,,,0.00,0.00,060180,,,N*4A,0.0000000000,0.0000000000,0:0:0,5/1/2080,21,1,5.92,59,19.82,0,0
$GPRMC,000001.800,V,,,,,0.00,0.00,060180,,,N*4B,0.0000000000,0.0000000000,0:0:1,5/1/2080,21,0,0.58,7,19.82,0,0
$GPRMC,000002.800,V,,,,,0.00,0.00,060180,,,N*48,0.0000000000,0.0000000000,0:0:2,5/1/2080,21,0,0.64,12,20.31,0,0
$GPRMC,000003.800,V,,,,,0.00,0.00,060180,,,N*49,0.0000000000,0.0000000000,0:0:3,5/1/2080,21,0,0.14,7,20.31,0,0
$GPRMC,000004.800,V,,,,,0.00,0.00,060180,,,N*4E,0.0000000000,0.0000000000,0:0:4,5/1/2080,21,2,1.13,16,20.31,0,0
$GPRMC,000005.800,V,,,,,0.00,0.00,060180,,,N*4F,0.0000000000,0.0000000000,0:0:5,6/1/2080,21,0,0.10,7,19.82,0,0
$GPGGA,000006.800,,,,,0,00,,,M,,M,,*76,0.0000000000,0.0000000000,0:0:6,6/1/2080,21,0,2.78,28,20.31,0,0
$GPRMC,000006.800,V,,,,,0.00,0.00,060180,,,N*4C,0.0000000000,0.0000000000,0:0:6,6/1/2080,21,0,0.00,0,20.31,0,0
$GPRMC,000007.800,V,,,,,0.00,0.00,060180,,,N*4D,0.0000000000,0.0000000000,0:0:7,6/1/2080,22,0,0.39,6,20.31,0,0
$GPRMC,000008.800,V,,,,,0.00,0.00,060180,,,N*42,0.0000000000,0.0000000000,0:0:8,6/1/2080,22,2,0.38,8,20.31,0,0
$GPRMC,000009.800,V,,,,,0.00,0.00,060180,,,N*43,0.0000000000,0.0000000000,0:0:9,6/1/2080,22,7,0.63,16,20.31,0,0
$GPRMC,000010.800,V,,,,,0.00,0.00,060180,,,N*4B,0.0000000000,0.0000000000,0:0:10,6/1/2080,21,0,0.88,13,19.82,0,0
$GPGGA,000011.800,,,,,0,00,,,M,,M,,*70,0.0000000000,0.0000000000,0:0:11,6/1/2080,22,1,4.35,43,19.82,0,0
$GPRMC,000011.800,V,,,,,0.00,0.00,060180,,,N*4A,0.0000000000,0.0000000000,0:0:11,6/1/2080,21,0,0.00,0,19.82,0,0
$GPRMC,000012.100,V,,,,,0.00,0.00,060180,,,N*40,0.0000000000,0.0000000000,0:0:12,6/1/2080,21,0,0.27,5,19.82,0,0
$GPRMC,000012.320,V,,,,,0.00,0.00,060180,,,N*40,0.0000000000,0.0000000000,0:0:12,6/1/2080,21,0,0.21,4,19.82,0,0
$GPRMC,124732.308,V,,,,,0.00,0.00,090180,,,N*47,0.0000000000,0.0000000000,12:47:32,6/1/2080,21,0,0.16,8,19.82,0,0
$GPRMC,124733.308,V,,,,,0.00,0.00,090180,,,N*46,0.0000000000,0.0000000000,12:47:33,6/1/2080,26,4,0.43,9,19.82,0,0
$GPRMC,124734.308,V,,,,,0.00,0.00,090180,,,N*41,0.0000000000,0.0000000000,12:47:34,6/1/2080,21,0,0.51,7,19.82,0,0
$GPRMC,124735.308,V,,,,,0.00,0.00,090180,,,N*40,0.0000000000,0.0000000000,12:47:35,6/1/2080,20,0,0.26,7,19.34,0,0
$GPRMC,124736.308,V,,,,,0.00,0.00,090180,,,N*43,0.0000000000,0.0000000000,12:47:36,6/1/2080,20,0,0.35,6,19.34,0,0
$GPRMC,124737.094,V,,,,,0.00,0.00,090180,,,N*44,0.0000000000,0.0000000000,12:47:37,6/1/2080,20,0,0.02,2,19.34,0,0
$GPRMC,124738.094,V,,,,,0.00,0.00,090180,,,N*4B,0.0000000000,0.0000000000,12:47:38,6/1/2080,22,0,0.69,15,19.34,0,0
$GPRMC,124739.094,V,,,,,0.00,0.00,090180,,,N*4A,0.0000000000,0.0000000000,12:47:39,6/1/2080,21,0,0.13,13,18.85,0,0
$GPGGA,124740.094,,,,,0,00,,,M,,M,,*71,0.0000000000,0.0000000000,12:47:40,6/1/2080,21,0,0.12,6,18.85,0,0
$GPRMC,124740.094,V,,,,,0.00,0.00,090180,,,N*44,0.0000000000,0.0000000000,12:47:40,9/1/2080,21,0,0.00,0,18.85,0,0
$GPRMC,124741.094,V,,,,,0.00,0.00,090180,,,N*45,0.0000000000,0.0000000000,12:47:41,9/1/2080,22,0,0.09,5,18.85,0,0
$GPRMC,124742.094,V,,,,,0.00,0.00,090180,,,N*46,0.0000000000,0.0000000000,12:47:42,9/1/2080,27,0,0.06,3,18.36,0,0
$GPGGA,124743.094,,,,,0,00,,,M,,M,,*72,0.0000000000,0.0000000000,12:47:43,9/1/2080,27,0,2.19,15,18.36,0,0
$GPRMC,124743.094,V,,,,,0.00,0.00,090180,,,N*47,0.0000000000,0.0000000000,12:47:43,9/1/2080,27,0,0.00,0,18.36,0,0
$GPRMC,124744.094,V,,,,,0.00,0.00,090180,,,N*40,0.0000000000,0.0000000000,12:47:44,9/1/2080,25,0,0.22,5,18.85,0,0
$GPRMC,124745.094,V,,,,,0.00,0.00,090180,,,N*41,0.0000000000,0.0000000000,12:47:45,9/1/2080,25,1,0.25,14,18.85,0,0
$GPRMC,124746.094,V,,,,,0.00,0.00,090180,,,N*42,0.0000000000,0.0000000000,12:47:46,9/1/2080,24,1,2.88,27,18.85,0,0
$GPRMC,124747.094,V,,,,,0.00,0.00,090180,,,N*43,0.0000000000,0.0000000000,12:47:47,9/1/2080,24,0,2.01,12,18.36,0,0
$GPRMC,124748.094,V,,,,,0.00,0.00,090180,,,N*4C,0.0000000000,0.0000000000,12:47:48,9/1/2080,24,0,0.44,6,18.85,0,0
$GPRMC,124749.091,V,,,,,0.00,0.00,090180,,,N*48,0.0000000000,0.0000000000,12:47:49,9/1/2080,25,0,0.18,3,18.85,0,0
$GPGGA,124749.310,,,,,0,00,,,M,,M,,*77,0.0000000000,0.0000000000,12:47:49,9/1/2080,25,0,0.03,1,18.85,0,0
$GPRMC,124749.310,V,,,,,0.00,0.00,090180,,,N*42,0.0000000000,0.0000000000,12:47:49,9/1/2080,25,0,0.00,0,18.85,0,0
$GPRMC,124750.310,V,,,,,0.00,0.00,090180,,,N*4A,0.0000000000,0.0000000000,12:47:50,9/1/2080,25,0,0.25,8,18.85,0,0
$GPGGA,124751.310,,,,,0,00,,,M,,M,,*7E,0.0000000000,0.0000000000,12:47:51,9/1/2080,25,0,0.17,6,18.85,0,0
$GPRMC,124751.310,V,,,,,0.00,0.00,090180,,,N*4B,0.0000000000,0.0000000000,12:47:51,9/1/2080,25,0,0.00,0,18.36,0,0
$GPGGA,124752.310,,,,,0,00,,,M,,M,,*7D,0.0000000000,0.0000000000,12:47:52,9/1/2080,25,0,0.19,4,18.85,0,0
$GPRMC,124752.310,V,,,,,0.00,0.00,090180,,,N*48,0.0000000000,0.0000000000,12:47:52,9/1/2080,25,0,0.00,0,18.85,0,0
$GPRMC,124753.310,V,,,,,0.00,0.00,090180,,,N*49,0.0000000000,0.0000000000,12:47:53,9/1/2080,25,0,0.06,5,18.85,0,0
$GPRMC,124754.310,V,,,,,0.00,0.00,090180,,,N*4E,0.0000000000,0.0000000000,12:47:54,9/1/2080,25,0,0.64,11,18.85,0,0
$GPRMC,124755.316,V,,,,,0.00,0.00,230316,,,N*4C,0.0000000000,0.0000000000,12:47:55,23/3/2016,25,0,0.06,3,18.85,0,0
$GPRMC,124756.316,V,,,,,0.00,0.00,230316,,,N*4F,0.0000000000,0.0000000000,12:47:56,23/3/2016,25,3,2.35,17,18.85,0,0
$GPRMC,124757.316,V,,,,,0.00,0.00,230316,,,N*4E,0.0000000000,0.0000000000,12:47:57,23/3/2016,25,1,0.61,11,18.36,0,0
$GPRMC,124758.316,V,,,,,0.00,0.00,230316,,,N*41,0.0000000000,0.0000000000,12:47:58,23/3/2016,25,0,0.59,10,18.85,0,0
$GPRMC,124759.316,V,,,,,0.00,0.00,230316,,,N*40,0.0000000000,0.0000000000,12:47:59,23/3/2016,25,13,1.19,22,18.85,0,0
$GPRMC,124800.316,V,,,,,0.00,0.00,230316,,,N*43,0.0000000000,0.0000000000,12:48:0,23/3/2016,27,0,0.98,17,18.85,0,0
$GPRMC,124801.097,V,,,,,0.00,0.00,230316,,,N*48,0.0000000000,0.0000000000,12:48:1,23/3/2016,28,0,0.11,5,18.85,0,0
$GPRMC,124801.316,V,,,,,0.00,0.00,230316,,,N*42,0.0000000000,0.0000000000,12:48:1,23/3/2016,28,0,0.00,1,18.85,0,0
$GPRMC,124802.316,V,,,,,0.00,0.00,230316,,,N*41,0.0000000000,0.0000000000,12:48:2,23/3/2016,27,0,0.01,3,18.85,0,0
$GPRMC,124803.316,V,,,,,0.00,0.00,230316,,,N*40,0.0000000000,0.0000000000,12:48:3,23/3/2016,27,1,0.70,10,18.85,0,0
$GPRMC,124804.316,V,,,,,0.00,0.00,230316,,,N*47,0.0000000000,0.0000000000,12:48:4,23/3/2016,27,0,0.39,10,18.85,0,0
$GPRMC,124805.316,V,,,,,0.00,0.00,230316,,,N*46,0.0000000000,0.0000000000,12:48:5,23/3/2016,27,0,0.08,4,18.85,0,0
$GPRMC,124806.316,V,,,,,0.00,0.00,230316,,,N*45,0.0000000000,0.0000000000,12:48:6,23/3/2016,27,0,0.03,3,18.85,0,0
$GPRMC,124807.106,V,,,,,0.00,0.00,230316,,,N*47,0.0000000000,0.0000000000,12:48:7,23/3/2016,27,0,0.51,11,18.85,0,0
$GPRMC,124808.106,V,,,,,0.00,0.00,230316,,,N*48,0.0000000000,0.0000000000,12:48:8,23/3/2016,27,0,0.12,7,18.85,0,0
$GPRMC,124809.106,V,,,,,0.00,0.00,230316,,,N*49,0.0000000000,0.0000000000,12:48:9,23/3/2016,27,0,0.03,3,18.85,0,0
$GPRMC,124810.106,V,,,,,0.00,0.00,230316,,,N*41,0.0000000000,0.0000000000,12:48:10,23/3/2016,27,0,0.03,2,18.85,0,0
$GPRMC,124811.106,V,,,,,0.00,0.00,230316,,,N*40,0.0000000000,0.0000000000,12:48:11,23/3/2016,27,0,0.03,2,18.85,0,0
$GPRMC,124812.106,V,,,,,0.00,0.00,230316,,,N*43,0.0000000000,0.0000000000,12:48:12,23/3/2016,27,0,0.10,8,18.85,0,0
$GPRMC,124813.088,V,,,,,0.00,0.00,230316,,,N*45,0.0000000000,0.0000000000,12:48:13,23/3/2016,27,0,0.13,5,18.85,0,0
$GPRMC,124813.309,V,,,,,0.00,0.00,230316,,,N*4F,0.0000000000,0.0000000000,12:48:13,23/3/2016,27,0,0.04,1,18.85,0,0
$GPRMC,124814.309,V,,,,,0.00,0.00,230316,,,N*48,0.0000000000,0.0000000000,12:48:14,23/3/2016,27,0,0.10,6,18.85,0,0
$GPRMC,124815.309,V,,,,,0.00,0.00,230316,,,N*49,0.0000000000,0.0000000000,12:48:15,23/3/2016,27,0,0.01,2,18.85,0,0
$GPRMC,124816.309,V,,,,,0.00,0.00,230316,,,N*4A,0.0000000000,0.0000000000,12:48:16,23/3/2016,27,0,0.10,5,18.85,0,0
$GPRMC,124817.309,V,,,,,0.00,0.00,230316,,,N*4B,0.0000000000,0.0000000000,12:48:17,23/3/2016,27,0,0.03,4,18.85,0,0
$GPRMC,124818.309,V,,,,,0.00,0.00,230316,,,N*44,0.0000000000,0.0000000000,12:48:18,23/3/2016,27,0,0.13,8,18.85,0,0
$GPRMC,124819.088,V,,,,,0.00,0.00,230316,,,N*4F,0.0000000000,0.0000000000,12:48:19,23/3/2016,27,0,0.17,7,18.85,0,0
$GPRMC,124819.309,V,,,,,0.00,0.00,230316,,,N*45,0.0000000000,0.0000000000,12:48:19,23/3/2016,27,0,0.07,2,18.36,0,0
$GPRMC,124820.309,V,,,,,0.00,0.00,230316,,,N*4F,0.0000000000,0.0000000000,12:48:20,23/3/2016,27,0,0.09,8,18.36,0,0
$GPRMC,124821.309,V,,,,,0.00,0.00,230316,,,N*4E,0.0000000000,0.0000000000,12:48:21,23/3/2016,27,0,0.03,2,18.36,0,0
$GPRMC,124822.309,V,,,,,0.00,0.00,230316,,,N*4D,0.0000000000,0.0000000000,12:48:22,23/3/2016,27,0,0.00,1,18.36,0,0
$GPRMC,124823.309,V,,,,,0.00,0.00,230316,,,N*4C,0.0000000000,0.0000000000,12:48:23,23/3/2016,27,0,0.01,2,18.36,0,0
$GPGGA,124824.309,,,,,0,00,,,M,,M,,*7B,0.0000000000,0.0000000000,12:48:24,23/3/2016,27,0,0.02,2,18.36,0,0
$GPRMC,124824.309,V,,,,,0.00,0.00,230316,,,N*4B,0.0000000000,0.0000000000,12:48:24,23/3/2016,27,0,0.00,0,17.87,0,0
$GPRMC,124825.088,V,,,,,0.00,0.00,230316,,,N*40,0.0000000000,0.0000000000,12:48:25,23/3/2016,27,0,0.00,0,17.87,0,0
$GPRMC,124825.309,V,,,,,0.00,0.00,230316,,,N*4A,0.0000000000,0.0000000000,12:48:25,23/3/2016,27,0,0.00,0,17.87,0,0
$GPRMC,124826.309,V,,,,,0.00,0.00,230316,,,N*49,0.0000000000,0.0000000000,12:48:26,23/3/2016,27,0,0.02,2,17.87,0,0
$GPRMC,124827.309,V,,,,,0.00,0.00,230316,,,N*48,0.0000000000,0.0000000000,12:48:27,23/3/2016,27,0,0.06,4,17.87,0,0
$GPRMC,124828.309,V,,,,,0.00,0.00,230316,,,N*47,0.0000000000,0.0000000000,12:48:28,23/3/2016,27,8,1.37,15,17.87,0,0
$GPRMC,124829.309,V,,,,,0.00,0.00,230316,,,N*46,0.0000000000,0.0000000000,12:48:29,23/3/2016,26,0,1.01,14,17.87,0,0
$GPRMC,124830.309,V,,,,,0.00,0.00,230316,,,N*4E,0.0000000000,0.0000000000,12:48:30,23/3/2016,28,0,1.85,20,17.87,0,0
$GPGGA,124831.101,,,,,0,00,,,M,,M,,*75,0.0000000000,0.0000000000,12:48:31,23/3/2016,28,0,0.32,10,17.38,0,0
$GPRMC,124831.101,V,,,,,0.00,0.00,230316,,,N*45,0.0000000000,0.0000000000,12:48:31,23/3/2016,28,3,3.00,3,17.38,0,0
$GPRMC,124832.101,V,,,,,0.00,0.00,230316,,,N*46,0.0000000000,0.0000000000,12:48:32,23/3/2016,28,2,4.35,27,16.89,0,0
$GPRMC,124833.101,V,,,,,0.00,0.00,230316,,,N*47,0.0000000000,0.0000000000,12:48:33,23/3/2016,27,0,0.92,15,17.38,0,0
$GPRMC,124834.101,V,,,,,0.00,0.00,230316,,,N*40,0.0000000000,0.0000000000,12:48:34,23/3/2016,27,0,0.32,9,16.89,0,0
$GPRMC,124835.101,V,,,,,0.00,0.00,230316,,,N*41,0.0000000000,0.0000000000,12:48:35,23/3/2016,27,0,0.21,6,16.89,0,0
$GPRMC,124836.101,V,,,,,0.00,0.00,230316,,,N*42,0.0000000000,0.0000000000,12:48:36,23/3/2016,27,0,2.38,21,16.89,0,0
$GPRMC,124837.087,V,,,,,0.00,0.00,230316,,,N*4C,0.0000000000,0.0000000000,12:48:37,23/3/2016,28,0,2.75,17,16.89,0,0
$GPRMC,124837.327,V,,,,,0.00,0.00,230316,,,N*45,0.0000000000,0.0000000000,12:48:37,23/3/2016,27,7,6.01,12,17.38,0,0
$GPRMC,124838.327,V,,,,,0.00,0.00,230316,,,N*4A,0.0000000000,0.0000000000,12:48:38,23/3/2016,27,3,0.14,6,16.89,0,0
$GPGGA,124839.327,,,,,0,00,,,M,,M,,*7B,0.0000000000,0.0000000000,12:48:39,23/3/2016,27,0,0.53,10,16.89,0,0
$GPRMC,124839.327,V,,,,,0.00,0.00,230316,,,N*4B,0.0000000000,0.0000000000,12:48:39,23/3/2016,27,0,0.00,0,16.89,0,0
$GPRMC,124840.327,V,,,,,0.00,0.00,230316,,,N*45,0.0000000000,0.0000000000,12:48:40,23/3/2016,28,0,0.52,11,16.89,0,0
$GPRMC,124841.327,V,,,,,0.00,0.00,230316,,,N*44,0.0000000000,0.0000000000,12:48:41,23/3/2016,29,0,0.01,2,16.89,0,0
$GPRMC,124842.327,V,,,,,0.00,0.00,230316,,,N*47,0.0000000000,0.0000000000,12:48:42,23/3/2016,28,3,1.34,12,16.41,0,0
$GPRMC,124843.087,V,,,,,0.00,0.00,230316,,,N*4F,0.0000000000,0.0000000000,12:48:43,23/3/2016,28,2,1.00,13,16.41,0,0
$GPRMC,124843.308,V,,,,,0.00,0.00,230316,,,N*4B,0.0000000000,0.0000000000,12:48:43,23/3/2016,28,0,0.23,3,16.89,0,0
$GPGGA,124844.308,,,,,0,00,,,M,,M,,*7C,0.0000000000,0.0000000000,12:48:44,23/3/2016,27,0,1.29,21,16.41,0,0
$GPRMC,124844.308,V,,,,,0.00,0.00,230316,,,N*4C,0.0000000000,0.0000000000,12:48:44,23/3/2016,27,0,0.00,0,16.41,0,0
$GPGGA,124845.308,,,,,0,00,,,M,,M,,*7D,0.0000000000,0.0000000000,12:48:45,23/3/2016,27,0,1.56,19,16.41,0,0
$GPRMC,124845.308,V,,,,,0.00,0.00,230316,,,N*4D,0.0000000000,0.0000000000,12:48:45,23/3/2016,27,0,0.00,0,16.41,0,0
$GPRMC,124846.308,V,,,,,0.00,0.00,230316,,,N*4E,0.0000000000,0.0000000000,12:48:46,23/3/2016,27,0,0.03,5,16.41,0,0
$GPRMC,124847.308,V,,,,,0.00,0.00,230316,,,N*4F,0.0000000000,0.0000000000,12:48:47,23/3/2016,27,0,0.01,2,16.89,0,0
$GPRMC,124848.308,V,,,,,0.00,0.00,230316,,,N*40,0.0000000000,0.0000000000,12:48:48,23/3/2016,27,0,0.17,10,16.89,0,0
$GPRMC,124849.096,V,,,,,0.00,0.00,230316,,,N*45,0.0000000000,0.0000000000,12:48:49,23/3/2016,27,0,0.05,6,16.89,0,0
$GPRMC,124850.096,V,,,,,0.00,0.00,230316,,,N*4D,0.0000000000,0.0000000000,12:48:50,23/3/2016,27,0,0.09,6,16.89,0,0
$GPRMC,124851.096,V,,,,,0.00,0.00,230316,,,N*4C,0.0000000000,0.0000000000,12:48:51,23/3/2016,26,0,0.09,6,16.89,0,0
$GPGGA,124852.096,,,,,0,00,,,M,,M,,*7F,0.0000000000,0.0000000000,12:48:52,23/3/2016,26,0,0.02,2,16.89,0,0
$GPRMC,124852.096,V,,,,,0.00,0.00,230316,,,N*4F,0.0000000000,0.0000000000,12:48:52,23/3/2016,26,0,0.00,0,16.89,0,0
$GPRMC,124853.096,V,,,,,0.00,0.00,230316,,,N*4E,0.0000000000,0.0000000000,12:48:53,23/3/2016,27,0,0.07,6,16.89,0,0
$GPRMC,124854.096,V,,,,,0.00,0.00,230316,,,N*49,0.0000000000,0.0000000000,12:48:54,23/3/2016,27,0,0.06,8,16.89,0,0
$GPRMC,124855.096,V,,,,,0.00,0.00,230316,,,N*48,0.0000000000,0.0000000000,12:48:55,23/3/2016,27,0,0.20,10,16.89,0,0
$GPRMC,124855.304,V,,,,,0.00,0.00,230316,,,N*40,0.0000000000,0.0000000000,12:48:55,23/3/2016,27,0,0.00,0,16.89,0,0
$GPRMC,124856.304,V,,,,,0.00,0.00,230316,,,N*43,0.0000000000,0.0000000000,12:48:56,23/3/2016,27,0,0.75,10,16.89,0,0
$GPRMC,124857.304,V,,,,,0.00,0.00,230316,,,N*42,0.0000000000,0.0000000000,12:48:57,23/3/2016,28,3,0.18,3,16.89,0,0
$GPRMC,124858.304,V,,,,,0.00,0.00,230316,,,N*4D,0.0000000000,0.0000000000,12:48:58,23/3/2016,27,0,0.13,5,16.89,0,0
$GPRMC,124859.304,V,,,,,0.00,0.00,230316,,,N*4C,0.0000000000,0.0000000000,12:48:59,23/3/2016,27,0,0.15,9,16.41,0,0
$GPRMC,124900.304,V,,,,,0.00,0.00,230316,,,N*41,0.0000000000,0.0000000000,12:49:0,23/3/2016,27,0,0.63,12,16.41,0,0
$GPRMC,124901.097,V,,,,,0.41,212.94,230316,,,N*40,0.0000000000,0.0000000000,12:49:1,23/3/2016,27,0,0.11,6,16.41,0,0
$GPRMC,124902.097,V,,,,,0.16,103.62,230316,,,N*4B,0.0000000000,0.0000000000,12:49:2,23/3/2016,26,0,0.13,7,16.41,0,0
$GPRMC,124904.000,V,,,,,0.23,236.16,230316,,,N*43,0.0000000000,0.0000000000,12:49:4,23/3/2016,27,0,0.06,4,15.92,0,0
$GPRMC,124905.000,V,,,,,0.11,35.63,230316,,,N*70,0.0000000000,0.0000000000,12:49:5,23/3/2016,26,0,0.22,5,16.41,0,0
$GPRMC,124906.000,V,,,,,0.25,281.17,230316,,,N*4A,0.0000000000,0.0000000000,12:49:6,23/3/2016,27,0,0.03,3,16.41,0,0
$GPRMC,124907.000,V,,,,,0.33,219.51,230316,,,N*4F,0.0000000000,0.0000000000,12:49:7,23/3/2016,27,0,0.14,9,16.41,0,0
$GPRMC,124907.214,V,,,,,0.31,227.50,230316,,,N*46,0.0000000000,0.0000000000,12:49:7,23/3/2016,27,0,0.00,0,16.41,0,0
$GPRMC,124909.000,V,,,,,0.15,203.12,230316,,,N*49,0.0000000000,0.0000000000,12:49:9,23/3/2016,28,0,0.06,6,15.92,0,0
$GPRMC,124910.000,V,,,,,0.48,140.43,230316,,,N*49,0.0000000000,0.0000000000,12:49:10,23/3/2016,28,0,0.09,9,15.92,0,0
$GPRMC,124911.000,V,,,,,0.43,135.44,230316,,,N*46,0.0000000000,0.0000000000,12:49:11,23/3/2016,28,0,0.03,3,16.41,0,0
$GPRMC,124912.000,V,,,,,0.32,129.59,230316,,,N*42,0.0000000000,0.0000000000,12:49:12,23/3/2016,27,0,0.02,2,15.92,0,0
$GPRMC,124913.000,V,,,,,0.25,116.06,230316,,,N*43,0.0000000000,0.0000000000,12:49:13,23/3/2016,27,0,0.01,2,15.92,0,0
$GPRMC,124913.213,V,,,,,0.31,131.46,230316,,,N*47,0.0000000000,0.0000000000,12:49:13,23/3/2016,27,0,0.02,1,15.92,0,0
$GPRMC,124915.000,V,,,,,0.26,87.33,230316,,,N*79,0.0000000000,0.0000000000,12:49:15,23/3/2016,27,0,0.19,14,15.92,0,0
$GPRMC,124916.000,V,,,,,0.54,103.93,230316,,,N*48,0.0000000000,0.0000000000,12:49:16,23/3/2016,26,0,0.70,10,15.92,0,0
$GPRMC,124917.000,V,,,,,0.80,86.40,230316,,,N*72,0.0000000000,0.0000000000,12:49:17,23/3/2016,27,0,0.06,5,15.92,0,0
$GPRMC,124918.000,V,,,,,0.33,129.80,230316,,,N*4D,0.0000000000,0.0000000000,12:49:18,23/3/2016,28,0,1.86,33,15.92,0,0
$GPRMC,124919.000,V,,,,,0.21,180.53,230316,,,N*42,0.0000000000,0.0000000000,12:49:19,23/3/2016,27,4,0.11,6,15.92,0,0
$GPRMC,124919.206,V,,,,,0.18,176.55,230316,,,N*43,0.0000000000,0.0000000000,12:49:19,23/3/2016,27,0,0.68,5,15.92,0,0
$GPRMC,124921.000,V,,,,,0.27,150.61,230316,,,N*43,0.0000000000,0.0000000000,12:49:21,23/3/2016,29,0,0.56,12,15.92,0,0
$GPRMC,124922.000,V,,,,,0.65,112.43,230316,,,N*40,0.0000000000,0.0000000000,12:49:22,23/3/2016,29,0,0.35,8,15.92,0,0
$GPRMC,124923.000,V,,,,,0.47,115.77,230316,,,N*41,0.0000000000,0.0000000000,12:49:23,23/3/2016,30,1,0.11,5,15.92,0,0
$GPRMC,124924.000,V,,,,,0.20,262.10,230316,,,N*45,0.0000000000,0.0000000000,12:49:24,23/3/2016,30,0,0.20,5,15.92,0,0
$GPRMC,124925.000,V,,,,,0.47,176.50,230316,,,N*47,0.0000000000,0.0000000000,12:49:25,23/3/2016,29,1,1.40,15,15.92,0,0
$GPRMC,124925.207,V,,,,,0.42,167.77,230316,,,N*42,0.0000000000,0.0000000000,12:49:25,23/3/2016,28,0,0.07,4,15.92,0,0
$GPRMC,124927.000,V,,,,,0.43,144.24,230316,,,N*43,0.0000000000,0.0000000000,12:49:27,23/3/2016,29,0,0.41,13,15.92,0,0
$GPRMC,124928.000,V,,,,,0.66,137.30,230316,,,N*4A,0.0000000000,0.0000000000,12:49:28,23/3/2016,29,9,1.73,17,15.92,0,0
$GPGGA,124929.000,,,,,0,03,,,M,,M,,*7E,0.0000000000,0.0000000000,12:49:29,23/3/2016,29,2,0.57,8,15.92,0,0
$GPRMC,124929.000,V,,,,,0.43,113.29,230316,,,N*42,0.0000000000,0.0000000000,12:49:29,23/3/2016,29,1,1.00,1,15.92,0,0
$GPGGA,124930.000,,,,,0,03,,,M,,M,,*76,0.0000000000,0.0000000000,12:49:30,23/3/2016,29,0,0.18,12,15.92,0,0
$GPRMC,124930.000,V,,,,,0.64,60.00,230316,,,N*71,0.0000000000,0.0000000000,12:49:30,23/3/2016,30,0,0.00,0,15.92,0,0
$GPGGA,124931.216,5130.1093,N,00000.27,0.0000000000,0.0000000000,12:49:31,23/3/2016,29,0,0.20,9,15.92,0,0
$GPRMC,124931.216,A,5130.1093,N,00000.2777,E,0.31,333.96,230316,,,A*65,51.5018234252,0.0046283001,12:49:31,23/3/2016,29,0,0.00,0,15.92,0,0
$GPRMC,124933.000,A,5130.1095,N,00000.2779,E,0.40,310.70,230316,,,A*65,51.5018234252,0.0046316003,12:49:33,23/3/2016,29,3,0.78,35,15.92,0,0
$GPRMC,124934.000,A,5130.1096,N,00000.2782,E,0.40,333.97,230316,,,A*6D,51.5018234252,0.0046366004,12:49:34,23/3/2016,30,0,0.53,21,15.92,0,0
$GPRMC,124935.000,A,5130.1096,N,00000.2780,E,0.52,289.37,230316,,,A*67,51.5018234252,0.0046332998,12:49:35,23/3/2016,29,0,0.06,4,15.92,0,0
$GPRMC,124936.000,A,5130.1098,N,00000.2784,E,0.51,320.78,230316,,,A*64,51.5018310546,0.0046399998,12:49:36,23/3/2016,29,0,0.09,6,15.92,0,0
$GPRMC,124937.000,A,5130.1098,N,00000.2784,E,0.37,316.28,230316,,,A*65,51.5018310546,0.0046399998,12:49:37,23/3/2016,29,0,0.08,4,15.92,0,0
$GPRMC,124938.000,A,5130.1098,N,00000.2779,E,0.34,315.32,230316,,,A*63,51.5018310546,0.0046316003,12:49:38,23/3/2016,28,7,4.42,55,15.92,0,0
$GPRMC,124939.000,A,5130.1095,N,00000.2778,E,0.25,297.67,230316,,,A*65,51.5018234252,0.0046300001,12:49:39,23/3/2016,27,0,5.18,33,15.92,0,0
$GPRMC,124940.000,A,5130.1092,N,00000.2781,E,0.05,185.78,230316,,,A*66,51.5018234252,0.0046350002,12:49:40,23/3/2016,28,4,2.19,18,15.92,0,0
$GPRMC,124941.000,A,5130.1090,N,00000.2780,E,0.31,82.49,230316,,,A*57,51.5018157958,0.0046332998,12:49:41,23/3/2016,28,2,1.27,28,15.92,0,0
$GPRMC,124942.000,A,5130.1088,N,00000.2776,E,0.28,70.77,230316,,,A*5C,51.5018157958,0.0046266002,12:49:42,23/3/2016,28,0,0.27,7,15.92,0,0
$GPRMC,124943.000,A,5130.1085,N,00000.2774,E,0.30,109.88,230316,,,A*64,51.5018081665,0.0046233005,12:49:43,23/3/2016,28,0,0.17,5,15.92,0,0
$GPRMC,124944.000,A,5130.1084,N,00000.2776,E,0.42,99.54,230316,,,A*5C,51.5018081665,0.0046266002,12:49:44,23/3/2016,28,0,0.10,5,15.92,0,0
$GPRMC,124945.000,A,5130.1083,N,00000.2774,E,0.37,88.23,230316,,,A*5A,51.5018081665,0.0046233005,12:49:45,23/3/2016,29,0,0.12,9,15.92,0,0
$GPRMC,124946.000,A,5130.1083,N,00000.2773,E,0.37,83.94,230316,,,A*59,51.5018081665,0.0046216006,12:49:46,23/3/2016,29,0,0.25,5,15.92,0,0
$GPRMC,124947.000,A,5130.1086,N,00000.2771,E,0.45,34.34,230316,,,A*5C,51.5018081665,0.0046183004,12:49:47,23/3/2016,28,0,0.60,13,15.92,0,0
$GPRMC,124948.000,A,5130.1085,N,00000.2763,E,0.24,5.71,230316,,,A*67,51.5018081665,0.0046050004,12:49:48,23/3/2016,29,0,0.51,9,15.92,0,0
$GPRMC,124949.000,A,5130.1084,N,00000.2751,E,0.36,320.03,230316,,,A*64,51.5018081665,0.0045850000,12:49:49,23/3/2016,29,0,0.32,9,15.92,0,0
$GPRMC,124950.000,A,5130.1083,N,00000.2745,E,0.27,297.55,230316,,,A*60,51.5018081665,0.0045749998,12:49:50,23/3/2016,29,0,0.13,4,15.92,0,0
$GPRMC,124951.000,A,5130.1086,N,00000.2743,E,0.39,325.82,230316,,,A*6F,51.5018081665,0.0045716004,12:49:51,23/3/2016,28,0,7.25,47,15.92,0,0
$GPRMC,124952.000,A,5130.1088,N,00000.2744,E,0.32,358.60,230316,,,A*68,51.5018157958,0.0045733003,12:49:52,23/3/2016,28,4,0.19,7,15.92,0,0
$GPRMC,124953.000,A,5130.1088,N,00000.2741,E,0.32,99.48,230316,,,A*58,51.5018157958,0.0045683002,12:49:53,23/3/2016,28,0,12.28,53,15.92,0,0
$GPRMC,124954.000,A,5130.1088,N,00000.2737,E,0.22,104.20,230316,,,A*64,51.5018157958,0.0045616002,12:49:54,23/3/2016,28,1,0.74,9,15.92,0,0
$GPRMC,124955.000,A,5130.1090,N,00000.2736,E,0.21,60.64,230316,,,A*5D,51.5018157958,0.0045600004,12:49:55,23/3/2016,28,0,1.40,18,15.92,0,0
$GPRMC,124956.000,A,5130.1091,N,00000.2732,E,0.22,336.66,230316,,,A*6A,51.5018157958,0.0045532999,12:49:56,23/3/2016,29,3,0.86,11,15.92,0,0
$GPRMC,124957.000,A,5130.1092,N,00000.2730,E,0.14,351.38,230316,,,A*65,51.5018234252,0.0045500001,12:49:57,23/3/2016,28,0,4.63,43,15.92,0,0
$GPRMC,124958.000,A,5130.1095,N,00000.2728,E,0.28,4.95,230316,,,A*6F,51.5018234252,0.0045465998,12:49:58,23/3/2016,27,8,5.17,44,15.92,0,0
$GPRMC,124959.000,A,5130.1098,N,00000.2725,E,0.20,357.83,230316,,,A*64,51.5018310546,0.0045416002,12:49:59,23/3/2016,27,8,1.68,20,15.43,0,0
$GPRMC,125000.000,A,5130.1102,N,00000.2726,E,0.29,28.79,230316,,,A*56,51.5018386840,0.0045433001,12:50:0,23/3/2016,28,0,1.97,17,15.43,0,0
$GPRMC,125001.000,A,5130.1104,N,00000.2728,E,0.24,44.50,230316,,,A*53,51.5018386840,0.0045465998,12:50:1,23/3/2016,27,1,0.48,12,15.43,0,0
$GPRMC,125002.000,A,5130.1108,N,00000.2729,E,0.22,22.73,230316,,,A*5A,51.5018463134,0.0045483007,12:50:2,23/3/2016,28,0,0.20,6,15.43,0,0
$GPRMC,125003.000,A,5130.1106,N,00000.2733,E,0.70,160.88,230316,,,A*6A,51.5018463134,0.0045550003,12:50:3,23/3/2016,28,0,0.26,7,15.43,0,0
$GPRMC,125004.000,A,5130.1108,N,00000.2734,E,0.62,154.69,230316,,,A*6F,51.5018463134,0.0045566005,12:50:4,23/3/2016,28,0,5.35,35,15.43,0,0
$GPRMC,125005.000,A,5130.1109,N,00000.2739,E,0.75,129.33,230316,,,A*61,51.5018463134,0.0045650000,12:50:5,23/3/2016,28,1,0.34,8,15.43,0,0
$GPRMC,125006.000,A,5130.1108,N,00000.2743,E,0.76,123.14,230316,,,A*62,51.5018463134,0.0045716004,12:50:6,23/3/2016,31,4,8.35,42,15.43,0,0
$GPRMC,125007.000,A,5130.1108,N,00000.2747,E,0.71,119.23,230316,,,A*6D,51.5018463134,0.0045782999,12:50:7,23/3/2016,30,1,2.70,19,15.43,0,0
$GPRMC,125008.000,A,5130.1110,N,00000.2754,E,0.58,100.00,230316,,,A*6B,51.5018463134,0.0045900001,12:50:8,23/3/2016,30,0,0.36,8,15.43,0,0
$GPRMC,125009.000,A,5130.1112,N,00000.2760,E,0.44,87.03,230316,,,A*5F,51.5018539428,0.0046000003,12:50:9,23/3/2016,30,0,0.44,9,15.43,0,0
$GPRMC,125010.000,A,5130.1114,N,00000.2765,E,0.51,86.37,230316,,,A*56,51.5018539428,0.0046083002,12:50:10,23/3/2016,29,0,2.73,24,15.43,0,0
$GPRMC,125011.000,A,5130.1115,N,00000.2766,E,0.42,72.42,230316,,,A*5E,51.5018539428,0.0046100001,12:50:11,23/3/2016,38,4,0.95,12,14.94,0,0
$GPRMC,125012.000,A,5130.1115,N,00000.2768,E,0.54,61.33,230316,,,A*50,51.5018539428,0.0046133003,12:50:12,23/3/2016,33,3,1.72,22,14.94,0,0
$GPRMC,125013.000,A,5130.1116,N,00000.2770,E,0.34,23.82,230316,,,A*51,51.5018653869,0.0046166000,12:50:13,23/3/2016,26,5,1.83,14,14.94,0,0
$GPRMC,125014.000,A,5130.1117,N,00000.2770,E,0.33,59.45,230316,,,A*56,51.5018653869,0.0046166000,12:50:14,23/3/2016,26,0,3.78,33,14.94,0,0
$GPRMC,125015.000,A,5130.1117,N,00000.2771,E,0.29,111.44,230316,,,A*61,51.5018653869,0.0046183004,12:50:15,23/3/2016,26,0,15.80,80,14.94,0,0
$GPRMC,125016.000,A,5130.1117,N,00000.2773,E,0.26,106.10,230316,,,A*68,51.5018653869,0.0046216006,12:50:16,23/3/2016,25,0,17.74,96,14.94,0,0
$GPRMC,125017.000,A,5130.1117,N,00000.2774,E,0.41,85.89,230316,,,A*55,51.5018653869,0.0046233005,12:50:17,23/3/2016,23,5,9.28,45,14.45,0,0
$GPRMC,125018.000,A,5130.1117,N,00000.2776,E,0.46,61.68,230316,,,A*5A,51.5018653869,0.0046266002,12:50:18,23/3/2016,23,3,3.20,20,14.45,0,0
$GPRMC,125019.000,A,5130.1118,N,00000.2777,E,0.36,31.83,230316,,,A*52,51.5018653869,0.0046283001,12:50:19,23/3/2016,25,21,11.01,41,14.45,0,0
$GPRMC,125020.000,A,5130.1119,N,00000.2778,E,0.17,70.19,230316,,,A*53,51.5018653869,0.0046300001,12:50:20,23/3/2016,24,0,2.02,19,14.45,0,0
$GPRMC,125021.000,A,5130.1119,N,00000.2779,E,0.10,111.32,230316,,,A*6B,51.5018653869,0.0046316003,12:50:21,23/3/2016,25,1,2.82,57,14.45,0,0
$GPRMC,125022.000,A,5130.1119,N,00000.2779,E,0.11,102.63,230316,,,A*6F,51.5018653869,0.0046316003,12:50:22,23/3/2016,25,1,4.38,26,14.45,0,0
$GPRMC,125023.000,A,5130.1119,N,00000.2780,E,0.21,83.00,230316,,,A*56,51.5018653869,0.0046332998,12:50:23,23/3/2016,26,3,0.80,9,14.45,0,0
$GPRMC,125024.000,A,5130.1119,N,00000.2780,E,0.47,69.42,230316,,,A*53,51.5018653869,0.0046332998,12:50:24,23/3/2016,25,9,2.22,17,14.45,0,0
$GPRMC,125025.000,A,5130.1119,N,00000.2782,E,0.38,77.83,230316,,,A*5A,51.5018653869,0.0046366004,12:50:25,23/3/2016,26,0,1.72,17,13.96,0,0
$GPRMC,125026.000,A,5130.1119,N,00000.2784,E,0.37,79.06,230316,,,A*53,51.5018653869,0.0046399998,12:50:26,23/3/2016,25,0,0.40,8,13.96,0,0
$GPRMC,125027.000,A,5130.1119,N,00000.2785,E,0.31,103.22,230316,,,A*6F,51.5018653869,0.0046416001,12:50:27,23/3/2016,25,0,2.07,19,14.45,0,0
$GPRMC,125028.000,A,5130.1119,N,00000.2786,E,0.57,78.69,230316,,,A*51,51.5018653869,0.0046433000,12:50:28,23/3/2016,24,0,3.06,21,13.96,0,0
$GPRMC,125029.000,A,5130.1119,N,00000.2789,E,0.50,90.84,230316,,,A*5D,51.5018653869,0.0046482996,12:50:29,23/3/2016,27,0,0.97,12,13.96,0,0
$GPRMC,125030.000,A,5130.1119,N,00000.2791,E,0.46,55.29,230316,,,A*55,51.5018653869,0.0046515998,12:50:30,23/3/2016,26,0,0.25,5,13.96,0,0
$GPRMC,125031.000,A,5130.1120,N,00000.2792,E,0.22,35.44,230316,,,A*52,51.5018653869,0.0046533002,12:50:31,23/3/2016,30,0,0.20,6,14.45,0,0
$GPRMC,125032.000,A,5130.1120,N,00000.2793,E,0.04,7.63,230316,,,A*60,51.5018653869,0.0046550002,12:50:32,23/3/2016,26,0,2.25,32,14.45,0,0
$GPRMC,125033.000,A,5130.1120,N,00000.2793,E,0.20,200.71,230316,,,A*61,51.5018653869,0.0046550002,12:50:33,23/3/2016,27,1,3.73,37,14.45,0,0
$GPRMC,125034.000,A,5130.1120,N,00000.2793,E,0.31,156.81,230316,,,A*69,51.5018653869,0.0046550002,12:50:34,23/3/2016,25,0,0.23,9,14.45,0,0
$GPRMC,125035.000,A,5130.1119,N,00000.2793,E,0.13,213.19,230316,,,A*61,51.5018653869,0.0046550002,12:50:35,23/3/2016,25,0,0.01,2,14.45,0,0
$GPRMC,125036.000,A,5130.1119,N,00000.2793,E,0.18,175.20,230316,,,A*60,51.5018653869,0.0046550002,12:50:36,23/3/2016,27,0,0.38,7,14.45,0,0
$GPRMC,125037.000,A,5130.1118,N,00000.2793,E,0.11,90.84,230316,,,A*5D,51.5018653869,0.0046550002,12:50:37,23/3/2016,23,0,0.38,10,14.45,0,0
$GPRMC,125038.000,A,5130.1118,N,00000.2793,E,0.19,49.17,230316,,,A*54,51.5018653869,0.0046550002,12:50:38,23/3/2016,24,3,3.18,34,14.45,0,0
$GPRMC,125039.000,A,5130.1119,N,00000.2794,E,0.09,52.90,230316,,,A*57,51.5018653869,0.0046565999,12:50:39,23/3/2016,24,0,0.72,15,14.45,0,0
$GPRMC,125040.000,A,5130.1119,N,00000.2794,E,0.33,93.28,230316,,,A*5E,51.5018653869,0.0046565999,12:50:40,23/3/2016,21,0,0.16,6,14.45,0,0
$GPRMC,125041.000,A,5130.1119,N,00000.2796,E,0.81,98.13,230316,,,A*57,51.5018653869,0.0046600008,12:50:41,23/3/2016,22,0,0.06,5,14.45,0,0
$GPRMC,125042.000,A,5130.1118,N,00000.2800,E,0.62,109.24,230316,,,A*65,51.5018653869,0.0046665997,12:50:42,23/3/2016,23,0,0.02,2,14.45,0,0
$GPRMC,125043.000,A,5130.1115,N,00000.2801,E,0.59,122.44,230316,,,A*6F,51.5018539428,0.0046683006,12:50:43,23/3/2016,27,0,0.05,3,14.45,0,0
$GPRMC,125044.000,A,5130.1114,N,00000.2798,E,0.22,143.70,230316,,,A*6A,51.5018539428,0.0046633000,12:50:44,23/3/2016,25,71,4.24,83,14.45,0,0
$GPRMC,125045.000,A,5130.1113,N,00000.2802,E,0.20,174.29,230316,,,A*6A,51.5018539428,0.0046700000,12:50:45,23/3/2016,26,0,3.18,66,14.45,0,0
$GPRMC,125046.000,A,5130.1111,N,00000.2801,E,0.39,217.12,230316,,,A*6E,51.5018539428,0.0046683006,12:50:46,23/3/2016,25,4,3.14,35,14.45,0,0
$GPRMC,125047.000,A,5130.1104,N,00000.2807,E,0.68,165.56,230316,,,A*6F,51.5018386840,0.0046782999,12:50:47,23/3/2016,24,0,0.39,9,14.45,0,0
$GPRMC,125048.000,A,5130.1103,N,00000.2802,E,0.38,183.47,230316,,,A*6F,51.5018386840,0.0046700000,12:50:48,23/3/2016,25,12,5.75,39,14.45,0,0
$GPRMC,125049.000,A,5130.1099,N,00000.2799,E,0.38,166.79,230316,,,A*67,51.5018310546,0.0046650004,12:50:49,23/3/2016,27,7,3.69,16,14.45,0,0
$GPRMC,125050.000,A,5130.1099,N,00000.2795,E,0.26,188.81,230316,,,A*6B,51.5018310546,0.0046582999,12:50:50,23/3/2016,28,4,1.69,17,14.45,0,0
$GPRMC,125051.000,A,5130.1098,N,00000.2794,E,0.39,146.70,230316,,,A*68,51.5018310546,0.0046565999,12:50:51,23/3/2016,28,6,4.93,45,14.45,0,0
$GPRMC,125052.000,A,5130.1097,N,00000.2795,E,0.53,80.33,230316,,,A*55,51.5018310546,0.0046582999,12:50:52,23/3/2016,28,1,0.17,5,14.45,0,0
$GPRMC,125053.000,A,5130.1098,N,00000.2797,E,0.43,126.22,230316,,,A*65,51.5018310546,0.0046616001,12:50:53,23/3/2016,25,0,0.05,3,14.45,0,0
$GPRMC,125054.000,A,5130.1097,N,00000.2798,E,0.36,124.64,230316,,,A*60,51.5018310546,0.0046633000,12:50:54,23/3/2016,20,0,1.46,15,14.45,0,0
$GPRMC,125055.000,A,5130.1096,N,00000.2800,E,0.18,51.64,230316,,,A*51,51.5018234252,0.0046665997,12:50:55,23/3/2016,22,0,0.25,6,14.45,0,0
$GPRMC,125056.000,A,5130.1097,N,00000.2800,E,0.13,346.54,230316,,,A*6E,51.5018310546,0.0046665997,12:50:56,23/3/2016,24,0,0.07,3,13.96,0,0
$GPRMC,125057.000,A,5130.1097,N,00000.2800,E,0.39,260.52,230316,,,A*64,51.5018310546,0.0046665997,12:50:57,23/3/2016,25,1,0.38,9,13.96,0,0
$GPRMC,125058.000,A,5130.1097,N,00000.2798,E,0.07,247.52,230316,,,A*6D,51.5018310546,0.0046633000,12:50:58,23/3/2016,24,0,0.09,4,13.96,0,0
$GPRMC,125059.000,A,5130.1097,N,00000.2798,E,0.03,332.56,230316,,,A*6F,51.5018310546,0.0046633000,12:50:59,23/3/2016,29,1,1.63,35,13.96,0,0
$GPRMC,125100.000,A,5130.1097,N,00000.2798,E,0.16,264.77,230316,,,A*67,51.5018310546,0.0046633000,12:51:0,23/3/2016,27,0,0.02,3,13.96,0,0
$GPRMC,125101.000,A,5130.1097,N,00000.2798,E,0.07,266.08,230316,,,A*6C,51.5018310546,0.0046633000,12:51:1,23/3/2016,27,1,2.49,54,13.96,0,0
$GPRMC,125102.000,A,5130.1097,N,00000.2797,E,0.19,293.02,230316,,,A*6F,51.5018310546,0.0046616001,12:51:2,23/3/2016,27,0,0.12,5,13.96,0,0
$GPRMC,125103.000,A,5130.1097,N,00000.2796,E,0.44,261.01,230316,,,A*69,51.5018310546,0.0046600008,12:51:3,23/3/2016,26,0,0.00,1,13.96,0,0
$GPRMC,125104.000,A,5130.1097,N,00000.2794,E,0.97,248.01,230316,,,A*69,51.5018310546,0.0046565999,12:51:4,23/3/2016,27,0,0.33,8,13.96,0,0
$GPRMC,125105.000,A,5130.1095,N,00000.2783,E,1.07,255.10,230316,,,A*68,51.5018234252,0.0046382999,12:51:5,23/3/2016,26,0,0.02,4,13.96,0,0
$GPRMC,125106.000,A,5130.1094,N,00000.2772,E,1.30,256.93,230316,,,A*68,51.5018234252,0.0046200003,12:51:6,23/3/2016,25,0,0.03,5,13.96,0,0
$GPRMC,125107.000,A,5130.1090,N,00000.2755,E,1.47,238.26,230316,,,A*6E,51.5018157958,0.0045915994,12:51:7,23/3/2016,25,0,0.02,2,13.96,0,0
$GPRMC,125108.000,A,5130.1089,N,00000.2752,E,1.30,227.55,230316,,,A*64,51.5018157958,0.0045866003,12:51:8,23/3/2016,25,2,6.60,45,13.96,0,0
$GPRMC,125109.000,A,5130.1085,N,00000.2729,E,1.67,237.17,230316,,,A*60,51.5018081665,0.0045483007,12:51:9,23/3/2016,25,0,0.00,1,13.96,0,0
$GPRMC,125110.000,A,5130.1082,N,00000.2722,E,1.38,231.70,230316,,,A*69,51.5018081665,0.0045365996,12:51:10,23/3/2016,25,1,5.50,48,13.96,0,0
$GPRMC,125111.000,A,5130.1079,N,00000.2715,E,1.08,230.79,230316,,,A*63,51.5017967224,0.0045250000,12:51:11,23/3/2016,26,0,1.20,13,13.96,0,0
$GPRMC,125112.000,A,5130.1073,N,00000.2703,E,1.27,230.96,230316,,,A*61,51.5017890930,0.0045050001,12:51:12,23/3/2016,27,4,1.48,30,13.96,0,0
$GPRMC,125113.000,A,5130.1071,N,00000.2695,E,1.30,230.74,230316,,,A*66,51.5017814636,0.0044916005,12:51:13,23/3/2016,27,0,1.21,15,13.96,0,0
$GPRMC,125114.000,A,5130.1060,N,00000.2690,E,1.15,217.71,230316,,,A*63,51.5017662048,0.0044832997,12:51:14,23/3/2016,28,2,4.72,28,13.96,0,0
$GPRMC,125115.000,A,5130.1056,N,00000.2679,E,1.36,220.08,230316,,,A*6B,51.5017585754,0.0044650001,12:51:15,23/3/2016,26,0,0.15,6,13.96,0,0
$GPRMC,125116.000,A,5130.1052,N,00000.2671,E,1.43,218.69,230316,,,A*6A,51.5017509460,0.0044516000,12:51:16,23/3/2016,25,0,0.18,6,13.96,0,0
$GPRMC,125117.000,A,5130.1044,N,00000.2662,E,1.55,215.14,230316,,,A*6E,51.5017433166,0.0044366002,12:51:17,23/3/2016,26,0,0.06,2,13.96,0,0
$GPRMC,125118.000,A,5130.1040,N,00000.2663,E,1.48,207.98,230316,,,A*6F,51.5017318725,0.0044383001,12:51:18,23/3/2016,26,0,5.27,28,13.96,0,0
$GPRMC,125119.000,A,5130.1037,N,00000.2659,E,1.56,216.71,230316,,,A*6F,51.5017242431,0.0044316000,12:51:19,23/3/2016,24,7,10.44,46,13.96,1,1
$GPRMC,125120.000,A,5130.1029,N,00000.2656,E,1.75,199.90,230316,,,A*6F,51.5017166137,0.0044265999,12:51:20,23/3/2016,24,0,3.57,36,13.96,0,1
$GPRMC,125121.000,A,5130.1027,N,00000.2650,E,1.51,203.81,230316,,,A*60,51.5017089843,0.0044166002,12:51:21,23/3/2016,25,0,0.07,3,13.96,0,1
$GPRMC,125122.000,A,5130.1020,N,00000.2642,E,1.76,207.41,230316,,,A*6A,51.5017013549,0.0044033002,12:51:22,23/3/2016,25,0,1.26,13,13.96,0,1
$GPRMC,125123.000,A,5130.1016,N,00000.2635,E,1.79,210.16,230316,,,A*65,51.5016937255,0.0043916001,12:51:23,23/3/2016,24,0,0.78,16,13.96,0,1
$GPRMC,125124.000,A,5130.1008,N,00000.2631,E,2.14,206.40,230316,,,A*65,51.5016746520,0.0043850002,12:51:24,23/3/2016,24,1,0.90,22,13.96,1,2
$GPRMC,125125.000,A,5130.1003,N,00000.2626,E,2.16,213.97,230316,,,A*65,51.5016670227,0.0043765997,12:51:25,23/3/2016,23,0,1.37,15,13.96,0,2
$GPRMC,125126.000,A,5130.0998,N,00000.2627,E,1.82,208.66,230316,,,A*67,51.5016593933,0.0043782997,12:51:26,23/3/2016,23,0,0.01,1,13.96,0,2
$GPRMC,125127.000,A,5130.0994,N,00000.2629,E,1.60,205.81,230316,,,A*6C,51.5016593933,0.0043815999,12:51:27,23/3/2016,21,0,0.06,3,13.96,0,2
$GPRMC,125128.000,A,5130.0989,N,00000.2626,E,1.70,202.96,230316,,,A*60,51.5016517639,0.0043765997,12:51:28,23/3/2016,21,0,0.03,2,13.96,0,2
$GPRMC,125129.000,A,5130.0986,N,00000.2623,E,1.50,207.16,230316,,,A*64,51.5016441345,0.0043716001,12:51:29,23/3/2016,21,0,0.02,2,13.96,0,2
$GPRMC,125130.000,A,5130.0983,N,00000.2622,E,1.54,210.89,230316,,,A*6C,51.5016365051,0.0043699998,12:51:30,23/3/2016,20,0,0.40,11,13.96,1,3
$GPRMC,125131.000,A,5130.0977,N,00000.2613,E,2.11,216.19,230316,,,A*69,51.5016288757,0.0043550000,12:51:31,23/3/2016,21,0,0.14,9,13.96,1,4
$GPRMC,125132.000,A,5130.0972,N,00000.2594,E,2.24,222.37,230316,,,A*6E,51.5016212463,0.0043233003,12:51:32,23/3/2016,20,0,0.01,2,13.96,0,4
$GPRMC,125133.000,A,5130.0968,N,00000.2584,E,2.30,223.82,230316,,,A*6F,51.5016098022,0.0043065996,12:51:33,23/3/2016,19,0,0.03,5,13.48,1,5
$GPRMC,125134.000,A,5130.0962,N,00000.2577,E,2.64,217.20,230316,,,A*60,51.5016021728,0.0042950000,12:51:34,23/3/2016,18,0,0.13,8,13.96,1,6
$GPRMC,125135.000,A,5130.0959,N,00000.2571,E,2.44,214.66,230316,,,A*6C,51.5015945434,0.0042850003,12:51:35,23/3/2016,20,0,0.02,2,13.96,0,6
$GPRMC,125136.000,A,5130.0961,N,00000.2560,E,2.09,221.65,230316,,,A*68,51.5016021728,0.0042666001,12:51:36,23/3/2016,21,0,0.04,4,13.96,0,6
$GPRMC,125137.000,A,5130.0957,N,00000.2558,E,1.99,218.49,230316,,,A*69,51.5015945434,0.0042632999,12:51:37,23/3/2016,20,0,0.04,4,13.96,0,6
$GPRMC,125138.000,A,5130.0953,N,00000.2550,E,2.16,224.09,230316,,,A*65,51.5015869140,0.0042499995,12:51:38,23/3/2016,21,0,0.24,18,13.96,2,8
$GPRMC,125139.000,A,5130.0948,N,00000.2549,E,2.12,218.99,230316,,,A*64,51.5015792846,0.0042483000,12:51:39,23/3/2016,19,0,0.02,2,13.96,0,8
$GPRMC,125140.000,A,5130.0948,N,00000.2549,E,1.62,220.64,230316,,,A*67,51.5015792846,0.0042483000,12:51:40,23/3/2016,18,3,2.78,27,13.96,0,8
$GPRMC,125141.000,A,5130.0946,N,00000.2548,E,1.40,220.46,230316,,,A*69,51.5015792846,0.0042466001,12:51:41,23/3/2016,21,0,6.06,21,13.96,0,8
$GPRMC,125142.000,A,5130.0938,N,00000.2548,E,1.84,199.46,230316,,,A*6A,51.5015640258,0.0042466001,12:51:42,23/3/2016,20,0,3.22,27,13.96,0,8
$GPRMC,125143.000,A,5130.0933,N,00000.2549,E,1.88,197.81,230316,,,A*68,51.5015525817,0.0042483000,12:51:43,23/3/2016,20,0,0.01,2,13.96,0,8
$GPRMC,125144.000,A,5130.0929,N,00000.2551,E,1.80,199.00,230316,,,A*62,51.5015449523,0.0042515997,12:51:44,23/3/2016,20,0,0.13,14,13.96,1,9
$GPRMC,125145.000,A,5130.0925,N,00000.2548,E,1.74,201.32,230316,,,A*6F,51.5015373229,0.0042466001,12:51:45,23/3/2016,21,8,8.12,68,13.96,1,10
$GPRMC,125146.000,A,5130.0922,N,00000.2545,E,1.60,199.05,230316,,,A*65,51.5015373229,0.0042416005,12:51:46,23/3/2016,21,9,1.93,13,13.96,0,10
$GPRMC,125147.000,A,5130.0916,N,00000.2537,E,1.89,206.29,230316,,,A*6A,51.5015296936,0.0042283005,12:51:47,23/3/2016,20,2,5.38,24,13.96,2,12
$GPRMC,125148.000,A,5130.0911,N,00000.2525,E,2.00,214.67,230316,,,A*6A,51.5015220642,0.0042082996,12:51:48,23/3/2016,20,0,1.37,11,13.96,0,12
$GPRMC,125149.000,A,5130.0909,N,00000.2522,E,1.76,215.66,230316,,,A*67,51.5015144348,0.0042032999,12:51:49,23/3/2016,20,0,0.99,13,13.96,0,12
$GPRMC,125150.000,A,5130.0906,N,00000.2519,E,1.66,214.30,230316,,,A*6B,51.5015144348,0.0041983003,12:51:50,23/3/2016,20,0,0.68,13,13.96,0,12
$GPRMC,125151.000,A,5130.0902,N,00000.2514,E,1.73,216.10,230316,,,A*67,51.5015068054,0.0041900005,12:51:51,23/3/2016,20,0,0.93,13,13.96,0,12
$GPRMC,125152.000,A,5130.0897,N,00000.2512,E,1.89,208.71,230316,,,A*62,51.5014991760,0.0041866002,12:51:52,23/3/2016,20,7,1.97,12,13.96,0,12
$GPRMC,125153.000,A,5130.0896,N,00000.2512,E,1.49,208.88,230316,,,A*68,51.5014991760,0.0041866002,12:51:53,23/3/2016,20,0,0.52,12,13.96,0,12
$GPRMC,125154.000,A,5130.0898,N,00000.2508,E,1.37,210.27,230316,,,A*6F,51.5014991760,0.0041799998,12:51:54,23/3/2016,20,0,0.90,7,13.96,0,12
$GPRMC,125155.000,A,5130.0897,N,00000.2509,E,1.47,203.26,230316,,,A*64,51.5014991760,0.0041816000,12:51:55,23/3/2016,19,0,0.72,12,13.96,0,12
$GPRMC,125156.000,A,5130.0895,N,00000.2515,E,1.35,195.44,230316,,,A*65,51.5014877319,0.0041915998,12:51:56,23/3/2016,20,3,2.01,18,13.96,0,12
$GPRMC,125157.000,A,5130.0896,N,00000.2515,E,1.01,202.21,230316,,,A*6E,51.5014991760,0.0041915998,12:51:57,23/3/2016,20,5,3.06,24,13.96,0,12
$GPRMC,125158.000,A,5130.0892,N,00000.2515,E,1.08,197.30,230316,,,A*63,51.5014877319,0.0041915998,12:51:58,23/3/2016,22,0,3.42,65,13.96,0,12
$GPRMC,125159.000,A,5130.0889,N,00000.2521,E,1.15,189.16,230316,,,A*68,51.5014801025,0.0042016000,12:51:59,23/3/2016,22,2,2.22,22,13.96,0,12
$GPRMC,125200.000,A,5130.0885,N,00000.2522,E,1.22,184.51,230316,,,A*62,51.5014724731,0.0042032999,12:52:0,23/3/2016,20,1,2.32,26,13.96,0,12
$GPRMC,125201.000,A,5130.0878,N,00000.2522,E,1.57,183.32,230316,,,A*61,51.5014648437,0.0042032999,12:52:1,23/3/2016,20,10,2.68,52,13.96,0,12
$GPRMC,125202.000,A,5130.0871,N,00000.2531,E,1.82,170.06,230316,,,A*6A,51.5014495849,0.0042183008,12:52:2,23/3/2016,19,14,17.10,54,13.96,0,12
$GPRMC,125203.000,A,5130.0863,N,00000.2519,E,2.01,186.33,230316,,,A*65,51.5014419555,0.0041983003,12:52:3,23/3/2016,20,31,2.57,31,13.96,0,12
$GPRMC,125204.000,A,5130.0857,N,00000.2518,E,2.06,186.69,230316,,,A*6C,51.5014305114,0.0041965999,12:52:4,23/3/2016,20,11,0.91,27,13.96,0,12
$GPRMC,125205.000,A,5130.0854,N,00000.2514,E,1.88,191.42,230316,,,A*68,51.5014228820,0.0041900005,12:52:5,23/3/2016,20,0,5.45,52,13.96,0,12
$GPRMC,125206.000,A,5130.0848,N,00000.2511,E,1.95,193.07,230316,,,A*6C,51.5014152526,0.0041849999,12:52:6,23/3/2016,19,5,3.72,46,13.96,0,12
$GPRMC,125207.000,A,5130.0844,N,00000.2509,E,1.92,193.65,230316,,,A*6B,51.5014076232,0.0041816000,12:52:7,23/3/2016,19,0,4.10,39,13.96,0,12
$GPRMC,125208.000,A,5130.0837,N,00000.2507,E,2.03,192.03,230316,,,A*64,51.5013923645,0.0041783003,12:52:8,23/3/2016,19,3,3.89,44,13.96,0,12
$GPRMC,125209.000,A,5130.0834,N,00000.2513,E,1.82,188.59,230316,,,A*6D,51.5013923645,0.0041882996,12:52:9,23/3/2016,19,0,0.45,8,14.45,2,14
$GPRMC,125210.000,A,5130.0829,N,00000.2508,E,1.91,194.31,230316,,,A*62,51.5013847351,0.0041799998,12:52:10,23/3/2016,19,7,3.73,32,13.96,1,15
$GPRMC,125211.000,A,5130.0824,N,00000.2513,E,1.85,184.19,230316,,,A*6A,51.5013771057,0.0041882996,12:52:11,23/3/2016,20,0,0.10,6,13.96,0,15
$GPRMC,125212.000,A,5130.0813,N,00000.2518,E,2.26,177.78,230316,,,A*67,51.5013580322,0.0041965999,12:52:12,23/3/2016,19,0,0.07,3,13.96,0,15
$GPRMC,125213.000,A,5130.0804,N,00000.2514,E,2.41,178.72,230316,,,A*68,51.5013427734,0.0041900005,12:52:13,23/3/2016,19,0,0.20,8,13.96,0,15
$GPRMC,125214.000,A,5130.0797,N,00000.2505,E,2.47,187.54,230316,,,A*68,51.5013275146,0.0041750001,12:52:14,23/3/2016,20,1,0.15,4,13.96,1,16
$GPRMC,125215.000,A,5130.0793,N,00000.2504,E,2.35,190.99,230316,,,A*6E,51.5013198852,0.0041733002,12:52:15,23/3/2016,20,6,6.54,56,13.96,0,16
$GPRMC,125216.000,A,5130.0785,N,00000.2500,E,2.42,186.27,230316,,,A*6C,51.5013084411,0.0041666002,12:52:16,23/3/2016,20,0,1.37,18,13.96,0,16
$GPRMC,125217.000,A,5130.0778,N,00000.2499,E,2.38,185.29,230316,,,A*6E,51.5012931823,0.0041650004,12:52:17,23/3/2016,20,0,0.01,1,13.96,0,16
$GPRMC,125218.000,A,5130.0773,N,00000.2497,E,2.30,186.23,230316,,,A*65,51.5012855529,0.0041616001,12:52:18,23/3/2016,21,0,0.01,1,13.96,0,16
$GPRMC,125219.000,A,5130.0768,N,00000.2495,E,2.23,188.89,230316,,,A*60,51.5012779235,0.0041583003,12:52:19,23/3/2016,21,0,0.01,1,13.96,0,16
$GPRMC,125220.000,A,5130.0764,N,00000.2492,E,2.11,190.94,230316,,,A*65,51.5012702941,0.0041532998,12:52:20,23/3/2016,21,0,0.02,2,13.96,0,16
$GPRMC,125221.000,A,5130.0758,N,00000.2493,E,2.13,190.45,230316,,,A*64,51.5012626647,0.0041550006,12:52:21,23/3/2016,21,0,0.01,1,13.96,0,16
$GPRMC,125222.000,A,5130.0750,N,00000.2507,E,2.21,180.23,230316,,,A*63,51.5012550354,0.0041783003,12:52:22,23/3/2016,22,0,0.04,6,13.96,1,17
$GPRMC,125223.000,A,5130.0746,N,00000.2505,E,1.85,166.45,230316,,,A*62,51.5012435913,0.0041750001,12:52:23,23/3/2016,23,0,0.01,1,13.96,0,17
$GPRMC,125224.000,A,5130.0742,N,00000.2505,E,1.47,152.34,230316,,,A*6E,51.5012359619,0.0041750001,12:52:24,23/3/2016,24,0,0.01,2,13.96,0,17
$GPRMC,125225.000,A,5130.0739,N,00000.2503,E,1.14,157.08,230316,,,A*69,51.5012283325,0.0041716003,12:52:25,23/3/2016,25,0,0.04,2,13.96,0,17
$GPRMC,125226.000,A,5130.0734,N,00000.2505,E,1.74,173.86,230316,,,A*67,51.5012207031,0.0041750001,12:52:26,23/3/2016,25,0,0.03,2,13.96,0,17
$GPRMC,125227.000,A,5130.0730,N,00000.2501,E,2.36,226.17,230316,,,A*68,51.5012130737,0.0041683001,12:52:27,23/3/2016,25,0,0.07,8,13.96,1,18
$GPRMC,125228.000,A,5130.0736,N,00000.2498,E,3.28,122.09,230316,,,A*66,51.5012283325,0.0041633005,12:52:28,23/3/2016,26,0,0.01,2,13.96,0,18
$GPRMC,125229.000,A,5130.0736,N,00000.2485,E,1.85,143.13,230316,,,A*62,51.5012283325,0.0041416006,12:52:29,23/3/2016,26,0,0.06,4,13.96,0,18
$GPRMC,125230.000,A,5130.0731,N,00000.2486,E,1.73,154.68,230316,,,A*6D,51.5012207031,0.0041433000,12:52:30,23/3/2016,25,0,0.08,9,13.96,0,18
$GPRMC,125231.000,A,5130.0727,N,00000.2482,E,1.95,170.33,230316,,,A*6F,51.5012130737,0.0041366000,12:52:31,23/3/2016,25,0,0.01,1,13.96,0,18
$GPRMC,125232.000,A,5130.0726,N,00000.2474,E,1.62,176.05,230316,,,A*6F,51.5012130737,0.0041233000,12:52:32,23/3/2016,25,0,0.01,1,13.96,0,18
$GPRMC,125233.000,A,5130.0721,N,00000.2473,E,3.10,189.88,230316,,,A*6C,51.5012054443,0.0041216001,12:52:33,23/3/2016,25,0,0.10,11,13.96,1,19
$GPRMC,125234.000,A,5130.0718,N,00000.2476,E,3.14,124.78,230316,,,A*68,51.5011978149,0.0041266002,12:52:34,23/3/2016,24,0,0.09,6,13.96,0,19
$GPRMC,125235.000,A,5130.0717,N,00000.2475,E,2.09,130.41,230316,,,A*67,51.5011978149,0.0041249995,12:52:35,23/3/2016,24,0,0.03,2,13.96,0,19
$GPRMC,125236.000,A,5130.0711,N,00000.2467,E,2.01,163.83,230316,,,A*61,51.5011863708,0.0041115999,12:52:36,23/3/2016,24,0,0.02,1,13.96,0,19
$GPRMC,125237.000,A,5130.0704,N,00000.2462,E,2.56,183.51,230316,,,A*62,51.5011711120,0.0041033000,12:52:37,23/3/2016,24,0,0.01,1,13.96,0,19
$GPRMC,125238.000,A,5130.0699,N,00000.2462,E,2.40,192.78,230316,,,A*64,51.5011634826,0.0041033000,12:52:38,23/3/2016,24,0,0.01,2,13.96,0,19
$GPRMC,125239.000,A,5130.0693,N,00000.2453,E,2.06,188.25,230316,,,A*6C,51.5011558532,0.0040883007,12:52:39,23/3/2016,24,0,0.39,13,13.96,1,20
$GPRMC,125240.000,A,5130.0689,N,00000.2455,E,2.07,202.46,230316,,,A*6A,51.5011482238,0.0040915999,12:52:40,23/3/2016,24,0,0.08,6,13.96,1,21
$GPRMC,125241.000,A,5130.0684,N,00000.2452,E,1.78,176.53,230316,,,A*6E,51.5011405944,0.0040866003,12:52:41,23/3/2016,25,0,0.01,1,13.96,0,21
$GPRMC,125242.000,A,5130.0676,N,00000.2451,E,2.44,181.27,230316,,,A*64,51.5011215209,0.0040850000,12:52:42,23/3/2016,24,0,0.00,1,12.99,0,21
$GPRMC,125243.000,A,5130.0671,N,00000.2448,E,2.01,173.41,230316,,,A*66,51.5011138916,0.0040799999,12:52:43,23/3/2016,24,0,0.00,1,13.96,0,21
$GPRMC,125244.000,A,5130.0667,N,00000.2443,E,1.75,173.66,230316,,,A*68,51.5011138916,0.0040716004,12:52:44,23/3/2016,24,0,0.01,1,13.96,0,21
$GPRMC,125245.000,A,5130.0661,N,00000.2441,E,1.98,180.50,230316,,,A*67,51.5010986328,0.0040683002,12:52:45,23/3/2016,24,0,0.00,1,13.96,0,21
$GPRMC,125246.000,A,5130.0654,N,00000.2443,E,2.29,179.24,230316,,,A*6C,51.5010910034,0.0040716004,12:52:46,23/3/2016,24,0,0.01,1,13.96,0,21
$GPRMC,125247.000,A,5130.0647,N,00000.2441,E,2.40,181.37,230316,,,A*67,51.5010833740,0.0040683002,12:52:47,23/3/2016,24,0,0.00,1,13.96,0,21
$GPRMC,125248.000,A,5130.0639,N,00000.2440,E,2.53,179.80,230316,,,A*69,51.5010643005,0.0040665998,12:52:48,23/3/2016,24,0,0.01,1,13.96,0,21
$GPRMC,125249.000,A,5130.0633,N,00000.2436,E,2.19,187.55,230316,,,A*64,51.5010566711,0.0040600004,12:52:49,23/3/2016,24,0,0.01,1,13.96,0,21
$GPRMC,125250.000,A,5130.0633,N,00000.2415,E,4.64,251.25,230316,,,A*6E,51.5010566711,0.0040250005,12:52:50,23/3/2016,24,0,0.06,7,13.96,1,22
$GPRMC,125251.000,A,5130.0623,N,00000.2423,E,2.20,189.80,230316,,,A*64,51.5010414123,0.0040383000,12:52:51,23/3/2016,24,0,0.00,2,13.96,0,22
$GPRMC,125252.000,A,5130.0618,N,00000.2421,E,1.61,194.17,230316,,,A*69,51.5010337829,0.0040350003,12:52:52,23/3/2016,24,0,0.01,1,13.48,0,22
$GPRMC,125253.000,A,5130.0612,N,00000.2415,E,1.54,191.27,230316,,,A*65,51.5010185241,0.0040250005,12:52:53,23/3/2016,24,0,0.00,0,13.48,0,22
$GPRMC,125254.000,A,5130.0604,N,00000.2406,E,2.18,198.66,230316,,,A*60,51.5010108947,0.0040100002,12:52:54,23/3/2016,24,0,0.01,2,13.48,0,22
$GPRMC,125255.000,A,5130.0597,N,00000.2399,E,2.03,181.04,230316,,,A*6F,51.5009918212,0.0039983000,12:52:55,23/3/2016,24,0,0.00,1,13.96,0,22
$GPRMC,125256.000,A,5130.0589,N,00000.2390,E,2.45,192.45,230316,,,A*6F,51.5009841918,0.0039833002,12:52:56,23/3/2016,24,0,0.00,1,13.96,0,22
$GPRMC,125257.000,A,5130.0585,N,00000.2376,E,2.13,223.89,230316,,,A*60,51.5009765625,0.0039600002,12:52:57,23/3/2016,25,0,0.11,13,13.48,1,23
$GPRMC,125258.000,A,5130.0581,N,00000.2369,E,2.61,229.09,230316,,,A*62,51.5009689331,0.0039483003,12:52:58,23/3/2016,25,0,0.00,1,13.96,0,23
$GPRMC,125259.000,A,5130.0573,N,00000.2360,E,3.11,219.38,230316,,,A*60,51.5009536743,0.0039333000,12:52:59,23/3/2016,25,0,0.05,9,13.96,1,24
$GPRMC,125300.000,A,5130.0569,N,00000.2347,E,1.19,205.91,230316,,,A*67,51.5009536743,0.0039116001,12:53:0,23/3/2016,25,0,0.00,1,13.48,0,24
$GPRMC,125301.000,A,5130.0566,N,00000.2344,E,1.06,187.90,230316,,,A*6C,51.5009422302,0.0039066001,12:53:1,23/3/2016,25,0,0.00,1,13.48,0,24
$GPRMC,125302.000,A,5130.0560,N,00000.2337,E,1.79,184.03,230316,,,A*6C,51.5009346008,0.0038949999,12:53:2,23/3/2016,25,0,0.01,1,13.48,0,24
$GPRMC,125303.000,A,5130.0557,N,00000.2333,E,1.28,198.49,230316,,,A*6A,51.5009269714,0.0038882999,12:53:3,23/3/2016,25,0,0.00,1,13.48,0,24
$GPRMC,125304.000,A,5130.0553,N,00000.2325,E,1.53,212.03,230316,,,A*6D,51.5009193420,0.0038750000,12:53:4,23/3/2016,25,0,0.04,4,13.48,0,24
$GPRMC,125305.000,A,5130.0548,N,00000.2320,E,1.64,197.00,230316,,,A*6A,51.5009117126,0.0038666005,12:53:5,23/3/2016,25,0,0.00,1,13.96,0,24
$GPRMC,125306.000,A,5130.0544,N,00000.2309,E,1.54,210.75,230316,,,A*63,51.5009040832,0.0038482999,12:53:6,23/3/2016,25,0,0.00,1,13.48,0,24
$GPRMC,125307.000,A,5130.0542,N,00000.2304,E,0.91,197.53,230316,,,A*69,51.5009040832,0.0038400001,12:53:7,23/3/2016,25,0,0.00,1,13.48,0,24
$GPRMC,125308.000,A,5130.0538,N,00000.2297,E,2.01,214.69,230316,,,A*6A,51.5008964538,0.0038282995,12:53:8,23/3/2016,25,0,0.00,1,13.48,0,24
$GPRMC,125309.000,A,5130.0535,N,00000.2295,E,1.67,220.54,230316,,,A*6E,51.5008964538,0.0038250002,12:53:9,23/3/2016,25,0,0.00,0,13.48,0,24
$GPRMC,125310.000,A,5130.0533,N,00000.2289,E,1.88,213.83,230316,,,A*66,51.5008888244,0.0038150000,12:53:10,23/3/2016,24,0,0.00,1,13.96,0,24
$GPRMC,125311.000,A,5130.0532,N,00000.2287,E,1.47,209.34,230316,,,A*6C,51.5008888244,0.0038116002,12:53:11,23/3/2016,25,0,0.00,1,13.48,0,24
$GPRMC,125312.000,A,5130.0530,N,00000.2286,E,1.85,221.32,230316,,,A*6E,51.5008888244,0.0038100002,12:53:12,23/3/2016,25,0,0.00,1,13.48,0,24
$GPRMC,125313.000,A,5130.0526,N,00000.2277,E,2.56,218.60,230316,,,A*66,51.5008773803,0.0037950003,12:53:13,23/3/2016,25,0,0.00,1,13.48,0,24
$GPRMC,125314.000,A,5130.0523,N,00000.2265,E,1.92,216.38,230316,,,A*6F,51.5008697509,0.0037750003,12:53:14,23/3/2016,25,0,0.00,2,13.48,0,24
$GPRMC,125315.000,A,5130.0520,N,00000.2259,E,1.28,205.26,230316,,,A*6E,51.5008621215,0.0037650003,12:53:15,23/3/2016,25,0,0.00,0,13.48,0,24
$GPRMC,125316.000,A,5130.0517,N,00000.2242,E,1.41,228.31,230316,,,A*65,51.5008621215,0.0037365999,12:53:16,23/3/2016,25,0,0.01,3,13.48,0,24
$GPRMC,125317.000,A,5130.0514,N,00000.2235,E,1.97,235.63,230316,,,A*67,51.5008544921,0.0037249999,12:53:17,23/3/2016,25,0,0.00,1,13.48,0,24
$GPRMC,125318.000,A,5130.0513,N,00000.2227,E,1.68,252.45,230316,,,A*69,51.5008544921,0.0037116003,12:53:18,23/3/2016,25,0,0.00,1,13.96,0,24
$GPRMC,125319.000,A,5130.0509,N,00000.2212,E,1.94,231.87,230316,,,A*6D,51.5008468627,0.0036866002,12:53:19,23/3/2016,25,0,0.00,0,13.48,0,24
$GPRMC,125320.000,A,5130.0505,N,00000.2203,E,1.72,220.97,230316,,,A*62,51.5008392333,0.0036716003,12:53:20,23/3/2016,24,0,0.00,1,13.48,0,24
$GPRMC,125321.000,A,5130.0501,N,00000.2194,E,1.50,212.87,230316,,,A*6A,51.5008392333,0.0036565999,12:53:21,23/3/2016,24,0,0.00,1,13.48,0,24
$GPRMC,125322.000,A,5130.0497,N,00000.2186,E,1.06,207.52,230316,,,A*6B,51.5008316040,0.0036433000,12:53:22,23/3/2016,24,0,0.01,3,13.48,0,24
$GPRMC,125323.000,A,5130.0492,N,00000.2173,E,1.74,223.87,230316,,,A*6E,51.5008201599,0.0036216001,12:53:23,23/3/2016,24,0,0.00,2,13.48,0,24
$GPRMC,125324.000,A,5130.0486,N,00000.2161,E,2.69,211.43,230316,,,A*69,51.5008125305,0.0036016001,12:53:24,23/3/2016,24,0,0.00,2,13.48,0,24
$GPRMC,125325.000,A,5130.0482,N,00000.2155,E,1.55,201.98,230316,,,A*60,51.5008049011,0.0035915999,12:53:25,23/3/2016,24,0,0.00,1,13.48,0,24
$GPRMC,125326.000,A,5130.0478,N,00000.2145,E,2.24,237.38,230316,,,A*6D,51.5007972717,0.0035750002,12:53:26,23/3/2016,24,0,0.02,1,13.48,0,24
$GPRMC,125327.000,A,5130.0475,N,00000.2139,E,1.89,233.82,230316,,,A*6B,51.5007896423,0.0035650000,12:53:27,23/3/2016,24,0,0.03,3,13.48,0,24
$GPRMC,125328.000,A,5130.0475,N,00000.2134,E,1.77,255.88,230316,,,A*62,51.5007896423,0.0035566000,12:53:28,23/3/2016,24,0,0.10,3,13.48,0,24
$GPRMC,125329.000,A,5130.0471,N,00000.2128,E,2.81,243.67,230316,,,A*66,51.5007820129,0.0035466001,12:53:29,23/3/2016,25,0,0.09,4,13.48,0,24
$GPRMC,125330.000,A,5130.0467,N,00000.2121,E,2.40,233.65,230316,,,A*68,51.5007820129,0.0035350000,12:53:30,23/3/2016,24,0,0.04,3,12.99,0,24
$GPRMC,125331.000,A,5130.0460,N,00000.2116,E,2.58,218.76,230316,,,A*68,51.5007667541,0.0035266005,12:53:31,23/3/2016,24,0,0.03,2,13.48,0,24
$GPRMC,125332.000,A,5130.0454,N,00000.2110,E,2.53,221.21,230316,,,A*69,51.5007553100,0.0035165998,12:53:32,23/3/2016,24,0,0.00,1,12.99,0,24
$GPRMC,125333.000,A,5130.0449,N,00000.2101,E,2.12,236.79,230316,,,A*6A,51.5007476806,0.0035016000,12:53:33,23/3/2016,23,0,0.01,1,13.48,0,24
$GPRMC,125334.000,A,5130.0447,N,00000.2095,E,1.81,241.83,230316,,,A*63,51.5007476806,0.0034915997,12:53:34,23/3/2016,23,0,0.01,1,13.48,0,24
$GPRMC,125335.000,A,5130.0444,N,00000.2088,E,1.65,222.65,230316,,,A*6A,51.5007400512,0.0034800000,12:53:35,23/3/2016,22,0,0.22,7,13.48,0,24
$GPRMC,125336.000,A,5130.0444,N,00000.2083,E,0.91,196.65,230316,,,A*64,51.5007400512,0.0034716005,12:53:36,23/3/2016,22,0,0.13,7,12.99,0,24
$GPRMC,125337.000,A,5130.0446,N,00000.2076,E,0.78,279.59,230316,,,A*67,51.5007400512,0.0034600005,12:53:37,23/3/2016,20,0,0.22,5,12.99,0,24
$GPRMC,125338.000,A,5130.0449,N,00000.2067,E,1.29,288.57,230316,,,A*62,51.5007476806,0.0034450001,12:53:38,23/3/2016,19,0,0.01,1,13.48,0,24
$GPRMC,125339.000,A,5130.0456,N,00000.2065,E,3.07,318.21,230316,,,A*68,51.5007553100,0.0034415996,12:53:39,23/3/2016,19,0,0.02,6,13.48,1,25
$GPRMC,125340.000,A,5130.0463,N,00000.2067,E,1.79,306.64,230316,,,A*67,51.5007743835,0.0034450001,12:53:40,23/3/2016,18,0,0.00,1,13.48,0,25
$GPRMC,125341.000,A,5130.0471,N,00000.2055,E,2.89,24.65,230316,,,A*5A,51.5007820129,0.0034249997,12:53:41,23/3/2016,18,0,0.00,0,13.48,0,25
$GPRMC,125342.000,A,5130.0478,N,00000.2039,E,2.50,358.62,230316,,,A*61,51.5007972717,0.0033982996,12:53:42,23/3/2016,18,0,0.00,0,13.48,0,25
$GPRMC,125343.000,A,5130.0484,N,00000.2031,E,2.24,4.31,230316,,,A*64,51.5008049011,0.0033850002,12:53:43,23/3/2016,18,0,0.00,0,13.48,0,25
$GPRMC,125344.000,A,5130.0492,N,00000.2028,E,2.34,351.33,230316,,,A*6C,51.5008201599,0.0033800003,12:53:44,23/3/2016,18,0,0.00,0,13.48,0,25
$GPRMC,125345.000,A,5130.0499,N,00000.2024,E,2.32,347.75,230316,,,A*69,51.5008316040,0.0033732998,12:53:45,23/3/2016,17,0,0.02,2,13.48,0,25
$GPRMC,125346.000,A,5130.0506,N,00000.2017,E,2.37,348.69,230316,,,A*6A,51.5008468627,0.0033616003,12:53:46,23/3/2016,17,0,0.04,3,13.48,0,25
$GPRMC,125347.000,A,5130.0512,N,00000.2016,E,2.45,12.98,230316,,,A*58,51.5008544921,0.0033599998,12:53:47,23/3/2016,18,0,0.00,1,13.48,0,25
$GPRMC,125348.000,A,5130.0518,N,00000.1999,E,2.32,327.37,230316,,,A*60,51.5008621215,0.0033316001,12:53:48,23/3/2016,18,0,0.00,0,13.48,0,25
$GPRMC,125349.000,A,5130.0523,N,00000.1995,E,2.38,327.81,230316,,,A*62,51.5008697509,0.0033250000,12:53:49,23/3/2016,18,0,0.00,0,13.48,0,25
$GPRMC,125350.000,A,5130.0528,N,00000.1991,E,2.27,301.18,230316,,,A*6F,51.5008773803,0.0033183002,12:53:50,23/3/2016,18,0,0.00,0,13.48,0,25
$GPRMC,125351.000,A,5130.0531,N,00000.1983,E,2.60,292.90,230316,,,A*6D,51.5008888244,0.0033050000,12:53:51,23/3/2016,18,0,0.00,0,13.48,0,25
$GPRMC,125352.000,A,5130.0533,N,00000.1970,E,2.32,301.39,230316,,,A*6F,51.5008888244,0.0032832999,12:53:52,23/3/2016,18,0,0.00,0,13.48,0,25
$GPRMC,125353.000,A,5130.0537,N,00000.1960,E,2.52,298.93,230316,,,A*6C,51.5008964538,0.0032665996,12:53:53,23/3/2016,18,0,0.00,0,13.48,0,25
$GPRMC,125354.000,A,5130.0542,N,00000.1959,E,1.71,15.23,230316,,,A*5D,51.5009040832,0.0032649998,12:53:54,23/3/2016,17,0,0.00,0,13.48,0,25
$GPRMC,125355.000,A,5130.0545,N,00000.1940,E,1.22,349.84,230316,,,A*62,51.5009117126,0.0032333002,12:53:55,23/3/2016,18,0,0.03,3,13.48,0,25
$GPRMC,125356.000,A,5130.0549,N,00000.1932,E,1.65,331.79,230316,,,A*66,51.5009117126,0.0032200002,12:53:56,23/3/2016,18,0,0.00,1,13.48,0,25
$GPRMC,125357.000,A,5130.0556,N,00000.1922,E,2.39,330.25,230316,,,A*6A,51.5009269714,0.0032032999,12:53:57,23/3/2016,18,0,0.00,1,13.48,0,25
$GPRMC,125358.000,A,5130.0563,N,00000.1922,E,2.23,327.16,230316,,,A*6E,51.5009346008,0.0032032999,12:53:58,23/3/2016,18,0,0.00,1,13.48,0,25
$GPRMC,125359.000,A,5130.0570,N,00000.1921,E,1.71,329.24,230316,,,A*65,51.5009536743,0.0032016003,12:53:59,23/3/2016,18,0,0.00,0,13.48,0,25
$GPRMC,125400.000,A,5130.0578,N,00000.1918,E,2.50,345.49,230316,,,A*6D,51.5009613037,0.0031965999,12:54:0,23/3/2016,17,0,0.03,3,13.48,0,25
$GPRMC,125401.000,A,5130.0586,N,00000.1918,E,2.48,358.50,230316,,,A*60,51.5009765625,0.0031965999,12:54:1,23/3/2016,18,0,0.00,0,13.48,0,25
$GPRMC,125402.000,A,5130.0607,N,00000.2052,E,2.02,327.08,230316,,,A*66,51.5010108947,0.0034199998,12:54:2,23/3/2016,17,2,6.13,53,13.48,0,25
$GPRMC,125403.000,A,5130.0618,N,00000.2095,E,1.76,324.50,230316,,,A*6C,51.5010337829,0.0034915997,12:54:3,23/3/2016,17,25,2.11,27,13.48,0,25
$GPRMC,125404.000,A,5130.0626,N,00000.2125,E,1.85,328.12,230316,,,A*6A,51.5010414123,0.0035416004,12:54:4,23/3/2016,18,0,3.30,36,13.48,0,25
$GPRMC,125405.000,A,5130.0635,N,00000.2137,E,2.46,326.24,230316,,,A*6D,51.5010566711,0.0035616004,12:54:5,23/3/2016,17,0,0.00,1,13.48,0,25
$GPRMC,125406.000,A,5130.0643,N,00000.2138,E,2.30,334.65,230316,,,A*67,51.5010757446,0.0035633001,12:54:6,23/3/2016,18,0,0.01,1,13.48,0,25
$GPRMC,125407.000,A,5130.0649,N,00000.2136,E,2.40,306.83,230316,,,A*6C,51.5010833740,0.0035599999,12:54:7,23/3/2016,17,0,0.04,3,13.48,0,25
$GPRMC,125408.000,A,5130.0654,N,00000.2136,E,1.92,337.22,230316,,,A*6A,51.5010910034,0.0035599999,12:54:8,23/3/2016,18,0,0.03,2,13.48,0,25
$GPRMC,125409.000,A,5130.0661,N,00000.2135,E,2.37,344.26,230316,,,A*62,51.5010986328,0.0035583000,12:54:9,23/3/2016,18,0,0.04,3,13.48,0,25
$GPRMC,125410.000,A,5130.0668,N,00000.2133,E,2.35,339.94,230316,,,A*64,51.5011138916,0.0035550000,12:54:10,23/3/2016,19,0,1.29,18,13.48,0,25
$GPRMC,125411.000,A,5130.0675,N,00000.2128,E,2.82,325.18,230316,,,A*66,51.5011215209,0.0035466001,12:54:11,23/3/2016,18,17,8.94,31,13.48,0,25
$GPRMC,125412.000,A,5130.0681,N,00000.2121,E,2.72,321.29,230316,,,A*6E,51.5011329650,0.0035350000,12:54:12,23/3/2016,18,3,8.36,34,13.48,0,25
$GPRMC,125413.000,A,5130.0687,N,00000.2114,E,2.63,318.13,230316,,,A*6C,51.5011482238,0.0035233001,12:54:13,23/3/2016,18,0,0.09,5,13.48,0,25
$GPRMC,125414.000,A,5130.0690,N,00000.2107,E,1.79,302.20,230316,,,A*6C,51.5011482238,0.0035116002,12:54:14,23/3/2016,18,0,0.03,2,13.48,0,25
$GPRMC,125415.000,A,5130.0694,N,00000.2101,E,1.58,327.93,230316,,,A*63,51.5011558532,0.0035016000,12:54:15,23/3/2016,18,0,0.02,3,13.48,0,25
$GPRMC,125416.000,A,5130.0695,N,00000.2097,E,1.83,283.23,230316,,,A*6D,51.5011558532,0.0034949998,12:54:16,23/3/2016,18,0,0.02,2,13.48,0,25
$GPRMC,125417.000,A,5130.0699,N,00000.2090,E,2.53,320.93,230316,,,A*6A,51.5011634826,0.0034832999,12:54:17,23/3/2016,18,0,0.01,2,13.48,0,25
$GPRMC,125418.000,A,5130.0704,N,00000.2086,E,1.98,336.41,230316,,,A*6B,51.5011711120,0.0034766004,12:54:18,23/3/2016,18,0,0.04,3,13.48,0,25
$GPRMC,125419.000,A,5130.0708,N,00000.2080,E,2.80,310.39,230316,,,A*61,51.5011787414,0.0034666001,12:54:19,23/3/2016,18,0,0.05,4,13.48,0,25
