
$GPRMC,133604.000,A,5130.1495,N,00000.3567,E,1.83,348.09,200416,,,A*69,51.5024909973,0.0059450001,13:36:4,20/4/2016,22,1,1.81,19,16.41,0,0
$GPRMC,133605.000,A,5130.1502,N,00000.3556,E,1.66,344.71,200416,,,A*6D,51.5025062561,0.0059265999,13:36:5,20/4/2016,8,8,2.04,25,16.41,0,0
$GPRMC,133606.000,A,5130.1522,N,00000.3537,E,1.95,346.29,200416,,,A*68,51.5025405883,0.0058949999,13:36:6,20/4/2016,8,0,1.02,20,16.41,0,0
$GPRMC,133607.000,A,5130.1529,N,00000.3538,E,2.14,351.69,200416,,,A*65,51.5025482177,0.0058965997,13:36:7,20/4/2016,8,1,2.84,31,16.41,0,0
$GPRMC,133608.000,A,5130.1535,N,00000.3537,E,2.13,351.44,200416,,,A*60,51.5025558471,0.0058949999,13:36:8,20/4/2016,8,0,1.89,17,16.89,0,0
$GPRMC,133609.000,A,5130.1538,N,00000.3541,E,2.17,357.17,200416,,,A*69,51.5025634765,0.0059015998,13:36:9,20/4/2016,7,4,4.19,27,16.89,0,0
$GPRMC,133610.000,A,5130.1539,N,00000.3548,E,2.29,3.98,200416,,,A*61,51.5025634765,0.0059133005,13:36:10,20/4/2016,7,39,5.84,72,16.89,0,0
$GPRMC,133611.000,A,5130.1540,N,00000.3554,E,2.11,4.18,200416,,,A*67,51.5025634765,0.0059233002,13:36:11,20/4/2016,7,39,15.97,100,16.89,0,0
$GPRMC,133612.000,A,5130.1540,N,00000.3558,E,1.96,354.31,200416,,,A*69,51.5025634765,0.0059299998,13:36:12,20/4/2016,7,2,14.47,136,17.38,0,0
$GPRMC,133613.000,A,5130.1544,N,00000.3563,E,1.98,359.69,200416,,,A*6A,51.5025711059,0.0059383001,13:36:13,20/4/2016,8,4,3.26,39,17.38,0,0
$GPRMC,133614.000,A,5130.1544,N,00000.3569,E,1.88,355.46,200416,,,A*67,51.5025711059,0.0059482998,13:36:14,20/4/2016,8,2,3.78,48,17.38,0,0
$GPRMC,133615.000,A,5130.1545,N,00000.3579,E,1.97,7.30,200416,,,A*6D,51.5025711059,0.0059650001,13:36:15,20/4/2016,8,0,2.40,23,17.38,0,0
$GPRMC,133616.000,A,5130.1552,N,00000.3585,E,2.37,12.61,200416,,,A*52,51.5025863647,0.0059750003,13:36:16,20/4/2016,8,3,2.93,38,17.38,0,0
$GPRMC,133617.000,A,5130.1559,N,00000.3591,E,2.52,14.30,200416,,,A*5C,51.5025978088,0.0059850001,13:36:17,20/4/2016,8,25,10.26,92,17.38,0,0
$GPRMC,133618.000,A,5130.1564,N,00000.3598,E,2.60,15.97,200416,,,A*59,51.5026054382,0.0059966001,13:36:18,20/4/2016,8,1,4.21,39,16.89,0,0
$GPRMC,133619.000,A,5130.1569,N,00000.3605,E,2.63,17.18,200416,,,A*54,51.5026130676,0.0060083003,13:36:19,20/4/2016,9,2,2.22,27,16.89,0,0
$GPRMC,133620.000,A,5130.1586,N,00000.3601,E,2.68,22.37,200416,,,A*5B,51.5026435852,0.0060016002,13:36:20,20/4/2016,9,1,3.36,21,16.89,0,0
$GPRMC,133621.000,A,5130.1604,N,00000.3596,E,2.76,14.33,200416,,,A*50,51.5026702880,0.0059932999,13:36:21,20/4/2016,8,3,6.72,86,17.38,0,0
$GPRMC,133622.000,A,5130.1615,N,00000.3594,E,2.48,11.85,200416,,,A*54,51.5026931762,0.0059899997,13:36:22,20/4/2016,8,0,1.41,22,17.38,0,0
$GPRMC,133623.000,A,5130.1624,N,00000.3596,E,2.61,11.97,200416,,,A*5D,51.5027084350,0.0059932999,13:36:23,20/4/2016,8,0,1.48,22,17.38,0,0
$GPRMC,133624.000,A,5130.1631,N,00000.3598,E,2.52,11.45,200416,,,A*5F,51.5027198791,0.0059966001,13:36:24,20/4/2016,9,2,6.50,46,17.38,0,0
$GPRMC,133625.000,A,5130.1640,N,00000.3597,E,2.54,3.39,200416,,,A*69,51.5027351379,0.0059949998,13:36:25,20/4/2016,8,2,4.14,26,16.89,0,0
$GPRMC,133626.000,A,5130.1648,N,00000.3598,E,2.63,3.57,200416,,,A*61,51.5027503967,0.0059966001,13:36:26,20/4/2016,8,0,1.43,16,17.38,0,0
$GPRMC,133627.000,A,5130.1658,N,00000.3598,E,2.80,3.96,200416,,,A*61,51.5027656555,0.0059966001,13:36:27,20/4/2016,7,0,1.91,23,17.38,0,0
$GPRMC,133628.000,A,5130.1666,N,00000.3599,E,2.78,5.70,200416,,,A*6B,51.5027732849,0.0059983005,13:36:28,20/4/2016,9,0,1.40,17,17.38,0,0
$GPRMC,133629.000,A,5130.1675,N,00000.3599,E,2.74,6.07,200416,,,A*67,51.5027923583,0.0059983005,13:36:29,20/4/2016,9,0,1.05,16,17.38,0,0
$GPRMC,133630.000,A,5130.1683,N,00000.3600,E,2.70,6.32,200416,,,A*67,51.5028076171,0.0060000000,13:36:30,20/4/2016,8,0,0.67,15,17.38,0,0
$GPRMC,133631.000,A,5130.1695,N,00000.3600,E,3.01,359.42,200416,,,A*68,51.5028228759,0.0060000000,13:36:31,20/4/2016,8,0,0.78,15,17.87,0,0
$GPRMC,133632.000,A,5130.1704,N,00000.3600,E,3.17,5.50,200416,,,A*6C,51.5028419494,0.0060000000,13:36:32,20/4/2016,7,0,0.98,11,17.87,0,0
$GPRMC,133633.000,A,5130.1715,N,00000.3599,E,3.27,2.03,200416,,,A*6C,51.5028572082,0.0059983005,13:36:33,20/4/2016,8,0,1.46,17,17.87,0,0
$GPRMC,133634.000,A,5130.1724,N,00000.3600,E,3.10,1.73,200416,,,A*6A,51.5028724670,0.0060000000,13:36:34,20/4/2016,9,0,2.95,21,17.87,0,0
$GPRMC,133635.000,A,5130.1733,N,00000.3601,E,2.70,8.71,200416,,,A*60,51.5028877258,0.0060016002,13:36:35,20/4/2016,10,0,3.54,43,18.36,0,0
$GPRMC,133636.000,A,5130.1739,N,00000.3605,E,1.61,52.31,200416,,,A*55,51.5028953552,0.0060083003,13:36:36,20/4/2016,9,3,2.95,39,17.87,0,0
$GPRMC,133637.000,A,5130.1754,N,00000.3605,E,2.42,357.16,200416,,,A*6E,51.5029220581,0.0060083003,13:36:37,20/4/2016,8,1,3.15,19,18.36,0,0
$GPRMC,133638.000,A,5130.1765,N,00000.3604,E,3.53,356.88,200416,,,A*65,51.5029373168,0.0060066003,13:36:38,20/4/2016,8,0,3.54,30,18.36,0,0
$GPRMC,133639.000,A,5130.1775,N,00000.3603,E,3.41,0.93,200416,,,A*6B,51.5029640197,0.0060050001,13:36:39,20/4/2016,8,7,2.69,21,17.87,0,0
$GPRMC,133640.000,A,5130.1786,N,00000.3602,E,3.77,358.09,200416,,,A*60,51.5029792785,0.0060032997,13:36:40,20/4/2016,8,1,2.48,31,17.87,0,0
$GPRMC,133641.000,A,5130.1799,N,00000.3602,E,3.62,358.22,200416,,,A*62,51.5029945373,0.0060032997,13:36:41,20/4/2016,8,5,2.57,40,17.87,0,0
$GPRMC,133642.000,A,5130.1812,N,00000.3601,E,2.56,354.24,200416,,,A*62,51.5030174255,0.0060016002,13:36:42,20/4/2016,8,16,4.32,42,18.36,0,0
$GPRMC,133643.000,A,5130.1821,N,00000.3602,E,2.60,0.68,200416,,,A*6F,51.5030364990,0.0060032997,13:36:43,20/4/2016,9,6,1.06,15,18.36,0,0
$GPRMC,133644.000,A,5130.1829,N,00000.3601,E,2.03,354.00,200416,,,A*6A,51.5030517578,0.0060016002,13:36:44,20/4/2016,7,2,4.16,37,18.36,0,0
$GPRMC,133645.000,A,5130.1840,N,00000.3601,E,2.63,0.34,200416,,,A*67,51.5030670166,0.0060016002,13:36:45,20/4/2016,7,0,5.85,46,18.36,0,0
$GPRMC,133646.000,A,5130.1853,N,00000.3604,E,3.07,17.04,200416,,,A*55,51.5030860900,0.0060066003,13:36:46,20/4/2016,22,0,1.02,13,18.36,0,0
$GPRMC,133647.000,A,5130.1864,N,00000.3607,E,3.47,11.56,200416,,,A*56,51.5031089782,0.0060116000,13:36:47,20/4/2016,23,0,1.38,20,18.36,0,0
$GPRMC,133648.000,A,5130.1872,N,00000.3615,E,3.21,30.70,200416,,,A*5A,51.5031166076,0.0060250005,13:36:48,20/4/2016,26,1,1.61,20,16.41,0,0
$GPRMC,133649.000,A,5130.1880,N,00000.3623,E,3.60,28.28,200416,,,A*52,51.5031318664,0.0060383005,13:36:49,20/4/2016,26,0,3.01,20,17.87,0,0
$GPRMC,133650.000,A,5130.1891,N,00000.3630,E,3.92,17.85,200416,,,A*5E,51.5031509399,0.0060500001,13:36:50,20/4/2016,26,1,2.39,18,16.89,0,0
$GPRMC,133651.000,A,5130.1901,N,00000.3636,E,3.59,18.07,200416,,,A*53,51.5031661987,0.0060599999,13:36:51,20/4/2016,25,17,3.65,26,17.87,0,0
$GPRMC,133652.000,A,5130.1909,N,00000.3642,E,2.66,15.79,200416,,,A*52,51.5031814575,0.0060700006,13:36:52,20/4/2016,26,17,11.09,66,17.87,0,0
$GPRMC,133653.000,A,5130.1915,N,00000.3652,E,3.94,37.99,200416,,,A*5D,51.5031890869,0.0060866003,13:36:53,20/4/2016,26,3,5.23,49,17.38,1,1
$GPRMC,133654.000,A,5130.1922,N,00000.3659,E,2.72,26.42,200416,,,A*5A,51.5032081604,0.0060982999,13:36:54,20/4/2016,26,4,2.58,20,17.38,0,1
$GPRMC,133655.000,A,5130.1924,N,00000.3673,E,3.49,53.43,200416,,,A*5F,51.5032081604,0.0061216001,13:36:55,20/4/2016,25,1,2.98,34,16.89,3,4
$GPRMC,133656.000,A,5130.1922,N,00000.3686,E,1.99,168.77,200416,,,A*61,51.5032081604,0.0061433005,13:36:56,20/4/2016,23,6,2.61,35,16.89,0,4
$GPRMC,133657.000,A,5130.1919,N,00000.3692,E,2.17,150.23,200416,,,A*62,51.5031967163,0.0061533002,13:36:57,20/4/2016,22,3,32.34,168,16.89,0,4
$GPRMC,133658.000,A,5130.1930,N,00000.3698,E,0.71,131.87,200416,,,A*67,51.5032157897,0.0061632995,13:36:58,20/4/2016,7,38,11.93,58,16.89,0,4
$GPRMC,133659.000,A,5130.1932,N,00000.3713,E,2.33,139.37,200416,,,A*61,51.5032234191,0.0061883001,13:36:59,20/4/2016,7,1,5.99,65,16.89,0,4
$GPRMC,133700.000,A,5130.1928,N,00000.3728,E,3.29,131.32,200416,,,A*68,51.5032157897,0.0062133002,13:37:0,20/4/2016,6,0,5.13,36,16.89,0,4
$GPRMC,133701.000,A,5130.1926,N,00000.3739,E,3.05,118.29,200416,,,A*68,51.5032081604,0.0062315998,13:37:1,20/4/2016,6,1,3.61,47,17.38,0,4
$GPRMC,133702.000,A,5130.1920,N,00000.3754,E,3.92,117.54,200416,,,A*6D,51.5031967163,0.0062566003,13:37:2,20/4/2016,19,1,3.04,21,16.89,0,4
$GPRMC,133703.000,A,5130.1917,N,00000.3767,E,3.44,102.51,200416,,,A*62,51.5031967163,0.0062783002,13:37:3,20/4/2016,17,3,4.18,37,17.38,0,4
$GPRMC,133704.000,A,5130.1914,N,00000.3782,E,3.15,117.76,200416,,,A*68,51.5031890869,0.0063033008,13:37:4,20/4/2016,16,5,4.81,44,17.38,0,4
$GPRMC,133705.000,A,5130.1911,N,00000.3795,E,2.68,120.15,200416,,,A*60,51.5031814575,0.0063249998,13:37:5,20/4/2016,6,6,7.61,65,17.38,0,4
$GPRMC,133706.000,A,5130.1909,N,00000.3807,E,2.71,119.42,200416,,,A*6E,51.5031814575,0.0063450007,13:37:6,20/4/2016,6,12,4.82,62,16.89,0,4
$GPRMC,133707.000,A,5130.1905,N,00000.3818,E,2.91,138.51,200416,,,A*62,51.5031738281,0.0063633003,13:37:7,20/4/2016,6,21,4.70,74,17.38,0,4
$GPRMC,133708.000,A,5130.1899,N,00000.3825,E,2.69,145.54,200416,,,A*6F,51.5031661987,0.0063750004,13:37:8,20/4/2016,6,0,1.65,18,16.89,0,4
$GPRMC,133709.000,A,5130.1896,N,00000.3833,E,2.50,143.71,200416,,,A*6D,51.5031585693,0.0063882999,13:37:9,20/4/2016,6,11,8.07,55,17.38,0,4
$GPRMC,133710.000,A,5130.1891,N,00000.3841,E,2.52,139.55,200416,,,A*6E,51.5031509399,0.0064015998,13:37:10,20/4/2016,5,9,13.43,104,17.38,0,4
$GPRMC,133711.000,A,5130.1884,N,00000.3852,E,2.45,143.78,200416,,,A*6D,51.5031394958,0.0064200010,13:37:11,20/4/2016,6,12,21.69,128,17.38,0,4
$GPRMC,133712.000,A,5130.1886,N,00000.3855,E,1.05,123.49,200416,,,A*68,51.5031394958,0.0064249997,13:37:12,20/4/2016,6,16,9.87,50,16.41,0,4
$GPRMC,133713.000,A,5130.1885,N,00000.3862,E,1.77,119.91,200416,,,A*67,51.5031394958,0.0064366006,13:37:13,20/4/2016,6,24,13.13,75,16.89,0,4
$GPRMC,133714.000,A,5130.1882,N,00000.3872,E,2.04,89.85,200416,,,A*5C,51.5031318664,0.0064532995,13:37:14,20/4/2016,7,29,26.41,154,16.89,0,4
$GPRMC,133715.000,A,5130.1874,N,00000.3888,E,3.95,131.01,200416,,,A*66,51.5031242370,0.0064800000,13:37:15,20/4/2016,19,31,37.65,221,17.38,0,4
$GPRMC,133716.000,A,5130.1875,N,00000.3897,E,1.50,99.02,200416,,,A*51,51.5031242370,0.0064949998,13:37:16,20/4/2016,22,7,7.72,45,16.89,1,5
$GPRMC,133717.000,A,5130.1879,N,00000.3905,E,4.37,43.17,200416,,,A*51,51.5031318664,0.0065082998,13:37:17,20/4/2016,21,15,4.07,32,16.41,1,6
$GPRMC,133718.000,A,5130.1885,N,00000.3919,E,1.50,8.55,200416,,,A*6D,51.5031394958,0.0065316009,13:37:18,20/4/2016,7,0,7.87,60,16.41,0,6
$GPRMC,133719.000,A,5130.1890,N,00000.3927,E,4.45,358.74,200416,,,A*61,51.5031509399,0.0065450005,13:37:19,20/4/2016,7,0,1.53,16,16.41,0,6
$GPRMC,133720.000,A,5130.1901,N,00000.3928,E,5.41,345.37,200416,,,A*63,51.5031661987,0.0065465998,13:37:20,20/4/2016,7,2,3.27,35,15.92,0,6
$GPRMC,133721.000,A,5130.1912,N,00000.3929,E,4.81,352.91,200416,,,A*66,51.5031890869,0.0065483002,13:37:21,20/4/2016,7,0,4.25,34,16.41,0,6
$GPRMC,133722.000,A,5130.1923,N,00000.3927,E,4.07,347.52,200416,,,A*6C,51.5032081604,0.0065450005,13:37:22,20/4/2016,7,4,3.45,25,16.41,0,6
$GPRMC,133723.000,A,5130.1933,N,00000.3923,E,3.16,344.58,200416,,,A*66,51.5032234191,0.0065383005,13:37:23,20/4/2016,7,0,3.52,29,16.41,0,6
$GPRMC,133724.000,A,5130.1943,N,00000.3919,E,3.86,337.21,200416,,,A*6C,51.5032386779,0.0065316009,13:37:24,20/4/2016,7,3,3.09,26,16.41,0,6
$GPRMC,133725.000,A,5130.1953,N,00000.3913,E,5.20,339.45,200416,,,A*60,51.5032539367,0.0065215997,13:37:25,20/4/2016,7,7,8.76,113,16.41,0,6
$GPRMC,133726.000,A,5130.1962,N,00000.3906,E,3.77,331.66,200416,,,A*68,51.5032730102,0.0065100002,13:37:26,20/4/2016,7,6,5.53,38,16.41,0,6
$GPRMC,133727.000,A,5130.1972,N,00000.3898,E,3.44,330.88,200416,,,A*6F,51.5032882690,0.0064966001,13:37:27,20/4/2016,6,9,5.90,31,16.41,0,6
$GPRMC,133728.000,A,5130.1977,N,00000.3892,E,3.20,324.74,200416,,,A*6B,51.5032958984,0.0064866008,13:37:28,20/4/2016,6,5,5.31,34,16.41,0,6
$GPRMC,133729.000,A,5130.1985,N,00000.3885,E,3.61,331.30,200416,,,A*60,51.5033111572,0.0064750003,13:37:29,20/4/2016,6,4,4.34,24,16.41,0,6
$GPRMC,133730.000,A,5130.1992,N,00000.3878,E,3.46,324.78,200416,,,A*61,51.5033187866,0.0064632997,13:37:30,20/4/2016,7,11,5.44,27,16.89,0,6
$GPRMC,133731.000,A,5130.2000,N,00000.3868,E,2.35,313.36,200416,,,A*6B,51.5033378601,0.0064466004,13:37:31,20/4/2016,7,3,7.76,79,16.89,0,6
$GPRMC,133732.000,A,5130.2005,N,00000.3861,E,1.94,315.81,200416,,,A*66,51.5033454895,0.0064350004,13:37:32,20/4/2016,6,0,10.48,70,16.41,0,6
$GPRMC,133733.000,A,5130.2009,N,00000.3854,E,3.14,316.17,200416,,,A*6B,51.5033454895,0.0064233007,13:37:33,20/4/2016,7,6,9.77,85,16.41,0,6
$GPRMC,133734.000,A,5130.2014,N,00000.3849,E,5.08,335.29,200416,,,A*6B,51.5033531188,0.0064150004,13:37:34,20/4/2016,7,19,4.12,24,16.41,0,6
$GPRMC,133735.000,A,5130.2023,N,00000.3840,E,4.27,331.09,200416,,,A*6D,51.5033683776,0.0063999996,13:37:35,20/4/2016,7,12,7.72,48,16.41,0,6
$GPRMC,133736.000,A,5130.2033,N,00000.3832,E,3.54,333.46,200416,,,A*60,51.5033836364,0.0063866004,13:37:36,20/4/2016,7,2,5.87,30,16.41,0,6
$GPRMC,133737.000,A,5130.2040,N,00000.3824,E,3.13,324.53,200416,,,A*63,51.5034027099,0.0063733005,13:37:37,20/4/2016,7,2,5.70,55,16.41,0,6
$GPRMC,133738.000,A,5130.2048,N,00000.3814,E,3.00,322.13,200416,,,A*67,51.5034103393,0.0063565998,13:37:38,20/4/2016,7,2,2.75,20,16.41,0,6
$GPRMC,133739.000,A,5130.2056,N,00000.3805,E,4.21,328.30,200416,,,A*66,51.5034255981,0.0063416004,13:37:39,20/4/2016,7,0,2.47,23,16.41,0,6
$GPRMC,133740.000,A,5130.2065,N,00000.3796,E,3.71,327.62,200416,,,A*67,51.5034408569,0.0063266000,13:37:40,20/4/2016,7,4,3.07,26,16.89,0,6
$GPRMC,133741.000,A,5130.2073,N,00000.3788,E,3.69,329.47,200416,,,A*6E,51.5034599304,0.0063133001,13:37:41,20/4/2016,7,4,3.22,19,16.89,0,6
$GPRMC,133742.000,A,5130.2081,N,00000.3779,E,3.55,326.31,200416,,,A*6F,51.5034675598,0.0062983007,13:37:42,20/4/2016,7,0,2.23,17,16.89,0,6
$GPRMC,133743.000,A,5130.2089,N,00000.3770,E,3.42,325.09,200416,,,A*61,51.5034828186,0.0062832999,13:37:43,20/4/2016,7,0,1.57,18,16.89,0,6
$GPRMC,133744.000,A,5130.2096,N,00000.3761,E,3.77,326.14,200416,,,A*61,51.5034904479,0.0062683000,13:37:44,20/4/2016,7,1,8.22,101,16.89,0,6
$GPRMC,133745.000,A,5130.2104,N,00000.3752,E,3.22,320.78,200416,,,A*66,51.5035057067,0.0062533006,13:37:45,20/4/2016,6,1,1.97,22,16.89,0,6
$GPRMC,133746.000,A,5130.2112,N,00000.3743,E,3.43,325.99,200416,,,A*6F,51.5035247802,0.0062383003,13:37:46,20/4/2016,7,3,2.55,20,16.89,0,6
$GPRMC,133747.000,A,5130.2119,N,00000.3734,E,3.67,323.34,200416,,,A*62,51.5035324096,0.0062232999,13:37:47,20/4/2016,7,7,4.08,31,16.89,0,6
$GPRMC,133748.000,A,5130.2126,N,00000.3725,E,3.79,325.27,200416,,,A*6A,51.5035400390,0.0062083001,13:37:48,20/4/2016,7,0,2.17,21,16.89,0,6
$GPRMC,133749.000,A,5130.2134,N,00000.3715,E,3.43,321.78,200416,,,A*6C,51.5035552978,0.0061916007,13:37:49,20/4/2016,7,6,3.35,30,16.89,0,6
$GPRMC,133750.000,A,5130.2141,N,00000.3705,E,3.32,321.09,200416,,,A*67,51.5035629272,0.0061750001,13:37:50,20/4/2016,7,2,1.03,15,16.89,0,6
$GPRMC,133751.000,A,5130.2147,N,00000.3697,E,2.49,320.56,200416,,,A*6C,51.5035820007,0.0061616001,13:37:51,20/4/2016,7,6,2.21,27,16.89,0,6
$GPRMC,133752.000,A,5130.2155,N,00000.3689,E,3.24,331.91,200416,,,A*62,51.5035896301,0.0061483001,13:37:52,20/4/2016,7,0,1.26,15,16.89,0,6
$GPRMC,133753.000,A,5130.2162,N,00000.3682,E,3.13,322.21,200416,,,A*61,51.5036048889,0.0061366004,13:37:53,20/4/2016,7,4,2.26,17,16.89,0,6
$GPRMC,133754.000,A,5130.2168,N,00000.3675,E,3.07,327.71,200416,,,A*61,51.5036125183,0.0061250000,13:37:54,20/4/2016,7,0,1.30,17,16.89,0,6
$GPRMC,133755.000,A,5130.2176,N,00000.3668,E,2.53,329.74,200416,,,A*68,51.5036277770,0.0061133003,13:37:55,20/4/2016,7,4,3.72,43,16.89,0,6
$GPRMC,133756.000,A,5130.2184,N,00000.3660,E,3.93,324.17,200416,,,A*6B,51.5036392211,0.0061000003,13:37:56,20/4/2016,7,0,3.16,33,16.89,0,6
$GPRMC,133757.000,A,5130.2194,N,00000.3650,E,3.67,323.74,200416,,,A*61,51.5036544799,0.0060833001,13:37:57,20/4/2016,7,0,2.62,27,16.89,0,6
$GPRMC,133758.000,A,5130.2201,N,00000.3642,E,3.49,331.09,200416,,,A*67,51.5036697387,0.0060700006,13:37:58,20/4/2016,7,3,7.05,63,16.89,0,6
$GPRMC,133759.000,A,5130.2215,N,00000.3631,E,1.59,297.43,200416,,,A*67,51.5036964416,0.0060515999,13:37:59,20/4/2016,7,5,12.12,88,16.41,0,6
$GPRMC,133800.000,A,5130.2221,N,00000.3624,E,4.20,329.96,200416,,,A*60,51.5037040710,0.0060400004,13:38:0,20/4/2016,7,0,10.91,57,16.41,0,6
$GPRMC,133801.000,A,5130.2230,N,00000.3617,E,3.62,338.20,200416,,,A*6D,51.5037193298,0.0060282998,13:38:1,20/4/2016,7,0,2.30,19,16.41,0,6
$GPRMC,133802.000,A,5130.2239,N,00000.3610,E,5.40,335.00,200416,,,A*69,51.5037345886,0.0060166001,13:38:2,20/4/2016,7,3,1.83,22,16.41,0,6
$GPRMC,133803.000,A,5130.2245,N,00000.3603,E,3.88,324.84,200416,,,A*6F,51.5037422180,0.0060050001,13:38:3,20/4/2016,7,0,16.98,175,16.41,0,6
$GPRMC,133804.000,A,5130.2254,N,00000.3591,E,3.46,317.57,200416,,,A*6C,51.5037612915,0.0059850001,13:38:4,20/4/2016,7,1,7.91,87,15.92,0,6
$GPRMC,133805.000,A,5130.2261,N,00000.3583,E,3.03,337.26,200416,,,A*6D,51.5037689208,0.0059715995,13:38:5,20/4/2016,7,8,7.82,83,16.41,0,6
$GPRMC,133806.000,A,5130.2268,N,00000.3575,E,2.27,315.41,200416,,,A*68,51.5037765502,0.0059583001,13:38:6,20/4/2016,7,1,4.32,46,15.92,0,6
$GPRMC,133807.000,A,5130.2274,N,00000.3566,E,3.75,323.39,200416,,,A*6A,51.5037918090,0.0059433002,13:38:7,20/4/2016,8,0,3.81,37,16.41,0,6
$GPRMC,133808.000,A,5130.2282,N,00000.3558,E,3.52,321.98,200416,,,A*6D,51.5037994384,0.0059299998,13:38:8,20/4/2016,7,8,1.79,29,16.41,0,6
$GPRMC,133809.000,A,5130.2289,N,00000.3548,E,3.67,329.33,200416,,,A*69,51.5038185119,0.0059133005,13:38:9,20/4/2016,7,0,1.07,18,16.41,0,6
$GPRMC,133810.000,A,5130.2296,N,00000.3539,E,4.32,325.09,200416,,,A*6B,51.5038261413,0.0058983001,13:38:10,20/4/2016,8,0,1.00,29,16.41,0,6
$GPRMC,133811.000,A,5130.2305,N,00000.3529,E,3.16,326.62,200416,,,A*6F,51.5038414001,0.0058816003,13:38:11,20/4/2016,7,1,2.38,30,16.41,0,6
$GPRMC,133812.000,A,5130.2312,N,00000.3520,E,2.29,329.59,200416,,,A*69,51.5038490295,0.0058666000,13:38:12,20/4/2016,7,0,8.20,71,16.41,0,6
$GPRMC,133813.000,A,5130.2318,N,00000.3513,E,3.82,325.14,200416,,,A*67,51.5038642883,0.0058550000,13:38:13,20/4/2016,7,0,0.63,14,16.41,0,6
$GPRMC,133814.000,A,5130.2321,N,00000.3504,E,4.41,319.74,200416,,,A*6D,51.5038642883,0.0058400001,13:38:14,20/4/2016,7,0,0.57,13,16.41,0,6
$GPRMC,133815.000,A,5130.2330,N,00000.3493,E,3.72,325.02,200416,,,A*6A,51.5038833618,0.0058215999,13:38:15,20/4/2016,7,0,1.18,25,16.41,0,6
$GPRMC,133816.000,A,5130.2338,N,00000.3483,E,3.37,318.47,200416,,,A*6E,51.5038986206,0.0058050003,13:38:16,20/4/2016,7,0,2.41,38,16.41,0,6
$GPRMC,133817.000,A,5130.2346,N,00000.3473,E,1.50,318.11,200416,,,A*69,51.5039062500,0.0057883005,13:38:17,20/4/2016,7,35,7.40,80,16.41,0,6
$GPRMC,133818.000,A,5130.2351,N,00000.3466,E,0.89,245.91,200416,,,A*60,51.5039138793,0.0057765998,13:38:18,20/4/2016,8,2,2.37,30,16.41,0,6
$GPRMC,133819.000,A,5130.2356,N,00000.3460,E,2.13,318.17,200416,,,A*66,51.5039291381,0.0057666006,13:38:19,20/4/2016,7,0,0.49,8,16.41,0,6
$GPRMC,133820.000,A,5130.2361,N,00000.3452,E,2.44,317.00,200416,,,A*62,51.5039405822,0.0057533001,13:38:20,20/4/2016,7,3,1.39,16,16.41,0,6
$GPRMC,133821.000,A,5130.2369,N,00000.3442,E,3.02,321.81,200416,,,A*65,51.5039482116,0.0057365999,13:38:21,20/4/2016,7,0,0.88,10,16.41,0,6
$GPRMC,133822.000,A,5130.2375,N,00000.3436,E,2.16,333.50,200416,,,A*63,51.5039558410,0.0057266001,13:38:22,20/4/2016,7,2,6.61,65,16.41,0,6
$GPRMC,133823.000,A,5130.2382,N,00000.3432,E,1.80,347.44,200416,,,A*64,51.5039710998,0.0057200002,13:38:23,20/4/2016,7,1,3.11,63,15.92,0,6
$GPRMC,133824.000,A,5130.2387,N,00000.3426,E,4.06,308.60,200416,,,A*65,51.5039787292,0.0057100005,13:38:24,20/4/2016,7,5,1.04,33,16.41,0,6
$GPRMC,133825.000,A,5130.2394,N,00000.3416,E,2.78,329.32,200416,,,A*6E,51.5039863586,0.0056932997,13:38:25,20/4/2016,7,7,0.68,10,16.41,0,6
$GPRMC,133826.000,A,5130.2403,N,00000.3408,E,3.54,329.68,200416,,,A*6B,51.5040054321,0.0056800003,13:38:26,20/4/2016,7,0,0.93,13,16.41,0,6
$GPRMC,133827.000,A,5130.2412,N,00000.3399,E,3.88,329.50,200416,,,A*6F,51.5040206909,0.0056649999,13:38:27,20/4/2016,7,0,0.99,14,16.41,0,6
$GPRMC,133828.000,A,5130.2420,N,00000.3391,E,3.44,329.82,200416,,,A*66,51.5040359497,0.0056516003,13:38:28,20/4/2016,7,0,1.49,24,16.41,0,6
$GPRMC,133829.000,A,5130.2428,N,00000.3383,E,3.04,329.44,200416,,,A*62,51.5040435791,0.0056383008,13:38:29,20/4/2016,7,0,3.15,20,16.41,0,6
$GPRMC,133830.000,A,5130.2437,N,00000.3374,E,3.99,323.25,200416,,,A*65,51.5040626525,0.0056233000,13:38:30,20/4/2016,7,0,1.73,18,16.41,0,6
$GPRMC,133831.000,A,5130.2445,N,00000.3365,E,3.39,329.10,200416,,,A*67,51.5040779113,0.0056083002,13:38:31,20/4/2016,8,4,0.70,16,16.41,0,6
$GPRMC,133832.000,A,5130.2453,N,00000.3356,E,2.50,315.73,200416,,,A*67,51.5040855407,0.0055933003,13:38:32,20/4/2016,7,1,2.25,20,16.41,0,6
$GPRMC,133833.000,A,5130.2461,N,00000.3348,E,1.39,305.63,200416,,,A*64,51.5041007995,0.0055800004,13:38:33,20/4/2016,7,6,4.59,33,16.41,0,6
$GPRMC,133834.000,A,5130.2468,N,00000.3339,E,2.75,314.74,200416,,,A*61,51.5041084289,0.0055650000,13:38:34,20/4/2016,7,0,1.94,32,16.41,0,6
$GPRMC,133835.000,A,5130.2474,N,00000.3329,E,2.98,314.11,200416,,,A*6C,51.5041275024,0.0055483002,13:38:35,20/4/2016,7,0,1.11,23,16.41,0,6
$GPRMC,133836.000,A,5130.2480,N,00000.3319,E,3.57,317.76,200416,,,A*67,51.5041351318,0.0055315999,13:38:36,20/4/2016,7,2,2.15,56,16.41,0,6
$GPRMC,133837.000,A,5130.2487,N,00000.3308,E,3.33,317.50,200416,,,A*67,51.5041427612,0.0055132999,13:38:37,20/4/2016,7,5,3.07,49,16.41,0,6
$GPRMC,133838.000,A,5130.2494,N,00000.3298,E,3.22,314.39,200416,,,A*6E,51.5041580200,0.0054966001,13:38:38,20/4/2016,7,2,2.12,32,16.41,0,6
$GPRMC,133839.000,A,5130.2501,N,00000.3288,E,3.17,316.50,200416,,,A*68,51.5041656494,0.0054800004,13:38:39,20/4/2016,7,0,2.81,28,16.41,0,6
$GPRMC,133840.000,A,5130.2507,N,00000.3278,E,3.24,311.95,200416,,,A*61,51.5041732788,0.0054633002,13:38:40,20/4/2016,7,0,1.44,26,16.41,0,6
$GPRMC,133841.000,A,5130.2512,N,00000.3270,E,2.84,324.02,200416,,,A*6F,51.5041847229,0.0054500007,13:38:41,20/4/2016,7,1,4.28,72,16.41,0,6
$GPRMC,133842.000,A,5130.2520,N,00000.3261,E,3.54,325.70,200416,,,A*65,51.5041999816,0.0054350004,13:38:42,20/4/2016,7,0,2.46,23,16.41,0,6
$GPRMC,133843.000,A,5130.2526,N,00000.3253,E,2.43,314.91,200416,,,A*69,51.5042076110,0.0054216003,13:38:43,20/4/2016,7,0,6.41,76,16.41,0,6
$GPRMC,133844.000,A,5130.2531,N,00000.3244,E,3.87,321.79,200416,,,A*67,51.5042152404,0.0054065999,13:38:44,20/4/2016,7,3,1.99,20,16.41,0,6
$GPRMC,133845.000,A,5130.2537,N,00000.3234,E,4.39,318.93,200416,,,A*6B,51.5042304992,0.0053900003,13:38:45,20/4/2016,6,0,2.54,26,16.41,0,6
$GPRMC,133846.000,A,5130.2545,N,00000.3223,E,3.36,321.33,200416,,,A*63,51.5042381286,0.0053716001,13:38:46,20/4/2016,7,0,5.28,42,16.41,0,6
$GPRMC,133847.000,A,5130.2552,N,00000.3212,E,3.66,317.22,200416,,,A*66,51.5042572021,0.0053533005,13:38:47,20/4/2016,11,6,14.79,71,16.41,0,6
$GPRMC,133848.000,A,5130.2559,N,00000.3201,E,3.36,317.93,200416,,,A*6F,51.5042648315,0.0053350000,13:38:48,20/4/2016,10,0,2.31,24,15.92,0,6
$GPRMC,133849.000,A,5130.2567,N,00000.3190,E,2.41,314.78,200416,,,A*6F,51.5042800903,0.0053166003,13:38:49,20/4/2016,7,4,1.30,16,15.92,0,6
$GPRMC,133850.000,A,5130.2573,N,00000.3182,E,3.02,316.43,200416,,,A*6D,51.5042877197,0.0053033008,13:38:50,20/4/2016,7,1,2.41,24,15.92,0,6
$GPRMC,133851.000,A,5130.2579,N,00000.3171,E,2.89,309.49,200416,,,A*6C,51.5042953491,0.0052850003,13:38:51,20/4/2016,7,3,5.46,67,15.92,0,6
$GPRMC,133852.000,A,5130.2585,N,00000.3161,E,3.17,321.25,200416,,,A*6B,51.5043067932,0.0052683000,13:38:52,20/4/2016,7,2,3.65,45,15.92,0,6
$GPRMC,133853.000,A,5130.2592,N,00000.3151,E,3.25,320.67,200416,,,A*69,51.5043220520,0.0052516007,13:38:53,20/4/2016,7,0,2.18,32,15.92,0,6
$GPRMC,133854.000,A,5130.2598,N,00000.3141,E,3.34,316.28,200416,,,A*6B,51.5043296813,0.0052349996,13:38:54,20/4/2016,7,3,4.82,45,15.92,0,6
$GPRMC,133855.000,A,5130.2606,N,00000.3130,E,3.42,317.57,200416,,,A*60,51.5043449401,0.0052165994,13:38:55,20/4/2016,7,12,8.17,57,16.41,0,6
$GPRMC,133856.000,A,5130.2612,N,00000.3120,E,3.06,318.27,200416,,,A*6F,51.5043525695,0.0051999998,13:38:56,20/4/2016,7,13,7.61,113,16.41,0,6
$GPRMC,133857.000,A,5130.2619,N,00000.3110,E,3.03,317.93,200416,,,A*63,51.5043601989,0.0051833004,13:38:57,20/4/2016,7,17,13.39,172,15.92,0,6
$GPRMC,133858.000,A,5130.2625,N,00000.3101,E,2.86,320.19,200416,,,A*69,51.5043792724,0.0051683001,13:38:58,20/4/2016,7,4,10.81,91,15.92,0,6
$GPRMC,133859.000,A,5130.2631,N,00000.3090,E,2.93,311.67,200416,,,A*6B,51.5043869018,0.0051499996,13:38:59,20/4/2016,7,1,8.74,74,15.92,0,6
$GPRMC,133900.000,A,5130.2637,N,00000.3079,E,3.59,319.03,200416,,,A*6A,51.5043945312,0.0051316003,13:39:0,20/4/2016,7,23,4.92,77,15.92,0,6
$GPRMC,133901.000,A,5130.2642,N,00000.3069,E,3.21,306.83,200416,,,A*61,51.5044021606,0.0051150007,13:39:1,20/4/2016,7,0,19.29,158,15.92,0,6
$GPRMC,133902.000,A,5130.2647,N,00000.3058,E,3.46,317.44,200416,,,A*6F,51.5044097900,0.0050966000,13:39:2,20/4/2016,8,2,2.13,16,15.92,0,6
$GPRMC,133903.000,A,5130.2655,N,00000.3047,E,3.00,321.59,200416,,,A*68,51.5044288635,0.0050783004,13:39:3,20/4/2016,8,10,7.89,131,15.92,0,6
$GPRMC,133904.000,A,5130.2662,N,00000.3039,E,3.69,327.96,200416,,,A*68,51.5044364929,0.0050650000,13:39:4,20/4/2016,7,37,11.66,79,15.92,0,6
$GPRMC,133905.000,A,5130.2671,N,00000.3032,E,1.63,345.17,200416,,,A*65,51.5044517517,0.0050533003,13:39:5,20/4/2016,8,48,20.44,125,15.92,0,6
$GPRMC,133906.000,A,5130.2678,N,00000.3030,E,1.45,15.14,200416,,,A*5C,51.5044593811,0.0050500001,13:39:6,20/4/2016,8,0,4.87,76,15.92,0,6
$GPRMC,133907.000,A,5130.2684,N,00000.3033,E,2.26,10.39,200416,,,A*51,51.5044746398,0.0050550007,13:39:7,20/4/2016,7,8,3.66,54,15.92,0,6
$GPRMC,133908.000,A,5130.2690,N,00000.3034,E,2.21,2.25,200416,,,A*65,51.5044822692,0.0050566005,13:39:8,20/4/2016,7,0,1.29,13,15.92,0,6
$GPRMC,133909.000,A,5130.2695,N,00000.3033,E,2.00,354.10,200416,,,A*63,51.5044937133,0.0050550007,13:39:9,20/4/2016,7,15,10.08,59,15.92,0,6
$GPRMC,133910.000,A,5130.2699,N,00000.3029,E,1.27,341.47,200416,,,A*6C,51.5045013427,0.0050482997,13:39:10,20/4/2016,7,13,76.83,494,15.43,0,6
$GPRMC,133911.000,A,5130.2701,N,00000.3022,E,1.57,308.87,200416,,,A*60,51.5045013427,0.0050365996,13:39:11,20/4/2016,7,2,38.67,216,14.45,0,6
$GPRMC,133912.000,A,5130.2705,N,00000.3011,E,2.13,298.44,200416,,,A*63,51.5045089721,0.0050183005,13:39:12,20/4/2016,7,1,10.67,111,15.43,0,6
$GPRMC,133913.000,A,5130.2710,N,00000.2998,E,2.46,298.78,200416,,,A*60,51.5045166015,0.0049966001,13:39:13,20/4/2016,7,3,2.42,23,15.43,0,6
$GPRMC,133914.000,A,5130.2715,N,00000.2986,E,2.78,299.76,200416,,,A*6F,51.5045242309,0.0049766006,13:39:14,20/4/2016,8,4,12.11,120,15.43,0,6
$GPRMC,133915.000,A,5130.2719,N,00000.2976,E,3.06,310.67,200416,,,A*65,51.5045318603,0.0049600000,13:39:15,20/4/2016,7,8,23.44,282,15.43,0,6
$GPRMC,133916.000,A,5130.2726,N,00000.2966,E,2.39,319.02,200416,,,A*6C,51.5045394897,0.0049433002,13:39:16,20/4/2016,7,8,5.21,47,15.43,0,6
$GPRMC,133917.000,A,5130.2731,N,00000.2956,E,2.93,309.77,200416,,,A*6B,51.5045509338,0.0049265999,13:39:17,20/4/2016,7,18,11.88,134,15.43,0,6
$GPRMC,133918.000,A,5130.2735,N,00000.2945,E,2.49,301.89,200416,,,A*6C,51.5045585632,0.0049082999,13:39:18,20/4/2016,8,16,11.89,128,15.43,0,6
$GPRMC,133919.000,A,5130.2738,N,00000.2937,E,2.08,305.21,200416,,,A*66,51.5045661926,0.0048949999,13:39:19,20/4/2016,7,7,5.07,49,15.43,0,6
$GPRMC,133920.000,A,5130.2743,N,00000.2924,E,2.30,286.42,200416,,,A*66,51.5045738220,0.0048733000,13:39:20,20/4/2016,7,0,1.74,16,14.94,0,6
$GPRMC,133921.000,A,5130.2745,N,00000.2913,E,4.40,303.58,200416,,,A*63,51.5045738220,0.0048549995,13:39:21,20/4/2016,7,2,1.18,21,15.43,0,6
$GPRMC,133922.000,A,5130.2750,N,00000.2898,E,3.36,299.68,200416,,,A*61,51.5045814514,0.0048300004,13:39:22,20/4/2016,7,6,3.47,39,14.94,0,6
$GPRMC,133923.000,A,5130.2755,N,00000.2884,E,3.50,296.58,200416,,,A*64,51.5045890808,0.0048066000,13:39:23,20/4/2016,7,1,1.13,19,15.43,0,6
$GPRMC,133924.000,A,5130.2760,N,00000.2871,E,3.28,304.44,200416,,,A*67,51.5045967102,0.0047850008,13:39:24,20/4/2016,7,0,0.52,12,15.43,0,6
$GPRMC,133925.000,A,5130.2765,N,00000.2856,E,4.08,296.67,200416,,,A*68,51.5046043395,0.0047600002,13:39:25,20/4/2016,7,1,1.47,18,15.43,0,6
$GPRMC,133926.000,A,5130.2770,N,00000.2841,E,3.48,305.74,200416,,,A*63,51.5046157836,0.0047350001,13:39:26,20/4/2016,7,0,4.15,51,15.43,0,6
$GPRMC,133927.000,A,5130.2777,N,00000.2827,E,3.80,306.54,200416,,,A*60,51.5046310424,0.0047115998,13:39:27,20/4/2016,8,0,2.94,35,15.43,0,6
$GPRMC,133928.000,A,5130.2783,N,00000.2813,E,3.05,297.89,200416,,,A*67,51.5046386718,0.0046883001,13:39:28,20/4/2016,11,0,8.22,70,15.43,0,6
$GPRMC,133929.000,A,5130.2788,N,00000.2801,E,2.53,309.46,200416,,,A*69,51.5046463012,0.0046683006,13:39:29,20/4/2016,12,15,12.66,70,15.43,0,6
$GPRMC,133930.000,A,5130.2794,N,00000.2790,E,3.90,307.79,200416,,,A*67,51.5046539306,0.0046500000,13:39:30,20/4/2016,7,35,6.27,83,15.43,0,6
$GPRMC,133931.000,A,5130.2800,N,00000.2777,E,4.84,306.97,200416,,,A*6E,51.5046615600,0.0046283001,13:39:31,20/4/2016,7,0,3.42,47,15.43,0,6
$GPRMC,133932.000,A,5130.2806,N,00000.2763,E,3.63,305.73,200416,,,A*69,51.5046806335,0.0046050004,13:39:32,20/4/2016,7,1,2.83,62,15.43,0,6
$GPRMC,133933.000,A,5130.2812,N,00000.2751,E,2.87,304.44,200416,,,A*62,51.5046882629,0.0045850000,13:39:33,20/4/2016,8,0,0.42,9,15.43,0,6
$GPRMC,133934.000,A,5130.2816,N,00000.2739,E,3.32,304.54,200416,,,A*61,51.5046958923,0.0045650000,13:39:34,20/4/2016,7,0,6.74,61,15.43,0,6
$GPRMC,133935.000,A,5130.2821,N,00000.2726,E,2.54,296.21,200416,,,A*63,51.5047035217,0.0045433001,13:39:35,20/4/2016,7,0,13.54,130,15.43,0,6
$GPRMC,133936.000,A,5130.2825,N,00000.2714,E,3.84,305.18,200416,,,A*68,51.5047111511,0.0045233001,13:39:36,20/4/2016,7,2,2.23,20,15.43,0,6
$GPRMC,133937.000,A,5130.2830,N,00000.2702,E,4.05,307.39,200416,,,A*65,51.5047187805,0.0045033006,13:39:37,20/4/2016,7,6,17.87,113,15.43,0,6
$GPRMC,133938.000,A,5130.2837,N,00000.2685,E,1.54,274.76,200416,,,A*6C,51.5047264099,0.0044749999,13:39:38,20/4/2016,7,0,1.53,23,15.43,0,6
$GPRMC,133939.000,A,5130.2839,N,00000.2677,E,5.07,313.94,200416,,,A*60,51.5047264099,0.0044616007,13:39:39,20/4/2016,7,2,1.03,17,15.43,0,6
$GPRMC,133940.000,A,5130.2846,N,00000.2664,E,3.94,310.43,200416,,,A*61,51.5047454833,0.0044400005,13:39:40,20/4/2016,7,0,1.05,17,15.43,0,6
$GPRMC,133941.000,A,5130.2852,N,00000.2652,E,2.97,305.81,200416,,,A*68,51.5047531127,0.0044200000,13:39:41,20/4/2016,7,1,0.78,16,15.43,0,6
$GPRMC,133942.000,A,5130.2858,N,00000.2639,E,3.79,306.46,200416,,,A*65,51.5047607421,0.0043983006,13:39:42,20/4/2016,7,0,2.37,26,15.43,0,6
$GPRMC,133943.000,A,5130.2863,N,00000.2625,E,2.84,302.18,200416,,,A*6D,51.5047683715,0.0043750004,13:39:43,20/4/2016,7,0,2.26,41,15.43,0,6
$GPRMC,133944.000,A,5130.2869,N,00000.2613,E,3.46,310.42,200416,,,A*66,51.5047836303,0.0043550000,13:39:44,20/4/2016,7,1,0.51,12,15.43,0,6
$GPRMC,133945.000,A,5130.2875,N,00000.2600,E,3.60,306.90,200416,,,A*64,51.5047950744,0.0043333005,13:39:45,20/4/2016,7,6,5.88,61,15.43,0,6
$GPRMC,133946.000,A,5130.2881,N,00000.2585,E,2.63,293.83,200416,,,A*6F,51.5048027038,0.0043083000,13:39:46,20/4/2016,7,1,3.61,42,15.43,0,6
$GPRMC,133947.000,A,5130.2885,N,00000.2571,E,4.26,300.89,200416,,,A*67,51.5048103332,0.0042850003,13:39:47,20/4/2016,7,0,2.78,41,15.43,0,6
$GPRMC,133948.000,A,5130.2890,N,00000.2556,E,3.49,302.50,200416,,,A*61,51.5048179626,0.0042600002,13:39:48,20/4/2016,7,1,2.70,37,15.43,0,6
$GPRMC,133949.000,A,5130.2895,N,00000.2543,E,4.05,301.39,200416,,,A*62,51.5048255920,0.0042382998,13:39:49,20/4/2016,7,0,0.76,36,15.43,0,6
$GPRMC,133950.000,A,5130.2899,N,00000.2531,E,3.44,306.66,200416,,,A*6C,51.5048332214,0.0042183008,13:39:50,20/4/2016,7,0,2.89,30,15.43,0,6
$GPRMC,133951.000,A,5130.2905,N,00000.2518,E,3.16,304.15,200416,,,A*63,51.5048408508,0.0041965999,13:39:51,20/4/2016,7,0,0.57,17,15.43,0,6
$GPRMC,133952.000,A,5130.2910,N,00000.2506,E,3.51,304.75,200416,,,A*6E,51.5048484802,0.0041766004,13:39:52,20/4/2016,7,0,0.18,6,15.43,0,6
$GPRMC,133953.000,A,5130.2915,N,00000.2494,E,2.96,300.35,200416,,,A*6A,51.5048599243,0.0041565999,13:39:53,20/4/2016,7,0,0.65,13,15.43,0,6
$GPRMC,133954.000,A,5130.2918,N,00000.2482,E,3.01,292.17,200416,,,A*62,51.5048675537,0.0041366000,13:39:54,20/4/2016,6,0,2.27,43,15.43,0,6
$GPRMC,133955.000,A,5130.2921,N,00000.2469,E,3.19,294.65,200416,,,A*66,51.5048675537,0.0041150002,13:39:55,20/4/2016,7,2,0.74,15,15.43,0,6
$GPRMC,133956.000,A,5130.2925,N,00000.2456,E,3.48,288.44,200416,,,A*67,51.5048751831,0.0040932998,13:39:56,20/4/2016,7,0,0.95,17,15.43,0,6
$GPRMC,133957.000,A,5130.2927,N,00000.2441,E,3.81,281.00,200416,,,A*6E,51.5048751831,0.0040683002,13:39:57,20/4/2016,6,7,0.20,9,15.43,0,6
$GPRMC,133958.000,A,5130.2928,N,00000.2426,E,4.72,284.49,200416,,,A*6C,51.5048828125,0.0040433001,13:39:58,20/4/2016,6,2,2.46,27,15.43,0,6
$GPRMC,133959.000,A,5130.2930,N,00000.2410,E,3.43,282.78,200416,,,A*60,51.5048828125,0.0040166001,13:39:59,20/4/2016,6,6,2.83,42,15.43,0,6
$GPRMC,134000.000,A,5130.2932,N,00000.2395,E,3.28,279.56,200416,,,A*6F,51.5048828125,0.0039916002,13:40:0,20/4/2016,7,0,3.25,61,15.43,0,6
$GPRMC,134001.000,A,5130.2933,N,00000.2381,E,3.40,284.72,200416,,,A*60,51.5048904418,0.0039683003,13:40:1,20/4/2016,6,1,1.47,26,15.43,0,6
$GPRMC,134002.000,A,5130.2934,N,00000.2368,E,2.81,273.57,200416,,,A*60,51.5048904418,0.0039465999,13:40:2,20/4/2016,7,0,0.59,14,15.43,0,6
$GPRMC,134003.000,A,5130.2935,N,00000.2356,E,3.01,285.86,200416,,,A*61,51.5048904418,0.0039265995,13:40:3,20/4/2016,7,0,1.28,21,15.43,0,6
$GPRMC,134004.000,A,5130.2936,N,00000.2348,E,2.68,295.38,200416,,,A*60,51.5048904418,0.0039133000,13:40:4,20/4/2016,6,0,2.17,101,15.43,1,7
$GPRMC,134005.000,A,5130.2938,N,00000.2334,E,4.91,288.84,200416,,,A*6F,51.5048980712,0.0038899998,13:40:5,20/4/2016,6,0,0.41,21,15.43,1,8
$GPRMC,134006.000,A,5130.2941,N,00000.2316,E,2.31,254.91,200416,,,A*6B,51.5048980712,0.0038600001,13:40:6,20/4/2016,7,0,0.39,9,15.43,0,8
$GPRMC,134007.000,A,5130.2941,N,00000.2304,E,2.95,275.43,200416,,,A*6B,51.5048980712,0.0038400001,13:40:7,20/4/2016,6,0,0.04,5,15.43,0,8
$GPRMC,134008.000,A,5130.2943,N,00000.2290,E,3.68,286.19,200416,,,A*6A,51.5049057006,0.0038166000,13:40:8,20/4/2016,6,0,0.21,13,15.43,0,8
$GPRMC,134009.000,A,5130.2944,N,00000.2277,E,3.62,282.98,200416,,,A*62,51.5049057006,0.0037950003,13:40:9,20/4/2016,6,0,0.18,10,15.43,0,8
$GPRMC,134010.000,A,5130.2945,N,00000.2262,E,3.28,278.65,200416,,,A*66,51.5049057006,0.0037700004,13:40:10,20/4/2016,6,0,0.09,5,15.43,0,8
$GPRMC,134011.000,A,5130.2946,N,00000.2250,E,3.34,284.23,200416,,,A*69,51.5049057006,0.0037500000,13:40:11,20/4/2016,7,0,0.05,3,15.92,0,8
$GPRMC,134012.000,A,5130.2948,N,00000.2236,E,2.92,283.26,200416,,,A*6B,51.5049171447,0.0037266001,13:40:12,20/4/2016,7,4,0.77,17,15.92,0,8
$GPRMC,134013.000,A,5130.2949,N,00000.2224,E,2.89,286.07,200416,,,A*64,51.5049171447,0.0037066001,13:40:13,20/4/2016,7,0,0.11,8,15.92,0,8
$GPRMC,134014.000,A,5130.2950,N,00000.2211,E,3.10,284.42,200416,,,A*6F,51.5049171447,0.0036850001,13:40:14,20/4/2016,7,0,0.04,4,15.92,0,8
$GPRMC,134015.000,A,5130.2953,N,00000.2196,E,4.05,292.63,200416,,,A*66,51.5049247741,0.0036599998,13:40:15,20/4/2016,6,0,0.07,5,15.92,0,8
$GPRMC,134016.000,A,5130.2957,N,00000.2180,E,3.55,289.52,200416,,,A*6C,51.5049324035,0.0036333000,13:40:16,20/4/2016,6,0,0.08,5,15.92,0,8
$GPRMC,134017.000,A,5130.2959,N,00000.2164,E,3.73,280.97,200416,,,A*6D,51.5049324035,0.0036065998,13:40:17,20/4/2016,7,0,0.09,4,15.92,0,8
$GPRMC,134018.000,A,5130.2962,N,00000.2147,E,3.57,287.17,200416,,,A*62,51.5049400329,0.0035782999,13:40:18,20/4/2016,6,0,0.03,3,15.92,0,8
$GPRMC,134019.000,A,5130.2964,N,00000.2132,E,3.69,282.67,200416,,,A*68,51.5049400329,0.0035533003,13:40:19,20/4/2016,7,0,0.01,1,15.92,0,8
$GPRMC,134020.000,A,5130.2966,N,00000.2117,E,3.47,283.76,200416,,,A*6A,51.5049400329,0.0035283002,13:40:20,20/4/2016,7,0,0.08,4,15.92,0,8
$GPRMC,134021.000,A,5130.2968,N,00000.2104,E,3.17,291.28,200416,,,A*6A,51.5049476623,0.0035066003,13:40:21,20/4/2016,6,0,0.16,8,15.92,0,8
$GPRMC,134022.000,A,5130.2971,N,00000.2091,E,2.95,293.09,200416,,,A*66,51.5049476623,0.0034850001,13:40:22,20/4/2016,6,0,0.22,9,15.92,0,8
$GPRMC,134023.000,A,5130.2973,N,00000.2077,E,3.39,273.17,200416,,,A*6B,51.5049552917,0.0034615998,13:40:23,20/4/2016,6,1,0.06,5,15.92,0,8
$GPRMC,134024.000,A,5130.2972,N,00000.2064,E,4.34,278.97,200416,,,A*66,51.5049552917,0.0034400000,13:40:24,20/4/2016,6,0,0.16,22,15.92,1,9
$GPRMC,134025.000,A,5130.2973,N,00000.2049,E,1.40,257.66,200416,,,A*6C,51.5049552917,0.0034150002,13:40:25,20/4/2016,6,0,0.03,5,15.92,0,9
$GPRMC,134026.000,A,5130.2973,N,00000.2038,E,2.12,265.32,200416,,,A*6D,51.5049552917,0.0033966002,13:40:26,20/4/2016,6,0,0.03,4,15.92,0,9
$GPRMC,134027.000,A,5130.2976,N,00000.2024,E,2.59,281.40,200416,,,A*64,51.5049552917,0.0033732998,13:40:27,20/4/2016,6,0,0.07,5,16.41,0,9
$GPRMC,134028.000,A,5130.2977,N,00000.2007,E,3.10,277.70,200416,,,A*6D,51.5049629211,0.0033450002,13:40:28,20/4/2016,7,0,0.09,6,16.41,0,9
$GPRMC,134029.000,A,5130.2980,N,00000.1994,E,2.88,287.72,200416,,,A*69,51.5049629211,0.0033233001,13:40:29,20/4/2016,6,0,0.05,6,15.92,0,9
$GPRMC,134030.000,A,5130.2983,N,00000.1979,E,3.45,281.48,200416,,,A*6E,51.5049705505,0.0032983002,13:40:30,20/4/2016,7,0,0.03,2,16.41,0,9
$GPRMC,134031.000,A,5130.2984,N,00000.1964,E,3.70,279.26,200416,,,A*6D,51.5049705505,0.0032732999,13:40:31,20/4/2016,6,0,0.09,7,15.92,0,9
$GPRMC,134032.000,A,5130.2985,N,00000.1948,E,3.97,272.28,200416,,,A*6D,51.5049705505,0.0032466001,13:40:32,20/4/2016,6,0,0.47,36,16.41,0,9
$GPRMC,134033.000,A,5130.2984,N,00000.1933,E,3.13,262.32,200416,,,A*67,51.5049705505,0.0032216000,13:40:33,20/4/2016,6,0,0.17,9,15.92,0,9
$GPRMC,134034.000,A,5130.2983,N,00000.1921,E,2.99,269.63,200416,,,A*68,51.5049705505,0.0032016003,13:40:34,20/4/2016,7,0,0.04,2,15.92,0,9
$GPRMC,134035.000,A,5130.2982,N,00000.1909,E,3.12,265.85,200416,,,A*64,51.5049705505,0.0031816000,13:40:35,20/4/2016,7,0,0.06,4,16.41,0,9
$GPRMC,134036.000,A,5130.2981,N,00000.1897,E,3.32,266.00,200416,,,A*6E,51.5049705505,0.0031616001,13:40:36,20/4/2016,7,0,0.16,9,16.41,0,9
$GPRMC,134037.000,A,5130.2979,N,00000.1881,E,4.52,263.40,200416,,,A*6F,51.5049629211,0.0031350002,13:40:37,20/4/2016,7,0,0.38,21,16.41,2,11
$GPRMC,134038.000,A,5130.2978,N,00000.1865,E,3.62,265.38,200416,,,A*66,51.5049629211,0.0031082999,13:40:38,20/4/2016,7,0,0.60,18,16.41,0,11
$GPRMC,134039.000,A,5130.2979,N,00000.1851,E,1.68,259.10,200416,,,A*6C,51.5049629211,0.0030850000,13:40:39,20/4/2016,7,0,0.25,17,16.41,0,11
$GPRMC,134040.000,A,5130.2978,N,00000.1841,E,2.51,257.79,200416,,,A*6A,51.5049629211,0.0030683002,13:40:40,20/4/2016,7,1,0.92,16,15.92,0,11
$GPRMC,134041.000,A,5130.2976,N,00000.1828,E,2.22,252.98,200416,,,A*64,51.5049552917,0.0030465998,13:40:41,20/4/2016,6,6,2.00,47,15.92,0,11
$GPRMC,134042.000,A,5130.2974,N,00000.1819,E,2.68,249.91,200416,,,A*6A,51.5049552917,0.0030315999,13:40:42,20/4/2016,7,0,0.12,11,15.92,0,11
$GPRMC,134043.000,A,5130.2970,N,00000.1809,E,2.58,251.98,200416,,,A*6D,51.5049476623,0.0030150003,13:40:43,20/4/2016,7,0,0.01,2,16.41,0,11
$GPRMC,134044.000,A,5130.2968,N,00000.1797,E,3.48,269.80,200416,,,A*69,51.5049476623,0.0029949998,13:40:44,20/4/2016,7,0,0.05,3,16.41,0,11
$GPRMC,134045.000,A,5130.2966,N,00000.1788,E,2.43,246.68,200416,,,A*69,51.5049400329,0.0029800000,13:40:45,20/4/2016,7,0,0.05,6,16.41,0,11
$GPRMC,134046.000,A,5130.2963,N,00000.1780,E,2.71,263.41,200416,,,A*6A,51.5049400329,0.0029666004,13:40:46,20/4/2016,7,0,0.03,3,16.41,0,11
$GPRMC,134047.000,A,5130.2961,N,00000.1771,E,1.88,248.21,200416,,,A*6D,51.5049324035,0.0029516000,13:40:47,20/4/2016,7,0,0.24,11,16.41,0,11
$GPRMC,134048.000,A,5130.2960,N,00000.1759,E,2.75,255.94,200416,,,A*6A,51.5049324035,0.0029316000,13:40:48,20/4/2016,7,0,0.19,7,16.41,0,11
$GPRMC,134049.000,A,5130.2960,N,00000.1745,E,2.23,268.37,200416,,,A*62,51.5049324035,0.0029083002,13:40:49,20/4/2016,7,0,0.58,11,16.41,0,11
$GPRMC,134050.000,A,5130.2961,N,00000.1731,E,3.57,277.59,200416,,,A*6C,51.5049324035,0.0028850002,13:40:50,20/4/2016,7,0,0.01,1,16.41,0,11
$GPRMC,134051.000,A,5130.2961,N,00000.1715,E,3.47,266.99,200416,,,A*66,51.5049324035,0.0028583000,13:40:51,20/4/2016,7,2,0.13,8,16.41,0,11
$GPRMC,134052.000,A,5130.2961,N,00000.1698,E,3.85,274.15,200416,,,A*68,51.5049324035,0.0028300001,13:40:52,20/4/2016,7,0,0.41,13,16.41,0,11
$GPRMC,134053.000,A,5130.2961,N,00000.1683,E,2.83,265.02,200416,,,A*62,51.5049324035,0.0028049998,13:40:53,20/4/2016,7,0,0.04,4,16.41,0,11
$GPRMC,134054.000,A,5130.2961,N,00000.1669,E,3.32,260.29,200416,,,A*66,51.5049324035,0.0027815999,13:40:54,20/4/2016,7,0,0.01,2,16.41,0,11
$GPRMC,134055.000,A,5130.2959,N,00000.1654,E,3.38,254.70,200416,,,A*63,51.5049324035,0.0027566001,13:40:55,20/4/2016,7,0,0.01,3,16.41,0,11
$GPRMC,134056.000,A,5130.2957,N,00000.1635,E,3.85,259.58,200416,,,A*68,51.5049324035,0.0027250003,13:40:56,20/4/2016,7,0,0.01,2,16.41,0,11
$GPRMC,134057.000,A,5130.2957,N,00000.1617,E,3.95,274.28,200416,,,A*60,51.5049324035,0.0026950001,13:40:57,20/4/2016,6,0,0.62,14,16.41,0,11
$GPRMC,134058.000,A,5130.2955,N,00000.1602,E,4.38,261.86,200416,,,A*69,51.5049247741,0.0026700000,13:40:58,20/4/2016,6,0,0.03,2,16.41,0,11
$GPRMC,134059.000,A,5130.2952,N,00000.1583,E,4.90,262.98,200416,,,A*6B,51.5049247741,0.0026382999,13:40:59,20/4/2016,6,0,0.39,12,16.41,0,11
$GPRMC,134100.000,A,5130.2952,N,00000.1564,E,3.86,273.18,200416,,,A*67,51.5049247741,0.0026066002,13:41:0,20/4/2016,6,0,0.40,19,16.41,0,11
$GPRMC,134101.000,A,5130.2953,N,00000.1546,E,3.19,274.98,200416,,,A*6E,51.5049247741,0.0025766000,13:41:1,20/4/2016,6,1,0.04,5,16.41,0,11
$GPRMC,134102.000,A,5130.2953,N,00000.1531,E,3.01,266.54,200416,,,A*67,51.5049247741,0.0025515999,13:41:2,20/4/2016,6,0,0.03,3,16.41,0,11
$GPRMC,134103.000,A,5130.2951,N,00000.1519,E,2.98,253.22,200416,,,A*68,51.5049171447,0.0025315999,13:41:3,20/4/2016,6,0,2.73,45,16.41,0,11
$GPRMC,134104.000,A,5130.2950,N,00000.1504,E,3.49,262.80,200416,,,A*65,51.5049171447,0.0025065999,13:41:4,20/4/2016,6,0,0.04,3,16.41,0,11
$GPRMC,134105.000,A,5130.2949,N,00000.1489,E,3.22,264.05,200416,,,A*6E,51.5049171447,0.0024816000,13:41:5,20/4/2016,6,1,0.30,7,16.41,0,11
$GPRMC,134106.000,A,5130.2948,N,00000.1474,E,3.33,263.34,200416,,,A*6B,51.5049171447,0.0024566001,13:41:6,20/4/2016,6,0,0.07,4,16.41,0,11
$GPRMC,134107.000,A,5130.2946,N,00000.1460,E,3.06,258.12,200416,,,A*6B,51.5049057006,0.0024333000,13:41:7,20/4/2016,6,1,0.05,3,16.41,0,11
$GPRMC,134108.000,A,5130.2944,N,00000.1446,E,3.19,254.01,200416,,,A*62,51.5049057006,0.0024099998,13:41:8,20/4/2016,6,0,0.03,2,16.41,0,11
$GPRMC,134109.000,A,5130.2943,N,00000.1432,E,3.29,265.08,200416,,,A*6F,51.5049057006,0.0023866000,13:41:9,20/4/2016,6,0,0.03,4,16.89,0,11
$GPRMC,134110.000,A,5130.2943,N,00000.1419,E,3.13,261.92,200416,,,A*60,51.5049057006,0.0023650002,13:41:10,20/4/2016,6,0,0.06,4,16.89,0,11
$GPRMC,134111.000,A,5130.2941,N,00000.1408,E,3.04,254.15,200416,,,A*6C,51.5048980712,0.0023466002,13:41:11,20/4/2016,6,0,0.19,9,16.89,0,11
$GPRMC,134112.000,A,5130.2938,N,00000.1396,E,3.04,251.92,200416,,,A*6B,51.5048980712,0.0023266000,13:41:12,20/4/2016,6,0,0.05,3,16.89,0,11
$GPRMC,134113.000,A,5130.2936,N,00000.1385,E,2.58,248.48,200416,,,A*61,51.5048904418,0.0023083000,13:41:13,20/4/2016,7,0,0.03,2,16.89,0,11
$GPRMC,134114.000,A,5130.2934,N,00000.1376,E,2.38,246.43,200416,,,A*6B,51.5048904418,0.0022933001,13:41:14,20/4/2016,6,0,0.12,8,16.89,0,11
$GPRMC,134115.000,A,5130.2932,N,00000.1366,E,1.69,246.96,200416,,,A*62,51.5048828125,0.0022766001,13:41:15,20/4/2016,6,3,0.13,5,16.89,0,11
$GPRMC,134116.000,A,5130.2932,N,00000.1355,E,1.61,235.84,200416,,,A*6E,51.5048828125,0.0022583000,13:41:16,20/4/2016,6,0,0.45,10,16.89,0,11
$GPRMC,134117.000,A,5130.2928,N,00000.1348,E,2.40,222.16,200416,,,A*65,51.5048828125,0.0022466001,13:41:17,20/4/2016,6,0,0.14,9,16.89,0,11
$GPRMC,134118.000,A,5130.2924,N,00000.1337,E,3.32,238.34,200416,,,A*61,51.5048751831,0.0022283000,13:41:18,20/4/2016,6,0,0.13,6,16.89,0,11
$GPRMC,134119.000,A,5130.2919,N,00000.1326,E,3.11,235.61,200416,,,A*62,51.5048675537,0.0022100000,13:41:19,20/4/2016,6,0,0.15,6,16.89,0,11
$GPRMC,134120.000,A,5130.2913,N,00000.1317,E,3.38,229.85,200416,,,A*6C,51.5048599243,0.0021950004,13:41:20,20/4/2016,6,0,0.05,4,16.89,0,11
$GPRMC,134121.000,A,5130.2908,N,00000.1307,E,2.76,231.30,200416,,,A*6A,51.5048484802,0.0021783001,13:41:21,20/4/2016,6,0,0.07,4,16.89,0,11
$GPRMC,134122.000,A,5130.2903,N,00000.1298,E,2.68,218.19,200416,,,A*6A,51.5048408508,0.0021633000,13:41:22,20/4/2016,6,1,1.55,19,16.89,0,11
$GPRMC,134123.000,A,5130.2899,N,00000.1290,E,1.97,216.24,200416,,,A*62,51.5048332214,0.0021500000,13:41:23,20/4/2016,6,0,1.53,20,16.89,0,11
$GPRMC,134124.000,A,5130.2891,N,00000.1289,E,3.11,165.86,200416,,,A*66,51.5048179626,0.0021483001,13:41:24,20/4/2016,6,1,3.66,50,16.89,0,11
$GPRMC,134125.000,A,5130.2887,N,00000.1283,E,3.06,138.63,200416,,,A*6F,51.5048103332,0.0021383001,13:41:25,20/4/2016,6,14,8.28,77,16.89,0,11
$GPRMC,134126.000,A,5130.2880,N,00000.1277,E,2.56,167.53,200416,,,A*6D,51.5048027038,0.0021283001,13:41:26,20/4/2016,6,0,4.07,41,16.41,0,11
$GPRMC,134127.000,A,5130.2872,N,00000.1272,E,2.94,212.12,200416,,,A*6E,51.5047836303,0.0021200001,13:41:27,20/4/2016,6,0,0.34,7,16.41,0,11
$GPRMC,134128.000,A,5130.2864,N,00000.1265,E,3.36,222.38,200416,,,A*62,51.5047760009,0.0021082999,13:41:28,20/4/2016,6,0,1.80,30,16.41,0,11
$GPRMC,134129.000,A,5130.2857,N,00000.1258,E,2.93,205.30,200416,,,A*6E,51.5047607421,0.0020966000,13:41:29,20/4/2016,6,1,0.23,5,16.41,0,11
$GPRMC,134130.000,A,5130.2847,N,00000.1251,E,4.11,213.80,200416,,,A*6E,51.5047454833,0.0020850000,13:41:30,20/4/2016,6,0,0.86,21,16.41,0,11
$GPRMC,134131.000,A,5130.2840,N,00000.1243,E,2.96,217.09,200416,,,A*67,51.5047378540,0.0020715999,13:41:31,20/4/2016,6,0,0.69,19,16.41,0,11
$GPRMC,134132.000,A,5130.2832,N,00000.1235,E,2.42,222.76,200416,,,A*67,51.5047187805,0.0020583002,13:41:32,20/4/2016,6,1,8.91,85,15.92,0,11
$GPRMC,134133.000,A,5130.2826,N,00000.1228,E,2.68,226.21,200416,,,A*61,51.5047111511,0.0020466001,13:41:33,20/4/2016,6,0,0.07,5,15.92,0,11
$GPRMC,134134.000,A,5130.2820,N,00000.1217,E,2.70,228.70,200416,,,A*6F,51.5047035217,0.0020283002,13:41:34,20/4/2016,6,0,0.24,9,15.92,0,11
$GPRMC,134135.000,A,5130.2815,N,00000.1208,E,2.61,228.14,200416,,,A*64,51.5046958923,0.0020132999,13:41:35,20/4/2016,6,0,0.50,12,15.92,0,11
$GPRMC,134136.000,A,5130.2812,N,00000.1193,E,3.09,245.99,200416,,,A*60,51.5046882629,0.0019883001,13:41:36,20/4/2016,6,0,0.11,6,15.92,0,11
$GPRMC,134137.000,A,5130.2808,N,00000.1179,E,2.94,239.12,200416,,,A*63,51.5046806335,0.0019650000,13:41:37,20/4/2016,7,0,0.16,7,15.92,0,11
$GPRMC,134138.000,A,5130.2803,N,00000.1166,E,2.66,238.34,200416,,,A*61,51.5046730041,0.0019432998,13:41:38,20/4/2016,7,2,0.17,10,15.92,0,11
$GPRMC,134139.000,A,5130.2800,N,00000.1151,E,1.98,242.82,200416,,,A*65,51.5046615600,0.0019183002,13:41:39,20/4/2016,7,29,3.48,68,15.92,0,11
$GPRMC,134140.000,A,5130.2807,N,00000.1158,E,3.16,58.67,200416,,,A*53,51.5046806335,0.0019300001,13:41:40,20/4/2016,7,0,4.98,67,15.92,0,11
$GPRMC,134141.000,A,5130.2811,N,00000.1166,E,3.30,67.29,200416,,,A*5A,51.5046882629,0.0019432998,13:41:41,20/4/2016,7,0,9.63,100,15.92,0,11
$GPRMC,134142.000,A,5130.2813,N,00000.1173,E,1.76,44.47,200416,,,A*56,51.5046882629,0.0019549999,13:41:42,20/4/2016,7,0,4.53,58,15.92,0,11
$GPRMC,134143.000,A,5130.2814,N,00000.1173,E,0.78,59.02,200416,,,A*52,51.5046882629,0.0019549999,13:41:43,20/4/2016,7,11,0.40,14,15.92,0,11
$GPRMC,134144.000,A,5130.2814,N,00000.1174,E,0.53,84.71,200416,,,A*5F,51.5046882629,0.0019565999,13:41:44,20/4/2016,9,0,2.79,69,15.43,0,11
$GPRMC,134145.000,A,5130.2814,N,00000.1168,E,0.40,303.55,200416,,,A*6B,51.5046882629,0.0019465999,13:41:45,20/4/2016,9,0,0.08,5,15.43,0,11
$GPRMC,134146.000,A,5130.2815,N,00000.1165,E,0.25,339.55,200416,,,A*6E,51.5046958923,0.0019416000,13:41:46,20/4/2016,9,0,0.97,15,15.43,0,11
$GPRMC,134147.000,A,5130.2815,N,00000.1162,E,0.28,9.28,200416,,,A*6F,51.5046958923,0.0019365999,13:41:47,20/4/2016,8,3,1.09,66,15.43,0,11
$GPRMC,134148.000,A,5130.2816,N,00000.1162,E,0.37,323.65,200416,,,A*6F,51.5046958923,0.0019365999,13:41:48,20/4/2016,8,0,0.90,32,15.43,0,11
$GPRMC,134149.000,A,5130.2817,N,00000.1161,E,0.34,345.87,200416,,,A*63,51.5046958923,0.0019349999,13:41:49,20/4/2016,8,0,0.54,27,15.43,0,11
$GPRMC,134150.000,A,5130.2818,N,00000.1161,E,0.38,294.19,200416,,,A*62,51.5046958923,0.0019349999,13:41:50,20/4/2016,8,0,0.78,27,15.43,0,11
$GPRMC,134151.000,A,5130.2818,N,00000.1159,E,0.21,49.27,200416,,,A*5F,51.5046958923,0.0019316000,13:41:51,20/4/2016,8,0,0.02,2,15.92,0,11
$GPRMC,134152.000,A,5130.2818,N,00000.1160,E,0.18,14.44,200416,,,A*51,51.5046958923,0.0019333002,13:41:52,20/4/2016,8,0,8.18,142,15.43,0,11
$GPRMC,134153.000,A,5130.2819,N,00000.1160,E,0.19,265.46,200416,,,A*66,51.5046958923,0.0019333002,13:41:53,20/4/2016,7,2,0.51,12,15.43,0,11
$GPRMC,134154.000,A,5130.2819,N,00000.1159,E,0.74,247.91,200416,,,A*6A,51.5046958923,0.0019316000,13:41:54,20/4/2016,7,0,1.32,40,15.43,0,11
$GPRMC,134155.000,A,5130.2814,N,00000.1149,E,1.35,238.11,200416,,,A*63,51.5046882629,0.0019150000,13:41:55,20/4/2016,7,0,0.13,6,15.43,0,11
$GPRMC,134156.000,A,5130.2809,N,00000.1138,E,1.81,242.88,200416,,,A*68,51.5046806335,0.0018966001,13:41:56,20/4/2016,7,0,0.04,5,15.43,0,11
$GPRMC,134157.000,A,5130.2801,N,00000.1125,E,2.45,239.07,200416,,,A*6D,51.5046730041,0.0018750000,13:41:57,20/4/2016,7,0,0.01,3,15.92,0,11
$GPRMC,134158.000,A,5130.2796,N,00000.1112,E,2.73,244.02,200416,,,A*6D,51.5046615600,0.0018533000,13:41:58,20/4/2016,7,0,0.19,7,15.92,0,11
$GPRMC,134159.000,A,5130.2791,N,00000.1099,E,2.80,244.75,200416,,,A*65,51.5046539306,0.0018316000,13:41:59,20/4/2016,7,3,0.90,25,15.92,0,11
$GPRMC,134200.000,A,5130.2786,N,00000.1086,E,2.76,241.59,200416,,,A*60,51.5046463012,0.0018100000,13:42:0,20/4/2016,7,0,0.17,7,15.92,0,11
$GPRMC,134201.000,A,5130.2783,N,00000.1068,E,2.98,248.64,200416,,,A*63,51.5046386718,0.0017799999,13:42:1,20/4/2016,7,0,0.06,5,15.92,0,11
$GPRMC,134202.000,A,5130.2780,N,00000.1052,E,3.16,249.82,200416,,,A*64,51.5046310424,0.0017533001,13:42:2,20/4/2016,7,0,0.22,8,15.92,0,11
$GPRMC,134203.000,A,5130.2777,N,00000.1037,E,3.14,251.92,200416,,,A*64,51.5046310424,0.0017282999,13:42:3,20/4/2016,8,0,0.16,8,15.92,0,11
$GPRMC,134204.000,A,5130.2774,N,00000.1020,E,3.51,258.84,200416,,,A*69,51.5046234130,0.0017000001,13:42:4,20/4/2016,7,0,0.22,11,15.92,0,11
$GPRMC,134205.000,A,5130.2771,N,00000.1005,E,3.81,251.87,200416,,,A*6D,51.5046234130,0.0016750000,13:42:5,20/4/2016,8,0,0.05,3,15.92,0,11
$GPRMC,134206.000,A,5130.2768,N,00000.0991,E,2.36,253.96,200416,,,A*6C,51.5046157836,0.0016515999,13:42:6,20/4/2016,8,0,0.20,9,15.92,0,11
$GPRMC,134207.000,A,5130.2765,N,00000.0977,E,3.71,258.61,200416,,,A*69,51.5046043395,0.0016282999,13:42:7,20/4/2016,8,0,0.20,9,15.92,0,11
$GPRMC,134208.000,A,5130.2762,N,00000.0963,E,3.41,251.28,200416,,,A*63,51.5046043395,0.0016050002,13:42:8,20/4/2016,8,5,0.94,22,15.92,0,11
$GPRMC,134209.000,A,5130.2758,N,00000.0950,E,2.27,245.44,200416,,,A*65,51.5045967102,0.0015833002,13:42:9,20/4/2016,8,0,2.51,42,16.41,0,11
$GPRMC,134210.000,A,5130.2754,N,00000.0939,E,1.99,231.78,200416,,,A*64,51.5045890808,0.0015650000,13:42:10,20/4/2016,8,0,14.79,295,15.92,0,11
$GPRMC,134211.000,A,5130.2748,N,00000.0930,E,1.96,209.49,200416,,,A*67,51.5045814514,0.0015499999,13:42:11,20/4/2016,8,0,0.08,6,15.92,0,11
$GPRMC,134212.000,A,5130.2743,N,00000.0920,E,2.47,232.42,200416,,,A*62,51.5045738220,0.0015332999,13:42:12,20/4/2016,8,4,28.08,307,15.92,0,11
$GPRMC,134213.000,A,5130.2740,N,00000.0904,E,1.98,225.73,200416,,,A*63,51.5045661926,0.0015066001,13:42:13,20/4/2016,7,39,28.25,197,15.92,0,11
$GPRMC,134214.000,A,5130.2737,N,00000.0895,E,1.88,234.73,200416,,,A*6C,51.5045661926,0.0014916001,13:42:14,20/4/2016,8,2,9.14,84,15.92,0,11
$GPRMC,134215.000,A,5130.2732,N,00000.0886,E,2.86,241.76,200416,,,A*60,51.5045585632,0.0014766000,13:42:15,20/4/2016,7,4,1.47,60,15.92,0,11
$GPRMC,134216.000,A,5130.2728,N,00000.0870,E,3.73,254.87,200416,,,A*60,51.5045509338,0.0014500000,13:42:16,20/4/2016,7,0,12.48,100,15.92,0,11
$GPRMC,134217.000,A,5130.2723,N,00000.0857,E,4.04,245.82,200416,,,A*6D,51.5045394897,0.0014282999,13:42:17,20/4/2016,7,8,10.26,78,15.43,0,11
$GPRMC,134218.000,A,5130.2716,N,00000.0841,E,3.15,224.87,200416,,,A*66,51.5045242309,0.0014015998,13:42:18,20/4/2016,7,4,2.60,22,15.43,0,11
$GPRMC,134219.000,A,5130.2712,N,00000.0832,E,2.20,231.71,200416,,,A*6D,51.5045166015,0.0013866000,13:42:19,20/4/2016,7,1,2.59,23,15.43,0,11
$GPRMC,134220.000,A,5130.2705,N,00000.0825,E,2.32,196.28,200416,,,A*66,51.5045089721,0.0013750000,13:42:20,20/4/2016,7,1,1.11,17,15.43,0,11
$GPRMC,134221.000,A,5130.2700,N,00000.0822,E,1.46,233.64,200416,,,A*61,51.5045013427,0.0013700001,13:42:20,20/4/2016,7,55,8.07,103,15.43,0,11
$GPRMC,134222.000,A,5130.2696,N,00000.0817,E,1.49,205.79,200416,,,A*6C,51.5044937133,0.0013616000,13:42:22,20/4/2016,7,1,3.89,66,15.43,0,11
$GPRMC,134223.000,A,5130.2691,N,00000.0807,E,2.38,223.14,200416,,,A*61,51.5044822692,0.0013450000,13:42:23,20/4/2016,7,0,1.24,21,15.43,0,11
$GPRMC,134224.000,A,5130.2687,N,00000.0796,E,3.30,250.94,200416,,,A*63,51.5044746398,0.0013266000,13:42:24,20/4/2016,7,0,0.38,7,15.43,0,11
$GPRMC,134225.000,A,5130.2684,N,00000.0779,E,3.97,252.20,200416,,,A*60,51.5044746398,0.0012983000,13:42:24,20/4/2016,7,2,0.60,11,15.43,0,11
$GPRMC,134226.000,A,5130.2680,N,00000.0762,E,3.93,250.69,200416,,,A*66,51.5044670104,0.0012699999,13:42:26,20/4/2016,7,0,0.25,6,15.43,0,11
$GPRMC,134227.000,A,5130.2678,N,00000.0744,E,3.75,255.80,200416,,,A*6E,51.5044593811,0.0012400000,13:42:27,20/4/2016,8,0,0.44,7,15.43,0,11
$GPRMC,134228.000,A,5130.2675,N,00000.0727,E,3.83,251.70,200416,,,A*6B,51.5044593811,0.0012116000,13:42:28,20/4/2016,8,2,0.26,9,15.92,0,11
$GPRMC,134229.000,A,5130.2671,N,00000.0712,E,4.30,249.19,200416,,,A*61,51.5044517517,0.0011865999,13:42:28,20/4/2016,8,0,1.07,14,15.43,0,11
$GPRMC,134230.000,A,5130.2667,N,00000.0697,E,3.51,246.23,200416,,,A*64,51.5044441223,0.0011615999,13:42:30,20/4/2016,8,0,1.53,17,15.92,0,11
$GPRMC,134231.000,A,5130.2661,N,00000.0682,E,4.48,238.58,200416,,,D*68,51.5044364929,0.0011366001,13:42:31,20/4/2016,8,0,1.13,13,15.92,0,11
$GPRMC,134232.000,A,5130.2658,N,00000.0668,E,2.87,249.08,200416,,,D*63,51.5044288635,0.0011133000,13:42:32,20/4/2016,8,0,0.81,13,15.92,0,11
$GPRMC,134233.000,A,5130.2654,N,00000.0658,E,3.18,240.07,200416,,,D*6C,51.5044288635,0.0010966001,13:42:32,20/4/2016,7,0,0.60,11,15.92,0,11
$GPRMC,134234.000,A,5130.2651,N,00000.0643,E,3.15,248.09,200416,,,D*6F,51.5044174194,0.0010715999,13:42:34,20/4/2016,8,3,1.67,19,15.92,0,11
$GPRMC,134235.000,A,5130.2645,N,00000.0624,E,3.19,239.04,200416,,,D*6D,51.5044097900,0.0010399999,13:42:35,20/4/2016,7,3,1.68,17,15.92,0,11
$GPRMC,134236.000,A,5130.2641,N,00000.0610,E,3.35,244.40,200416,,,D*69,51.5044021606,0.0010166000,13:42:36,20/4/2016,8,6,2.19,16,15.92,0,11
$GPRMC,134237.000,A,5130.2635,N,00000.0599,E,3.18,227.58,200416,,,D*6A,51.5043945312,0.0009982999,13:42:36,20/4/2016,7,1,1.65,19,15.92,0,11
$GPRMC,134238.000,A,5130.2630,N,00000.0589,E,3.11,231.69,200416,,,D*6D,51.5043869018,0.0009815999,13:42:38,20/4/2016,8,0,0.93,13,15.92,0,11
$GPRMC,134239.000,A,5130.2625,N,00000.0580,E,2.51,213.18,200416,,,D*62,51.5043792724,0.0009666000,13:42:39,20/4/2016,7,0,0.42,8,15.92,0,11
$GPRMC,134240.000,A,5130.2620,N,00000.0571,E,2.59,226.82,200416,,,D*6A,51.5043716430,0.0009516000,13:42:40,20/4/2016,8,0,0.55,14,15.92,0,11
$GPRMC,134241.000,A,5130.2615,N,00000.0562,E,2.52,211.13,200416,,,D*68,51.5043601989,0.0009366001,13:42:40,20/4/2016,8,0,1.12,19,15.92,0,11
$GPRMC,134242.000,A,5130.2611,N,00000.0552,E,1.69,228.29,200416,,,D*64,51.5043525695,0.0009200000,13:42:42,20/4/2016,8,0,2.07,29,15.92,0,11
$GPRMC,134243.000,A,5130.2608,N,00000.0541,E,2.22,232.37,200416,,,D*67,51.5043449401,0.0009016000,13:42:43,20/4/2016,8,0,1.01,13,15.92,0,11
$GPRMC,134244.000,A,5130.2602,N,00000.0532,E,2.93,216.68,200416,,,D*68,51.5043373107,0.0008866001,13:42:44,20/4/2016,10,5,0.93,14,15.43,0,11
$GPRMC,134245.000,A,5130.2597,N,00000.0521,E,2.48,222.70,200416,,,D*6C,51.5043296813,0.0008683000,13:42:44,20/4/2016,17,0,3.39,28,15.43,0,11
$GPRMC,134246.000,A,5130.2591,N,00000.0509,E,3.10,229.72,200416,,,D*66,51.5043220520,0.0008482999,13:42:46,20/4/2016,17,0,3.70,32,15.43,0,11
$GPRMC,134247.000,A,5130.2586,N,00000.0499,E,2.33,228.80,200416,,,D*65,51.5043144226,0.0008316000,13:42:47,20/4/2016,17,6,1.99,26,15.43,0,11
$GPRMC,134248.000,A,5130.2581,N,00000.0488,E,2.40,222.31,200416,,,D*69,51.5043067932,0.0008133000,13:42:48,20/4/2016,18,21,6.78,34,15.43,0,11
$GPRMC,134249.000,A,5130.2575,N,00000.0479,E,2.46,218.29,200416,,,D*6B,51.5042877197,0.0007983000,13:42:48,20/4/2016,18,11,7.73,42,15.43,0,11
$GPRMC,134250.000,A,5130.2571,N,00000.0472,E,1.69,190.59,200416,,,D*66,51.5042877197,0.0007866001,13:42:50,20/4/2016,20,2,2.35,42,15.43,0,11
$GPRMC,134251.000,A,5130.2568,N,00000.0466,E,1.10,188.37,200416,,,D*65,51.5042800903,0.0007766001,13:42:51,20/4/2016,19,8,3.90,32,15.43,0,11
$GPRMC,134252.000,A,5130.2567,N,00000.0460,E,1.03,241.07,200416,,,D*68,51.5042800903,0.0007666000,13:42:52,20/4/2016,20,4,2.82,28,14.94,0,11
$GPRMC,134253.000,A,5130.2569,N,00000.0446,E,1.50,287.30,200416,,,D*6B,51.5042800903,0.0007433000,13:42:52,20/4/2016,20,21,9.44,46,14.94,0,11
$GPRMC,134254.000,A,5130.2567,N,00000.0437,E,1.27,271.22,200416,,,D*6E,51.5042800903,0.0007283000,13:42:54,20/4/2016,20,5,3.91,23,15.43,0,11
$GPRMC,134255.000,A,5130.2565,N,00000.0427,E,1.38,249.49,200416,,,D*64,51.5042724609,0.0007116001,13:42:55,20/4/2016,20,2,3.50,21,14.94,0,11
$GPRMC,134256.000,A,5130.2564,N,00000.0416,E,2.30,272.62,200416,,,D*6E,51.5042724609,0.0006933000,13:42:56,20/4/2016,19,4,3.56,21,14.94,0,11
$GPRMC,134257.000,A,5130.2564,N,00000.0401,E,2.98,278.42,200416,,,D*63,51.5042724609,0.0006683001,13:42:56,20/4/2016,19,2,3.84,24,14.94,0,11
$GPRMC,134258.000,A,5130.2564,N,00000.0385,E,2.37,280.70,200416,,,D*64,51.5042724609,0.0006416001,13:42:58,20/4/2016,19,3,5.12,26,14.94,0,11
$GPRMC,134259.000,A,5130.2565,N,00000.0372,E,2.47,282.23,200416,,,D*6F,51.5042724609,0.0006200000,13:42:59,20/4/2016,18,13,3.66,26,14.94,0,11
$GPRMC,134300.000,A,5130.2566,N,00000.0356,E,2.63,274.65,200416,,,D*6A,51.5042800903,0.0005933001,13:43:0,20/4/2016,17,11,4.58,57,14.94,0,11
$GPRMC,134301.000,A,5130.2567,N,00000.0341,E,2.20,268.17,200416,,,D*63,51.5042800903,0.0005683001,13:43:0,20/4/2016,14,0,2.46,48,14.94,0,11
$GPRMC,134302.000,A,5130.2567,N,00000.0327,E,1.94,269.26,200416,,,D*6F,51.5042800903,0.0005450000,13:43:2,20/4/2016,7,0,0.48,10,14.94,0,11
$GPRMC,134303.000,A,5130.2570,N,00000.0310,E,3.22,291.49,200416,,,D*6D,51.5042800903,0.0005166000,13:43:3,20/4/2016,7,0,0.45,11,14.94,0,11
$GPRMC,134304.000,A,5130.2571,N,00000.0295,E,2.77,273.44,200416,,,D*67,51.5042877197,0.0004916000,13:43:4,20/4/2016,7,0,0.68,18,14.94,0,11
$GPRMC,134305.000,A,5130.2571,N,00000.0279,E,3.50,267.62,200416,,,D*61,51.5042877197,0.0004650001,13:43:4,20/4/2016,8,0,0.54,8,14.94,0,11
$GPRMC,134306.000,A,5130.2570,N,00000.0261,E,4.28,263.83,200416,,,D*69,51.5042800903,0.0004350000,13:43:6,20/4/2016,7,0,1.02,11,14.94,0,11
$GPRMC,134307.000,A,5130.2571,N,00000.0242,E,2.92,269.59,200416,,,D*62,51.5042877197,0.0004033000,13:43:7,20/4/2016,7,0,2.26,34,14.94,0,11
$GPRMC,134308.000,A,5130.2571,N,00000.0206,E,2.50,261.18,200416,,,D*6E,51.5042877197,0.0003433000,13:43:8,20/4/2016,7,0,0.12,5,14.94,0,11
$GPRMC,134309.000,A,5130.2569,N,00000.0195,E,1.37,232.58,200416,,,D*6F,51.5042800903,0.0003250000,13:43:8,20/4/2016,7,0,5.81,58,14.45,0,11
$GPRMC,134310.000,A,5130.2565,N,00000.0195,E,1.34,194.45,200416,,,D*6B,51.5042724609,0.0003250000,13:43:10,20/4/2016,7,4,10.67,55,14.45,0,11
$GPRMC,134311.000,A,5130.2559,N,00000.0192,E,1.59,193.30,200416,,,D*6C,51.5042648315,0.0003200000,13:43:11,20/4/2016,7,0,9.57,71,14.45,0,11
$GPRMC,134312.000,A,5130.2555,N,00000.0172,E,1.68,205.65,200416,,,D*63,51.5042572021,0.0002866000,13:43:12,20/4/2016,7,24,16.81,126,13.96,0,11
$GPRMC,134313.000,A,5130.2546,N,00000.0144,E,1.96,195.10,200416,,,D*6C,51.5042381286,0.0002400000,13:43:12,20/4/2016,7,1,2.26,34,14.45,0,11
$GPRMC,134314.000,A,5130.2538,N,00000.0129,E,2.19,194.04,200416,,,D*69,51.5042304992,0.0002150000,13:43:14,20/4/2016,7,5,9.70,66,14.45,0,11
