
$GPGGA,235945.800,,,,,0,00,,,M,,M,,*7C,0.0000000000,0.0000000000,23:59:45,0/0/200,0,0
$GPRMC,235945.800,V,,,,,0.00,0.00,050180,,,N*45,0.0000000000,0.0000000000,23:59:45,5/1/2080,0,0
$GPGGA,235946.799,,,,,0,00,,,M,,M,,*70,0.0000000000,0.0000000000,23:59:46,5/1/2080,0,0
$GPRMC,235946.799,V,,,,,0.00,0.00,050180,,,N*49,0.0000000000,0.0000000000,23:59:46,5/1/2080,0,0
$GPGGA,235947.799,,,,,0,00,,,M,,M,,*71,0.0000000000,0.0000000000,23:59:47,5/1/2080,0,0
$GPRMC,235947.799,V,,,,,0.00,0.00,050180,,,N*48,0.0000000000,0.0000000000,23:59:47,5/1/2080,0,0
$GPGGA,235948.799,,,,,0,00,,,M,,M,,*7E,0.0000000000,0.0000000000,23:59:48,5/1/2080,0,0
$GPRMC,235948.799,V,,,,,0.00,0.00,050180,,,N*47,0.0000000000,0.0000000000,23:59:48,5/1/2080,0,0
$GPGGA,235949.799,,,,,0,00,,,M,,M,,*7F,0.0000000000,0.0000000000,23:59:49,5/1/2080,0,0
$GPRMC,235949.799,V,,,,,0.00,0.00,050180,,,N*46,0.0000000000,0.0000000000,23:59:49,5/1/2080,0,0
$GPGGA,235950.799,,,,,0,00,,,M,,M,,*77,0.0000000000,0.0000000000,23:59:50,5/1/2080,0,0
$GPRMC,235950.799,V,,,,,0.00,0.00,050180,,,N*4E,0.0000000000,0.0000000000,23:59:50,5/1/2080,0,0
$GPGGA,235951.799,,,,,0,00,,,M,,M,,*76,0.0000000000,0.0000000000,23:59:51,5/1/2080,0,0
$GPRMC,235951.799,V,,,,,0.00,0.00,050180,,,N*4F,0.0000000000,0.0000000000,23:59:51,5/1/2080,0,0
$GPGGA,235952.800,,,,,0,00,,,M,,M,,*7A,0.0000000000,0.0000000000,23:59:52,5/1/2080,0,0
$GPRMC,235952.800,V,,,,,0.00,0.00,050180,,,N*43,0.0000000000,0.0000000000,23:59:52,5/1/2080,0,0
$GPGGA,235953.800,,,,,0,00,,,M,,M,,*7B,0.0000000000,0.0000000000,23:59:53,5/1/2080,0,0
$GPRMC,235953.800,V,,,,,0.00,0.00,050180,,,N*42,0.0000000000,0.0000000000,23:59:53,5/1/2080,0,0
$GPGGA,235954.800,,,,,0,00,,,M,,M,,*7C,0.0000000000,0.0000000000,23:59:54,5/1/2080,0,0
$GPRMC,235954.800,V,,,,,0.00,0.00,050180,,,N*45,0.0000000000,0.0000000000,23:59:54,5/1/2080,0,0
$GPGGA,235955.800,,,,,0,00,,,M,,M,,*7D,0.0000000000,0.0000000000,23:59:55,5/1/2080,0,0
$GPRMC,235955.800,V,,,,,0.00,0.00,050180,,,N*44,0.0000000000,0.0000000000,23:59:55,5/1/2080,0,0
$GPGGA,235956.800,,,,,0,00,,,M,,M,,*7E,0.0000000000,0.0000000000,23:59:56,5/1/2080,0,0
$GPRMC,235956.800,V,,,,,0.00,0.00,050180,,,N*47,0.0000000000,0.0000000000,23:59:56,5/1/2080,0,0
$GPGGA,235957.800,,,,,0,00,,,M,,M,,*7F,0.0000000000,0.0000000000,23:59:57,5/1/2080,0,0
$GPRMC,235957.800,V,,,,,0.00,0.00,050180,,,N*46,0.0000000000,0.0000000000,23:59:57,5/1/2080,0,0
$GPGGA,235958.800,,,,,0,00,,,M,,M,,*70,0.0000000000,0.0000000000,23:59:58,5/1/2080,0,0
$GPRMC,235958.800,V,,,,,0.00,0.00,050180,,,N*49,0.0000000000,0.0000000000,23:59:58,5/1/2080,0,0
$GPGGA,235959.800,,,,,0,00,,,M,,M,,*71,0.0000000000,0.0000000000,23:59:59,5/1/2080,0,0
$GPRMC,235959.800,V,,,,,0.00,0.00,050180,,,N*48,0.0000000000,0.0000000000,23:59:59,5/1/2080,0,0
$GPGGA,000000.800,,,,,0,00,,,M,,M,,*70,0.0000000000,0.0000000000,0:0:0,5/1/2080,0,0
$GPRMC,000000.800,V,,,,,0.00,0.00,060180,,,N*4A,0.0000000000,0.0000000000,0:0:0,6/1/2080,0,0
$GPGGA,000001.800,,,,,0,00,,,M,,M,,*71,0.0000000000,0.0000000000,0:0:1,6/1/2080,0,0
$GPRMC,000001.800,V,,,,,0.00,0.00,060180,,,N*4B,0.0000000000,0.0000000000,0:0:1,6/1/2080,0,0
$GPGGA,000002.800,,,,,0,00,,,M,,M,,*72,0.0000000000,0.0000000000,0:0:2,6/1/2080,0,0
$GPRMC,000002.800,V,,,,,0.00,0.00,060180,,,N*48,0.0000000000,0.0000000000,0:0:2,6/1/2080,0,0
$GPGGA,000003.800,,,,,0,00,,,M,,M,,*73,0.0000000000,0.0000000000,0:0:3,6/1/2080,0,0
$GPRMC,000003.800,V,,,,,0.00,0.00,060180,,,N*49,0.0000000000,0.0000000000,0:0:3,6/1/2080,0,0
$GPGGA,000004.800,,,,,0,00,,,M,,M,,*74,0.0000000000,0.0000000000,0:0:4,6/1/2080,0,0
$GPRMC,000004.800,V,,,,,0.00,0.00,060180,,,N*4E,0.0000000000,0.0000000000,0:0:4,6/1/2080,0,0
$GPGGA,000005.800,,,,,0,00,,,M,,M,,*75,0.0000000000,0.0000000000,0:0:5,6/1/2080,0,0
$GPRMC,000005.800,V,,,,,0.00,0.00,060180,,,N*4F,0.0000000000,0.0000000000,0:0:5,6/1/2080,0,0
$GPGGA,000006.800,,,,,0,00,,,M,,M,,*76,0.0000000000,0.0000000000,0:0:6,6/1/2080,0,0
$GPRMC,000006.800,V,,,,,0.00,0.00,060180,,,N*4C,0.0000000000,0.0000000000,0:0:6,6/1/2080,0,0
$GPGGA,000007.800,,,,,0,00,,,M,,M,,*77,0.0000000000,0.0000000000,0:0:7,6/1/2080,0,0
$GPRMC,000007.800,V,,,,,0.00,0.00,060180,,,N*4D,0.0000000000,0.0000000000,0:0:7,6/1/2080,0,0
$GPGGA,000008.228,,,,,0,00,,,M,,M,,*78,0.0000000000,0.0000000000,0:0:8,6/1/2080,0,0
$GPRMC,000008.228,V,,,,,0.00,0.00,060180,,,N*42,0.0000000000,0.0000000000,0:0:8,6/1/2080,0,0
$GPGGA,000009.228,,,,,0,00,,,M,,M,,*79,0.0000000000,0.0000000000,0:0:9,6/1/2080,0,0
$GPRMC,000009.228,V,,,,,0.00,0.00,060180,,,N*43,0.0000000000,0.0000000000,0:0:9,6/1/2080,0,0
$GPGGA,124728.086,,,,,0,00,,,M,,M,,*7C,0.0000000000,0.0000000000,12:47:28,6/1/2080,0,0
$GPRMC,124728.086,V,,,,,0.00,0.00,090180,,,N*49,0.0000000000,0.0000000000,12:47:28,9/1/2080,0,0
$GPGGA,124729.086,,,,,0,00,,,M,,M,,*7D,0.0000000000,0.0000000000,12:47:29,9/1/2080,0,0
$GPRMC,124729.086,V,,,,,0.00,0.00,090180,,,N*48,0.0000000000,0.0000000000,12:47:29,9/1/2080,0,0
$GPGGA,124730.086,,,,,0,00,,,M,,M,,*75,0.0000000000,0.0000000000,12:47:30,9/1/2080,0,0
$GPRMC,124730.086,V,,,,,0.00,0.00,090180,,,N*40,0.0000000000,0.0000000000,12:47:30,9/1/2080,0,0
$GPGGA,124731.086,,,,,0,00,,,M,,M,,*74,0.0000000000,0.0000000000,12:47:31,9/1/2080,0,0
$GPRMC,124731.086,V,,,,,0.00,0.00,090180,,,N*41,0.0000000000,0.0000000000,12:47:31,9/1/2080,0,0
$GPGGA,124732.086,,,,,0,00,,,M,,M,,*77,0.0000000000,0.0000000000,12:47:32,9/1/2080,0,0
$GPRMC,124732.086,V,,,,,0.00,0.00,090180,,,N*42,0.0000000000,0.0000000000,12:47:32,9/1/2080,0,0
$GPGGA,124733.086,,,,,0,00,,,M,,M,,*76,0.0000000000,0.0000000000,12:47:33,9/1/2080,0,0
$GPRMC,124733.086,V,,,,,0.00,0.00,090180,,,N*43,0.0000000000,0.0000000000,12:47:33,9/1/2080,0,0
$GPGGA,124734.086,,,,,0,00,,,M,,M,,*71,0.0000000000,0.0000000000,12:47:34,9/1/2080,0,0
$GPRMC,124734.086,V,,,,,0.00,0.00,090180,,,N*44,0.0000000000,0.0000000000,12:47:34,9/1/2080,0,0
$GPGGA,124735.086,,,,,0,00,,,M,,M,,*70,0.0000000000,0.0000000000,12:47:35,9/1/2080,0,0
$GPRMC,124735.086,V,,,,,0.00,0.00,090180,,,N*45,0.0000000000,0.0000000000,12:47:35,9/1/2080,0,0
$GPGGA,124736.086,,,,,0,00,,,M,,M,,*73,0.0000000000,0.0000000000,12:47:36,9/1/2080,0,0
$GPRMC,124736.086,V,,,,,0.00,0.00,090180,,,N*46,0.0000000000,0.0000000000,12:47:36,9/1/2080,0,0
$GPGGA,124737.086,,,,,0,00,,,M,,M,,*72,0.0000000000,0.0000000000,12:47:37,9/1/2080,0,0
$GPRMC,124737.086,V,,,,,0.00,0.00,090180,,,N*47,0.0000000000,0.0000000000,12:47:37,9/1/2080,0,0
$GPGGA,124738.086,,,,,0,00,,,M,,M,,*7D,0.0000000000,0.0000000000,12:47:38,9/1/2080,0,0
$GPRMC,124738.086,V,,,,,0.00,0.00,090180,,,N*48,0.0000000000,0.0000000000,12:47:38,9/1/2080,0,0
$GPGGA,124739.086,,,,,0,00,,,M,,M,,*7C,0.0000000000,0.0000000000,12:47:39,9/1/2080,0,0
$GPRMC,124739.086,V,,,,,0.00,0.00,090180,,,N*49,0.0000000000,0.0000000000,12:47:39,9/1/2080,0,0
$GPGGA,124740.086,,,,,0,00,,,M,,M,,*72,0.0000000000,0.0000000000,12:47:40,9/1/2080,0,0
$GPRMC,124740.086,V,,,,,0.00,0.00,090180,,,N*47,0.0000000000,0.0000000000,12:47:40,9/1/2080,0,0
$GPGGA,124741.086,,,,,0,00,,,M,,M,,*73,0.0000000000,0.0000000000,12:47:41,9/1/2080,0,0
$GPRMC,124741.086,V,,,,,0.00,0.00,090180,,,N*46,0.0000000000,0.0000000000,12:47:41,9/1/2080,0,0
$GPGGA,124742.086,,,,,0,00,,,M,,M,,*70,0.0000000000,0.0000000000,12:47:42,9/1/2080,0,0
$GPRMC,124742.086,V,,,,,0.00,0.00,090180,,,N*45,0.0000000000,0.0000000000,12:47:42,9/1/2080,0,0
$GPGGA,124743.086,,,,,0,00,,,M,,M,,*71,0.0000000000,0.0000000000,12:47:43,9/1/2080,0,0
$GPRMC,124743.086,V,,,,,0.00,0.00,090180,,,N*44,0.0000000000,0.0000000000,12:47:43,9/1/2080,0,0
$GPGGA,124744.086,,,,,0,00,,,M,,M,,*76,0.0000000000,0.0000000000,12:47:44,9/1/2080,0,0
$GPRMC,124744.086,V,,,,,0.00,0.00,090180,,,N*43,0.0000000000,0.0000000000,12:47:44,9/1/2080,0,0
$GPGGA,124745.086,,,,,0,00,,,M,,M,,*77,0.0000000000,0.0000000000,12:47:45,9/1/2080,0,0
$GPRMC,124745.086,V,,,,,0.00,0.00,090180,,,N*42,0.0000000000,0.0000000000,12:47:45,9/1/2080,0,0
$GPGGA,124746.086,,,,,0,00,,,M,,M,,*74,0.0000000000,0.0000000000,12:47:46,9/1/2080,0,0
$GPRMC,124746.086,V,,,,,0.00,0.00,090180,,,N*41,0.0000000000,0.0000000000,12:47:46,9/1/2080,0,0
$GPGGA,124747.086,,,,,0,00,,,M,,M,,*75,0.0000000000,0.0000000000,12:47:47,9/1/2080,0,0
$GPRMC,124747.086,V,,,,,0.00,0.00,090180,,,N*40,0.0000000000,0.0000000000,12:47:47,9/1/2080,0,0
$GPGGA,124748.086,,,,,0,00,,,M,,M,,*7A,0.0000000000,0.0000000000,12:47:48,9/1/2080,0,0
$GPRMC,124748.086,V,,,,,0.00,0.00,090180,,,N*4F,0.0000000000,0.0000000000,12:47:48,9/1/2080,0,0
$GPGGA,124749.086,,,,,0,00,,,M,,M,,*7B,0.0000000000,0.0000000000,12:47:49,9/1/2080,0,0
$GPRMC,124749.086,V,,,,,0.00,0.00,090180,,,N*4E,0.0000000000,0.0000000000,12:47:49,9/1/2080,0,0
$GPGGA,124750.086,,,,,0,00,,,M,,M,,*73,0.0000000000,0.0000000000,12:47:50,9/1/2080,0,0
$GPRMC,124750.086,V,,,,,0.00,0.00,090180,,,N*46,0.0000000000,0.0000000000,12:47:50,9/1/2080,0,0
$GPGGA,124751.086,,,,,0,00,,,M,,M,,*72,0.0000000000,0.0000000000,12:47:51,9/1/2080,0,0
$GPRMC,124751.086,V,,,,,0.00,0.00,090180,,,N*47,0.0000000000,0.0000000000,12:47:51,9/1/2080,0,0
$GPGGA,124752.086,,,,,0,00,,,M,,M,,*71,0.0000000000,0.0000000000,12:47:52,9/1/2080,0,0
$GPRMC,124752.086,V,,,,,0.00,0.00,090180,,,N*44,0.0000000000,0.0000000000,12:47:52,9/1/2080,0,0
$GPGGA,124753.086,,,,,0,00,,,M,,M,,*70,0.0000000000,0.0000000000,12:47:53,9/1/2080,0,0
$GPRMC,124753.086,V,,,,,0.00,0.00,090180,,,N*45,0.0000000000,0.0000000000,12:47:53,9/1/2080,0,0
$GPGGA,124754.086,,,,,0,00,,,M,,M,,*77,0.0000000000,0.0000000000,12:47:54,9/1/2080,0,0
$GPRMC,124754.086,V,,,,,0.00,0.00,090180,,,N*42,0.0000000000,0.0000000000,12:47:54,9/1/2080,0,0
$GPGGA,124755.086,,,,,0,00,,,M,,M,,*76,0.0000000000,0.0000000000,12:47:55,9/1/2080,0,0
$GPRMC,124755.086,V,,,,,0.00,0.00,090180,,,N*43,0.0000000000,0.0000000000,12:47:55,9/1/2080,0,0
$GPGGA,124756.081,,,,,0,00,,,M,,M,,*72,0.0000000000,0.0000000000,12:47:56,9/1/2080,0,0
$GPRMC,124756.302,V,,,,,0.00,0.00,230316,,,N*4A,0.0000000000,0.0000000000,12:47:56,23/3/2016,0,0
$GPGGA,124757.302,,,,,0,00,,,M,,M,,*7B,0.0000000000,0.0000000000,12:47:57,23/3/2016,0,0
$GPRMC,124757.302,V,,,,,0.00,0.00,230316,,,N*4B,0.0000000000,0.0000000000,12:47:57,23/3/2016,0,0
$GPGGA,124758.302,,,,,0,00,,,M,,M,,*74,0.0000000000,0.0000000000,12:47:58,23/3/2016,0,0
$GPRMC,124758.302,V,,,,,0.00,0.00,230316,,,N*44,0.0000000000,0.0000000000,12:47:58,23/3/2016,0,0
$GPGGA,124759.302,,,,,0,00,,,M,,M,,*75,0.0000000000,0.0000000000,12:47:59,23/3/2016,0,0
$GPRMC,124759.302,V,,,,,0.00,0.00,230316,,,N*45,0.0000000000,0.0000000000,12:47:59,23/3/2016,0,0
$GPGGA,124800.302,,,,,0,00,,,M,,M,,*76,0.0000000000,0.0000000000,12:48:0,23/3/2016,0,0
$GPRMC,124800.302,V,,,,,0.00,0.00,230316,,,N*46,0.0000000000,0.0000000000,12:48:0,23/3/2016,0,0
$GPGGA,124801.302,,,,,0,00,,,M,,M,,*77,0.0000000000,0.0000000000,12:48:1,23/3/2016,0,0
$GPRMC,124801.302,V,,,,,0.00,0.00,230316,,,N*47,0.0000000000,0.0000000000,12:48:1,23/3/2016,0,0
$GPGGA,124802.097,,,,,0,00,,,M,,M,,*7B,0.0000000000,0.0000000000,12:48:2,23/3/2016,0,0
$GPRMC,124802.097,V,,,,,0.00,0.00,230316,,,N*4B,0.0000000000,0.0000000000,12:48:2,23/3/2016,0,0
$GPGGA,124803.097,,,,,0,00,,,M,,M,,*7A,0.0000000000,0.0000000000,12:48:3,23/3/2016,0,0
$GPRMC,124803.097,V,,,,,0.00,0.00,230316,,,N*4A,0.0000000000,0.0000000000,12:48:3,23/3/2016,0,0
$GPGGA,124804.097,,,,,0,00,,,M,,M,,*7D,0.0000000000,0.0000000000,12:48:4,23/3/2016,0,0
$GPRMC,124804.097,V,,,,,0.00,0.00,230316,,,N*4D,0.0000000000,0.0000000000,12:48:4,23/3/2016,0,0
$GPGGA,124805.097,,,,,0,00,,,M,,M,,*7C,0.0000000000,0.0000000000,12:48:5,23/3/2016,0,0
$GPRMC,124805.097,V,,,,,0.00,0.00,230316,,,N*4C,0.0000000000,0.0000000000,12:48:5,23/3/2016,0,0
$GPGGA,124806.097,,,,,0,00,,,M,,M,,*7F,0.0000000000,0.0000000000,12:48:6,23/3/2016,0,0
$GPRMC,124806.097,V,,,,,0.00,0.00,230316,,,N*4F,0.0000000000,0.0000000000,12:48:6,23/3/2016,0,0
$GPGGA,124807.097,,,,,0,00,,,M,,M,,*7E,0.0000000000,0.0000000000,12:48:7,23/3/2016,0,0
$GPRMC,124807.097,V,,,,,0.00,0.00,230316,,,N*4E,0.0000000000,0.0000000000,12:48:7,23/3/2016,0,0
$GPGGA,124808.097,,,,,0,00,,,M,,M,,*71,0.0000000000,0.0000000000,12:48:8,23/3/2016,0,0
$GPRMC,124808.097,V,,,,,0.00,0.00,230316,,,N*41,0.0000000000,0.0000000000,12:48:8,23/3/2016,0,0
$GPGGA,124809.097,,,,,0,00,,,M,,M,,*70,0.0000000000,0.0000000000,12:48:9,23/3/2016,0,0
$GPRMC,124809.097,V,,,,,0.00,0.00,230316,,,N*40,0.0000000000,0.0000000000,12:48:9,23/3/2016,0,0
$GPGGA,124810.097,,,,,0,00,,,M,,M,,*78,0.0000000000,0.0000000000,12:48:10,23/3/2016,0,0
$GPRMC,124810.097,V,,,,,0.00,0.00,230316,,,N*48,0.0000000000,0.0000000000,12:48:10,23/3/2016,0,0
$GPGGA,124811.097,,,,,0,00,,,M,,M,,*79,0.0000000000,0.0000000000,12:48:11,23/3/2016,0,0
$GPRMC,124811.097,V,,,,,0.00,0.00,230316,,,N*49,0.0000000000,0.0000000000,12:48:11,23/3/2016,0,0
$GPGGA,124812.097,,,,,0,00,,,M,,M,,*7A,0.0000000000,0.0000000000,12:48:12,23/3/2016,0,0
$GPRMC,124812.097,V,,,,,0.00,0.00,230316,,,N*4A,0.0000000000,0.0000000000,12:48:12,23/3/2016,0,0
$GPGGA,124813.097,,,,,0,00,,,M,,M,,*7B,0.0000000000,0.0000000000,12:48:13,23/3/2016,0,0
$GPRMC,124813.097,V,,,,,0.00,0.00,230316,,,N*4B,0.0000000000,0.0000000000,12:48:13,23/3/2016,0,0
$GPGGA,124814.081,,,,,0,00,,,M,,M,,*7B,0.0000000000,0.0000000000,12:48:14,23/3/2016,0,0
$GPRMC,124814.081,V,,,,,0.00,0.00,230316,,,N*4B,0.0000000000,0.0000000000,12:48:14,23/3/2016,0,0
$GPGGA,124814.302,,,,,0,00,,,M,,M,,*73,0.0000000000,0.0000000000,12:48:14,23/3/2016,0,0
$GPRMC,124814.302,V,,,,,0.00,0.00,230316,,,N*43,0.0000000000,0.0000000000,12:48:14,23/3/2016,0,0
$GPGGA,124815.302,,,,,0,00,,,M,,M,,*72,0.0000000000,0.0000000000,12:48:15,23/3/2016,0,0
$GPRMC,124815.302,V,,,,,0.00,0.00,230316,,,N*42,0.0000000000,0.0000000000,12:48:15,23/3/2016,0,0
$GPGGA,124816.302,,,,,0,00,,,M,,M,,*71,0.0000000000,0.0000000000,12:48:16,23/3/2016,0,0
$GPRMC,124816.302,V,,,,,0.00,0.00,230316,,,N*41,0.0000000000,0.0000000000,12:48:16,23/3/2016,0,0
$GPGGA,124817.302,,,,,0,00,,,M,,M,,*70,0.0000000000,0.0000000000,12:48:17,23/3/2016,0,0
$GPRMC,124817.302,V,,,,,0.00,0.00,230316,,,N*40,0.0000000000,0.0000000000,12:48:17,23/3/2016,0,0
$GPGGA,124818.302,,,,,0,00,,,M,,M,,*7F,0.0000000000,0.0000000000,12:48:18,23/3/2016,0,0
$GPRMC,124818.302,V,,,,,0.00,0.00,230316,,,N*4F,0.0000000000,0.0000000000,12:48:18,23/3/2016,0,0
$GPGGA,124819.302,,,,,0,00,,,M,,M,,*7E,0.0000000000,0.0000000000,12:48:19,23/3/2016,0,0
$GPRMC,124819.302,V,,,,,0.00,0.00,230316,,,N*4E,0.0000000000,0.0000000000,12:48:19,23/3/2016,0,0
$GPGGA,124820.087,,,,,0,00,,,M,,M,,*7A,0.0000000000,0.0000000000,12:48:20,23/3/2016,0,0
$GPRMC,124820.087,V,,,,,0.00,0.00,230316,,,N*4A,0.0000000000,0.0000000000,12:48:20,23/3/2016,0,0
$GPGGA,124821.087,,,,,0,00,,,M,,M,,*7B,0.0000000000,0.0000000000,12:48:21,23/3/2016,0,0
$GPRMC,124821.087,V,,,,,0.00,0.00,230316,,,N*4B,0.0000000000,0.0000000000,12:48:21,23/3/2016,0,0
$GPGGA,124822.087,,,,,0,00,,,M,,M,,*78,0.0000000000,0.0000000000,12:48:22,23/3/2016,0,0
$GPRMC,124822.087,V,,,,,0.00,0.00,230316,,,N*48,0.0000000000,0.0000000000,12:48:22,23/3/2016,0,0
$GPGGA,124823.087,,,,,0,00,,,M,,M,,*79,0.0000000000,0.0000000000,12:48:23,23/3/2016,0,0
$GPRMC,124823.087,V,,,,,0.00,0.00,230316,,,N*49,0.0000000000,0.0000000000,12:48:23,23/3/2016,0,0
$GPGGA,124824.087,,,,,0,00,,,M,,M,,*7E,0.0000000000,0.0000000000,12:48:24,23/3/2016,0,0
$GPRMC,124824.087,V,,,,,0.00,0.00,230316,,,N*4E,0.0000000000,0.0000000000,12:48:24,23/3/2016,0,0
$GPGGA,124825.087,,,,,0,00,,,M,,M,,*7F,0.0000000000,0.0000000000,12:48:25,23/3/2016,0,0
$GPRMC,124825.087,V,,,,,0.00,0.00,230316,,,N*4F,0.0000000000,0.0000000000,12:48:25,23/3/2016,0,0
$GPGGA,124826.087,,,,,0,00,,,M,,M,,*7C,0.0000000000,0.0000000000,12:48:26,23/3/2016,0,0
$GPRMC,124826.087,V,,,,,0.00,0.00,230316,,,N*4C,0.0000000000,0.0000000000,12:48:26,23/3/2016,0,0
$GPGGA,124827.087,,,,,0,00,,,M,,M,,*7D,0.0000000000,0.0000000000,12:48:27,23/3/2016,0,0
$GPRMC,124827.087,V,,,,,0.00,0.00,230316,,,N*4D,0.0000000000,0.0000000000,12:48:27,23/3/2016,0,0
$GPGGA,124828.087,,,,,0,00,,,M,,M,,*72,0.0000000000,0.0000000000,12:48:28,23/3/2016,0,0
$GPRMC,124828.087,V,,,,,0.00,0.00,230316,,,N*42,0.0000000000,0.0000000000,12:48:28,23/3/2016,0,0
$GPGGA,124829.087,,,,,0,00,,,M,,M,,*73,0.0000000000,0.0000000000,12:48:29,23/3/2016,0,0
$GPRMC,124829.087,V,,,,,0.00,0.00,230316,,,N*43,0.0000000000,0.0000000000,12:48:29,23/3/2016,0,0
$GPGGA,124830.087,,,,,0,00,,,M,,M,,*7B,0.0000000000,0.0000000000,12:48:30,23/3/2016,0,0
$GPRMC,124830.087,V,,,,,0.00,0.00,230316,,,N*4B,0.0000000000,0.0000000000,12:48:30,23/3/2016,0,0
$GPGGA,124831.087,,,,,0,00,,,M,,M,,*7A,0.0000000000,0.0000000000,12:48:31,23/3/2016,0,0
$GPRMC,124831.087,V,,,,,0.00,0.00,230316,,,N*4A,0.0000000000,0.0000000000,12:48:31,23/3/2016,0,0
$GPGGA,124832.087,,,,,0,00,,,M,,M,,*79,0.0000000000,0.0000000000,12:48:32,23/3/2016,0,0
$GPRMC,124832.087,V,,,,,0.00,0.00,230316,,,N*49,0.0000000000,0.0000000000,12:48:32,23/3/2016,0,0
$GPGGA,124833.087,,,,,0,00,,,M,,M,,*78,0.0000000000,0.0000000000,12:48:33,23/3/2016,0,0
$GPRMC,124833.087,V,,,,,0.00,0.00,230316,,,N*48,0.0000000000,0.0000000000,12:48:33,23/3/2016,0,0
$GPGGA,124834.087,,,,,0,00,,,M,,M,,*7F,0.0000000000,0.0000000000,12:48:34,23/3/2016,0,0
$GPRMC,124834.087,V,,,,,0.00,0.00,230316,,,N*4F,0.0000000000,0.0000000000,12:48:34,23/3/2016,0,0
$GPGGA,124835.087,,,,,0,00,,,M,,M,,*7E,0.0000000000,0.0000000000,12:48:35,23/3/2016,0,0
$GPRMC,124835.087,V,,,,,0.00,0.00,230316,,,N*4E,0.0000000000,0.0000000000,12:48:35,23/3/2016,0,0
$GPGGA,124836.087,,,,,0,00,,,M,,M,,*7D,0.0000000000,0.0000000000,12:48:36,23/3/2016,0,0
$GPRMC,124836.087,V,,,,,0.00,0.00,230316,,,N*4D,0.0000000000,0.0000000000,12:48:36,23/3/2016,0,0
$GPGGA,124837.087,,,,,0,00,,,M,,M,,*7C,0.0000000000,0.0000000000,12:48:37,23/3/2016,0,0
$GPRMC,124837.087,V,,,,,0.00,0.00,230316,,,N*4C,0.0000000000,0.0000000000,12:48:37,23/3/2016,0,0
$GPGGA,124838.079,,,,,0,00,,,M,,M,,*72,0.0000000000,0.0000000000,12:48:38,23/3/2016,0,0
$GPRMC,124838.079,V,,,,,0.00,0.00,230316,,,N*42,0.0000000000,0.0000000000,12:48:38,23/3/2016,0,0
$GPGGA,124838.298,,,,,0,00,,,M,,M,,*7F,0.0000000000,0.0000000000,12:48:38,23/3/2016,0,0
$GPRMC,124838.298,V,,,,,0.00,0.00,230316,,,N*4F,0.0000000000,0.0000000000,12:48:38,23/3/2016,0,0
$GPGGA,124839.298,,,,,0,00,,,M,,M,,*7E,0.0000000000,0.0000000000,12:48:39,23/3/2016,0,0
$GPRMC,124839.298,V,,,,,0.00,0.00,230316,,,N*4E,0.0000000000,0.0000000000,12:48:39,23/3/2016,0,0
$GPGGA,124840.298,,,,,0,00,,,M,,M,,*70,0.0000000000,0.0000000000,12:48:40,23/3/2016,0,0
$GPRMC,124840.298,V,,,,,0.00,0.00,230316,,,N*40,0.0000000000,0.0000000000,12:48:40,23/3/2016,0,0
$GPGGA,124841.298,,,,,0,00,,,M,,M,,*71,0.0000000000,0.0000000000,12:48:41,23/3/2016,0,0
$GPRMC,124841.298,V,,,,,0.00,0.00,230316,,,N*41,0.0000000000,0.0000000000,12:48:41,23/3/2016,0,0
$GPGGA,124842.298,,,,,0,00,,,M,,M,,*72,0.0000000000,0.0000000000,12:48:42,23/3/2016,0,0
$GPRMC,124842.298,V,,,,,0.00,0.00,230316,,,N*42,0.0000000000,0.0000000000,12:48:42,23/3/2016,0,0
$GPGGA,124843.298,,,,,0,00,,,M,,M,,*73,0.0000000000,0.0000000000,12:48:43,23/3/2016,0,0
$GPRMC,124843.298,V,,,,,0.00,0.00,230316,,,N*43,0.0000000000,0.0000000000,12:48:43,23/3/2016,0,0
$GPGGA,124844.079,,,,,0,00,,,M,,M,,*79,0.0000000000,0.0000000000,12:48:44,23/3/2016,0,0
$GPRMC,124844.079,V,,,,,0.00,0.00,230316,,,N*49,0.0000000000,0.0000000000,12:48:44,23/3/2016,0,0
$GPGGA,124844.298,,,,,0,00,,,M,,M,,*74,0.0000000000,0.0000000000,12:48:44,23/3/2016,0,0
$GPRMC,124844.298,V,,,,,0.00,0.00,230316,,,N*44,0.0000000000,0.0000000000,12:48:44,23/3/2016,0,0
$GPGGA,124845.298,,,,,0,00,,,M,,M,,*75,0.0000000000,0.0000000000,12:48:45,23/3/2016,0,0
$GPRMC,124845.298,V,,,,,0.00,0.00,230316,,,N*45,0.0000000000,0.0000000000,12:48:45,23/3/2016,0,0
$GPGGA,124846.298,,,,,0,00,,,M,,M,,*76,0.0000000000,0.0000000000,12:48:46,23/3/2016,0,0
$GPRMC,124846.298,V,,,,,0.00,0.00,230316,,,N*46,0.0000000000,0.0000000000,12:48:46,23/3/2016,0,0
$GPGGA,124847.298,,,,,0,00,,,M,,M,,*77,0.0000000000,0.0000000000,12:48:47,23/3/2016,0,0
$GPRMC,124847.298,V,,,,,0.00,0.00,230316,,,N*47,0.0000000000,0.0000000000,12:48:47,23/3/2016,0,0
$GPGGA,124848.298,,,,,0,00,,,M,,M,,*78,0.0000000000,0.0000000000,12:48:48,23/3/2016,0,0
$GPRMC,124848.298,V,,,,,0.00,0.00,230316,,,N*48,0.0000000000,0.0000000000,12:48:48,23/3/2016,0,0
$GPGGA,124849.298,,,,,0,00,,,M,,M,,*79,0.0000000000,0.0000000000,12:48:49,23/3/2016,0,0
$GPRMC,124849.298,V,,,,,0.00,0.00,230316,,,N*49,0.0000000000,0.0000000000,12:48:49,23/3/2016,0,0
$GPGGA,124850.079,,,,,0,00,,,M,,M,,*7C,0.0000000000,0.0000000000,12:48:50,23/3/2016,0,0
$GPRMC,124850.079,V,,,,,0.00,0.00,230316,,,N*4C,0.0000000000,0.0000000000,12:48:50,23/3/2016,0,0
$GPGGA,124850.298,,,,,0,00,,,M,,M,,*71,0.0000000000,0.0000000000,12:48:50,23/3/2016,0,0
$GPRMC,124850.298,V,,,,,0.00,0.00,230316,,,N*41,0.0000000000,0.0000000000,12:48:50,23/3/2016,0,0
$GPGGA,124851.298,,,,,0,00,,,M,,M,,*70,0.0000000000,0.0000000000,12:48:51,23/3/2016,0,0
$GPRMC,124851.298,V,,,,,0.00,0.00,230316,,,N*40,0.0000000000,0.0000000000,12:48:51,23/3/2016,0,0
$GPGGA,124852.298,,,,,0,00,,,M,,M,,*73,0.0000000000,0.0000000000,12:48:52,23/3/2016,0,0
$GPRMC,124852.298,V,,,,,0.00,0.00,230316,,,N*43,0.0000000000,0.0000000000,12:48:52,23/3/2016,0,0
$GPGGA,124853.298,,,,,0,00,,,M,,M,,*72,0.0000000000,0.0000000000,12:48:53,23/3/2016,0,0
$GPRMC,124853.298,V,,,,,0.00,0.00,230316,,,N*42,0.0000000000,0.0000000000,12:48:53,23/3/2016,0,0
$GPGGA,124854.298,,,,,0,00,,,M,,M,,*75,0.0000000000,0.0000000000,12:48:54,23/3/2016,0,0
$GPRMC,124854.298,V,,,,,0.00,0.00,230316,,,N*45,0.0000000000,0.0000000000,12:48:54,23/3/2016,0,0
$GPGGA,124855.298,,,,,0,00,,,M,,M,,*74,0.0000000000,0.0000000000,12:48:55,23/3/2016,0,0
$GPRMC,124855.298,V,,,,,0.00,0.00,230316,,,N*44,0.0000000000,0.0000000000,12:48:55,23/3/2016,0,0
$GPGGA,124856.093,,,,,0,00,,,M,,M,,*7E,0.0000000000,0.0000000000,12:48:56,23/3/2016,0,0
$GPRMC,124856.093,V,,,,,0.00,0.00,230316,,,N*4E,0.0000000000,0.0000000000,12:48:56,23/3/2016,0,0
$GPGGA,124857.093,,,,,0,00,,,M,,M,,*7F,0.0000000000,0.0000000000,12:48:57,23/3/2016,0,0
$GPRMC,124857.093,V,,,,,0.00,0.00,230316,,,N*4F,0.0000000000,0.0000000000,12:48:57,23/3/2016,0,0
$GPGGA,124858.093,,,,,0,00,,,M,,M,,*70,0.0000000000,0.0000000000,12:48:58,23/3/2016,0,0
$GPRMC,124858.093,V,,,,,0.00,0.00,230316,,,N*40,0.0000000000,0.0000000000,12:48:58,23/3/2016,0,0
$GPGGA,124859.093,,,,,0,00,,,M,,M,,*71,0.0000000000,0.0000000000,12:48:59,23/3/2016,0,0
$GPRMC,124859.093,V,,,,,0.00,0.00,230316,,,N*41,0.0000000000,0.0000000000,12:48:59,23/3/2016,0,0
$GPGGA,124900.093,,,,,0,00,,,M,,M,,*7C,0.0000000000,0.0000000000,12:49:0,23/3/2016,0,0
$GPRMC,124900.093,V,,,,,0.00,0.00,230316,,,N*4C,0.0000000000,0.0000000000,12:49:0,23/3/2016,0,0
$GPGGA,124901.093,,,,,0,00,,,M,,M,,*7D,0.0000000000,0.0000000000,12:49:1,23/3/2016,0,0
$GPRMC,124901.093,V,,,,,0.00,0.00,230316,,,N*4D,0.0000000000,0.0000000000,12:49:1,23/3/2016,0,0
$GPGGA,124902.093,,,,,0,00,,,M,,M,,*7E,0.0000000000,0.0000000000,12:49:2,23/3/2016,0,0
$GPRMC,124902.093,V,,,,,0.00,0.00,230316,,,N*4E,0.0000000000,0.0000000000,12:49:2,23/3/2016,0,0
$GPGGA,124903.093,,,,,0,00,,,M,,M,,*7F,0.0000000000,0.0000000000,12:49:3,23/3/2016,0,0
$GPRMC,124903.093,V,,,,,0.00,0.00,230316,,,N*4F,0.0000000000,0.0000000000,12:49:3,23/3/2016,0,0
$GPGGA,124904.093,,,,,0,00,,,M,,M,,*78,0.0000000000,0.0000000000,12:49:4,23/3/2016,0,0
$GPRMC,124904.093,V,,,,,0.00,0.00,230316,,,N*48,0.0000000000,0.0000000000,12:49:4,23/3/2016,0,0
$GPGGA,124905.093,,,,,0,00,,,M,,M,,*79,0.0000000000,0.0000000000,12:49:5,23/3/2016,0,0
$GPRMC,124905.093,V,,,,,0.00,0.00,230316,,,N*49,0.0000000000,0.0000000000,12:49:5,23/3/2016,0,0
$GPGGA,124906.082,,,,,0,03,,,M,,M,,*79,0.0000000000,0.0000000000,12:49:6,23/3/2016,0,0
$GPRMC,124906.082,V,,,,,0.00,0.00,230316,,,N*4A,0.0000000000,0.0000000000,12:49:6,23/3/2016,0,0
$GPGGA,124907.082,,,,,0,00,,,M,,M,,*7B,0.0000000000,0.0000000000,12:49:7,23/3/2016,0,0
$GPRMC,124907.082,V,,,,,0.00,0.00,230316,,,N*4B,0.0000000000,0.0000000000,12:49:7,23/3/2016,0,0
$GPGGA,124908.082,,,,,0,00,,,M,,M,,*74,0.0000000000,0.0000000000,12:49:8,23/3/2016,0,0
$GPRMC,124908.082,V,,,,,0.00,0.00,230316,,,N*44,0.0000000000,0.0000000000,12:49:8,23/3/2016,0,0
$GPGGA,124909.082,,,,,0,00,,,M,,M,,*75,0.0000000000,0.0000000000,12:49:9,23/3/2016,0,0
$GPRMC,124909.082,V,,,,,0.00,0.00,230316,,,N*45,0.0000000000,0.0000000000,12:49:9,23/3/2016,0,0
$GPGGA,124910.082,,,,,0,00,,,M,,M,,*7D,0.0000000000,0.0000000000,12:49:10,23/3/2016,0,0
$GPRMC,124910.082,V,,,,,0.00,0.00,230316,,,N*4D,0.0000000000,0.0000000000,12:49:10,23/3/2016,0,0
$GPGGA,124911.082,,,,,0,00,,,M,,M,,*7C,0.0000000000,0.0000000000,12:49:11,23/3/2016,0,0
$GPRMC,124911.082,V,,,,,0.00,0.00,230316,,,N*4C,0.0000000000,0.0000000000,12:49:11,23/3/2016,0,0
$GPGGA,124912.082,,,,,0,00,,,M,,M,,*7F,0.0000000000,0.0000000000,12:49:12,23/3/2016,0,0
$GPRMC,124912.082,V,,,,,0.00,0.00,230316,,,N*4F,0.0000000000,0.0000000000,12:49:12,23/3/2016,0,0
$GPGGA,124913.082,,,,,0,00,,,M,,M,,*7E,0.0000000000,0.0000000000,12:49:13,23/3/2016,0,0
$GPRMC,124913.082,V,,,,,0.00,0.00,230316,,,N*4E,0.0000000000,0.0000000000,12:49:13,23/3/2016,0,0
$GPGGA,124913.718,,,,,0,00,,,M,,M,,*7A,0.0000000000,0.0000000000,12:49:13,23/3/2016,0,0
$GPRMC,124913.718,V,,,,,0.00,0.00,230316,,,N*4A,0.0000000000,0.0000000000,12:49:13,23/3/2016,0,0
$GPGGA,124914.078,,,,,0,00,,,M,,M,,*7C,0.0000000000,0.0000000000,12:49:14,23/3/2016,0,0
$GPRMC,124914.078,V,,,,,0.00,0.00,230316,,,N*4C,0.0000000000,0.0000000000,12:49:14,23/3/2016,0,0
$GPGGA,124915.078,,,,,0,00,,,M,,M,,*7D,0.0000000000,0.0000000000,12:49:15,23/3/2016,0,0
$GPRMC,124915.078,V,,,,,0.00,0.00,230316,,,N*4D,0.0000000000,0.0000000000,12:49:15,23/3/2016,0,0
$GPGGA,124916.078,,,,,0,00,,,M,,M,,*7E,0.0000000000,0.0000000000,12:49:16,23/3/2016,0,0
$GPRMC,124916.078,V,,,,,0.00,0.00,230316,,,N*4E,0.0000000000,0.0000000000,12:49:16,23/3/2016,0,0
$GPGGA,124917.078,,,,,0,00,,,M,,M,,*7F,0.0000000000,0.0000000000,12:49:17,23/3/2016,0,0
$GPRMC,124917.078,V,,,,,0.00,0.00,230316,,,N*4F,0.0000000000,0.0000000000,12:49:17,23/3/2016,0,0
$GPGGA,124918.078,,,,,0,00,,,M,,M,,*70,0.0000000000,0.0000000000,12:49:18,23/3/2016,0,0
$GPRMC,124918.078,V,,,,,0.00,0.00,230316,,,N*40,0.0000000000,0.0000000000,12:49:18,23/3/2016,0,0
$GPGGA,124919.078,,,,,0,00,,,M,,M,,*71,0.0000000000,0.0000000000,12:49:19,23/3/2016,0,0
$GPRMC,124919.078,V,,,,,0.00,0.00,230316,,,N*41,0.0000000000,0.0000000000,12:49:19,23/3/2016,0,0
$GPGGA,124920.078,,,,,0,00,,,M,,M,,*7B,0.0000000000,0.0000000000,12:49:20,23/3/2016,0,0
$GPRMC,124920.078,V,,,,,0.00,0.00,230316,,,N*4B,0.0000000000,0.0000000000,12:49:20,23/3/2016,0,0
$GPGGA,124921.078,,,,,0,00,,,M,,M,,*7A,0.0000000000,0.0000000000,12:49:21,23/3/2016,0,0
$GPRMC,124921.078,V,,,,,0.00,0.00,230316,,,N*4A,0.0000000000,0.0000000000,12:49:21,23/3/2016,0,0
$GPGGA,124922.078,,,,,0,00,,,M,,M,,*79,0.0000000000,0.0000000000,12:49:22,23/3/2016,0,0
$GPRMC,124922.078,V,,,,,0.00,0.00,230316,,,N*49,0.0000000000,0.0000000000,12:49:22,23/3/2016,0,0
$GPGGA,124923.078,,,,,0,00,,,M,,M,,*78,0.0000000000,0.0000000000,12:49:23,23/3/2016,0,0
$GPRMC,124923.078,V,,,,,0.00,0.00,230316,,,N*48,0.0000000000,0.0000000000,12:49:23,23/3/2016,0,0
$GPGGA,124924.078,,,,,0,00,,,M,,M,,*7F,0.0000000000,0.0000000000,12:49:24,23/3/2016,0,0
$GPRMC,124924.078,V,,,,,0.00,0.00,230316,,,N*4F,0.0000000000,0.0000000000,12:49:24,23/3/2016,0,0
$GPGGA,124925.078,,,,,0,00,,,M,,M,,*7E,0.0000000000,0.0000000000,12:49:25,23/3/2016,0,0
$GPRMC,124925.078,V,,,,,0.00,0.00,230316,,,N*4E,0.0000000000,0.0000000000,12:49:25,23/3/2016,0,0
$GPGGA,124926.066,,,,,0,00,,,M,,M,,*72,0.0000000000,0.0000000000,12:49:26,23/3/2016,0,0
$GPRMC,124926.066,V,,,,,0.00,0.00,230316,,,N*42,0.0000000000,0.0000000000,12:49:26,23/3/2016,0,0
$GPGGA,124926.286,,,,,0,00,,,M,,M,,*7E,0.0000000000,0.0000000000,12:49:26,23/3/2016,0,0
$GPRMC,124926.286,V,,,,,0.00,0.00,230316,,,N*4E,0.0000000000,0.0000000000,12:49:26,23/3/2016,0,0
$GPGGA,124927.286,,,,,0,00,,,M,,M,,*7F,0.0000000000,0.0000000000,12:49:27,23/3/2016,0,0
$GPRMC,124927.286,V,,,,,0.00,0.00,230316,,,N*4F,0.0000000000,0.0000000000,12:49:27,23/3/2016,0,0
$GPGGA,124928.286,,,,,0,00,,,M,,M,,*70,0.0000000000,0.0000000000,12:49:28,23/3/2016,0,0
$GPRMC,124928.286,V,,,,,0.00,0.00,230316,,,N*40,0.0000000000,0.0000000000,12:49:28,23/3/2016,0,0
$GPGGA,124929.286,,,,,0,00,,,M,,M,,*71,0.0000000000,0.0000000000,12:49:29,23/3/2016,0,0
$GPRMC,124929.286,V,,,,,0.00,0.00,230316,,,N*41,0.0000000000,0.0000000000,12:49:29,23/3/2016,0,0
$GPGGA,124930.299,,,,,0,03,,,M,,M,,*74,0.0000000000,0.0000000000,12:49:30,23/3/2016,0,0
$GPRMC,124930.299,V,,,,,0.11,121.55,230316,,,N*45,0.0000000000,0.0000000000,12:49:30,23/3/2016,0,0
$GPGGA,124931.299,,,,,0,03,,,M,,M,,*75,0.0000000000,0.0000000000,12:49:31,23/3/2016,0,0
$GPRMC,124931.299,V,,,,,0.15,100.42,230316,,,N*45,0.0000000000,0.0000000000,12:49:31,23/3/2016,0,0
$GPGGA,124932.212,5130.1049,N,00000.2817,E,1,04,3.21,102.5,M,47.0,M,,*64,51.5017509460,0.0046950001,12:49:32,23/3/2016,0,0
$GPRMC,124932.212,A,5130.1049,N,00000.2817,E,0.33,189.59,230316,,,A*6E,51.5017509460,0.0046950001,12:49:32,23/3/2016,0,0
$GPGGA,124934.000,5130.1055,N,00000.2915,E,1,04,3.21,100.3,M,47.0,M,,*69,51.5017585754,0.0048583002,12:49:34,23/3/2016,0,0
$GPRMC,124934.000,A,5130.1055,N,00000.2915,E,0.33,182.69,230316,,,A*6F,51.5017585754,0.0048583002,12:49:34,23/3/2016,0,0
$GPGGA,124935.000,5130.1054,N,00000.2929,E,1,04,3.21,99.7,M,47.0,M,,*53,51.5017585754,0.0048815999,12:49:35,23/3/2016,0,0
$GPRMC,124935.000,A,5130.1054,N,00000.2929,E,0.22,116.32,230316,,,A*63,51.5017585754,0.0048815999,12:49:35,23/3/2016,0,0
$GPGGA,124936.000,5130.1057,N,00000.2940,E,1,04,3.21,99.3,M,47.0,M,,*58,51.5017585754,0.0049000000,12:49:36,23/3/2016,0,0
$GPRMC,124936.000,A,5130.1057,N,00000.2940,E,0.15,168.40,230316,,,A*64,51.5017585754,0.0049000000,12:49:36,23/3/2016,0,0
$GPGGA,124937.000,5130.1063,N,00000.2944,E,1,04,3.21,99.2,M,47.0,M,,*5B,51.5017738342,0.0049066004,12:49:37,23/3/2016,0,0
$GPRMC,124937.000,A,5130.1063,N,00000.2944,E,0.20,274.08,230316,,,A*62,51.5017738342,0.0049066004,12:49:37,23/3/2016,0,0
$GPGGA,124938.000,5130.1075,N,00000.2959,E,1,04,3.21,98.8,M,47.0,M,,*54,51.5017890930,0.0049316005,12:49:38,23/3/2016,0,0
$GPRMC,124938.000,A,5130.1075,N,00000.2959,E,0.26,330.49,230316,,,A*64,51.5017890930,0.0049316005,12:49:38,23/3/2016,0,0
$GPGGA,124939.000,5130.1085,N,00000.2958,E,1,04,3.21,98.4,M,47.0,M,,*57,51.5018081665,0.0049299998,12:49:39,23/3/2016,0,0
$GPRMC,124939.000,A,5130.1085,N,00000.2958,E,0.46,341.22,230316,,,A*66,51.5018081665,0.0049299998,12:49:39,23/3/2016,0,0
$GPGGA,124940.000,5130.1087,N,00000.2959,E,1,04,3.21,97.9,M,47.0,M,,*58,51.5018157958,0.0049316005,12:49:40,23/3/2016,0,0
$GPRMC,124940.000,A,5130.1087,N,00000.2959,E,0.22,337.02,230316,,,A*6A,51.5018157958,0.0049316005,12:49:40,23/3/2016,0,0
$GPGGA,124941.000,5130.1090,N,00000.2959,E,1,04,3.21,97.3,M,47.0,M,,*55,51.5018157958,0.0049316005,12:49:41,23/3/2016,0,0
$GPRMC,124941.000,A,5130.1090,N,00000.2959,E,0.27,296.05,230316,,,A*65,51.5018157958,0.0049316005,12:49:41,23/3/2016,0,0
$GPGGA,124942.000,5130.1100,N,00000.2957,E,1,04,3.21,96.8,M,47.0,M,,*5A,51.5018310546,0.0049282999,12:49:42,23/3/2016,0,0
$GPRMC,124942.000,A,5130.1100,N,00000.2957,E,0.35,300.22,230316,,,A*68,51.5018310546,0.0049282999,12:49:42,23/3/2016,0,0
$GPGGA,124943.000,5130.1108,N,00000.2958,E,1,04,3.21,96.2,M,47.0,M,,*56,51.5018463134,0.0049299998,12:49:43,23/3/2016,0,0
$GPRMC,124943.000,A,5130.1108,N,00000.2958,E,0.24,315.60,230316,,,A*6C,51.5018463134,0.0049299998,12:49:43,23/3/2016,0,0
$GPGGA,124944.000,5130.1113,N,00000.2956,E,1,04,3.21,95.7,M,47.0,M,,*53,51.5018539428,0.0049265999,12:49:44,23/3/2016,0,0
$GPRMC,124944.000,A,5130.1113,N,00000.2956,E,0.21,263.47,230316,,,A*6F,51.5018539428,0.0049265999,12:49:44,23/3/2016,0,0
$GPGGA,124945.000,5130.1119,N,00000.2946,E,1,04,3.21,95.2,M,47.0,M,,*5C,51.5018653869,0.0049099998,12:49:45,23/3/2016,0,0
$GPRMC,124945.000,A,5130.1119,N,00000.2946,E,0.27,279.92,230316,,,A*60,51.5018653869,0.0049099998,12:49:45,23/3/2016,0,0
$GPGGA,124946.000,5130.1126,N,00000.2941,E,1,04,3.21,94.7,M,47.0,M,,*50,51.5018806457,0.0049016003,12:49:46,23/3/2016,0,0
$GPRMC,124946.000,A,5130.1126,N,00000.2941,E,0.35,255.58,230316,,,A*63,51.5018806457,0.0049016003,12:49:46,23/3/2016,0,0
$GPGGA,124947.000,5130.1135,N,00000.2934,E,1,04,3.21,94.4,M,47.0,M,,*52,51.5018882751,0.0048900003,12:49:47,23/3/2016,0,0
$GPRMC,124947.000,A,5130.1135,N,00000.2934,E,0.32,283.87,230316,,,A*6C,51.5018882751,0.0048900003,12:49:47,23/3/2016,0,0
$GPGGA,124948.000,5130.1140,N,00000.2924,E,1,04,3.20,94.2,M,47.0,M,,*59,51.5018959045,0.0048733000,12:49:48,23/3/2016,0,0
$GPRMC,124948.000,A,5130.1140,N,00000.2924,E,0.29,285.27,230316,,,A*66,51.5018959045,0.0048733000,12:49:48,23/3/2016,0,0
$GPGGA,124949.000,5130.1146,N,00000.2913,E,1,04,3.21,93.9,M,47.0,M,,*57,51.5019111633,0.0048549995,12:49:49,23/3/2016,0,0
$GPRMC,124949.000,A,5130.1146,N,00000.2913,E,0.09,298.93,230316,,,A*64,51.5019111633,0.0048549995,12:49:49,23/3/2016,0,0
$GPGGA,124950.000,5130.1151,N,00000.2900,E,1,04,3.21,93.7,M,47.0,M,,*55,51.5019187927,0.0048333005,12:49:50,23/3/2016,0,0
$GPRMC,124950.000,A,5130.1151,N,00000.2900,E,0.14,6.06,230316,,,A*6D,51.5019187927,0.0048333005,12:49:50,23/3/2016,0,0
$GPGGA,124951.000,5130.1153,N,00000.2875,E,1,04,6.01,93.5,M,47.0,M,,*50,51.5019187927,0.0047916002,12:49:51,23/3/2016,0,0
$GPRMC,124951.000,A,5130.1153,N,00000.2875,E,0.05,348.79,230316,,,A*6C,51.5019187927,0.0047916002,12:49:51,23/3/2016,0,0
$GPGGA,124952.000,5130.1155,N,00000.2851,E,1,04,6.01,93.3,M,47.0,M,,*55,51.5019302368,0.0047516002,12:49:52,23/3/2016,0,0
$GPRMC,124952.000,A,5130.1155,N,00000.2851,E,0.01,323.70,230316,,,A*6F,51.5019302368,0.0047516002,12:49:52,23/3/2016,0,0
$GPGGA,124953.000,5130.1157,N,00000.2834,E,1,03,3.93,93.2,M,47.0,M,,*5D,51.5019302368,0.0047232999,12:49:53,23/3/2016,0,0
$GPRMC,124953.000,A,5130.1157,N,00000.2834,E,0.08,23.20,230316,,,A*50,51.5019302368,0.0047232999,12:49:53,23/3/2016,0,0
$GPGGA,124954.000,5130.1158,N,00000.2817,E,1,03,3.93,93.0,M,47.0,M,,*56,51.5019302368,0.0046950001,12:49:54,23/3/2016,0,0
$GPRMC,124954.000,A,5130.1158,N,00000.2817,E,0.09,321.88,230316,,,A*6B,51.5019302368,0.0046950001,12:49:54,23/3/2016,0,0
$GPGGA,124955.000,5130.1158,N,00000.2806,E,1,03,3.93,93.0,M,47.0,M,,*57,51.5019302368,0.0046766004,12:49:55,23/3/2016,0,0
$GPRMC,124955.000,A,5130.1158,N,00000.2806,E,0.15,284.58,230316,,,A*64,51.5019302368,0.0046766004,12:49:55,23/3/2016,0,0
$GPGGA,124956.000,5130.1161,N,00000.2796,E,1,03,3.93,92.8,M,47.0,M,,*51,51.5019378662,0.0046600008,12:49:56,23/3/2016,0,0
$GPRMC,124956.000,A,5130.1161,N,00000.2796,E,0.20,284.32,230316,,,A*61,51.5019378662,0.0046600008,12:49:56,23/3/2016,0,0
$GPGGA,124957.000,5130.1164,N,00000.2789,E,1,03,3.93,92.7,M,47.0,M,,*54,51.5019378662,0.0046482996,12:49:57,23/3/2016,0,0
$GPRMC,124957.000,A,5130.1164,N,00000.2789,E,0.17,295.52,230316,,,A*69,51.5019378662,0.0046482996,12:49:57,23/3/2016,0,0
$GPGGA,124958.000,5130.1166,N,00000.2784,E,1,04,3.20,92.6,M,47.0,M,,*5A,51.5019454956,0.0046399998,12:49:58,23/3/2016,0,0
$GPRMC,124958.000,A,5130.1166,N,00000.2784,E,0.14,285.07,230316,,,A*6B,51.5019454956,0.0046399998,12:49:58,23/3/2016,0,0
$GPGGA,124959.000,5130.1168,N,00000.2778,E,1,04,3.20,92.5,M,47.0,M,,*55,51.5019454956,0.0046300001,12:49:59,23/3/2016,0,0
$GPRMC,124959.000,A,5130.1168,N,00000.2778,E,0.36,260.98,230316,,,A*6A,51.5019454956,0.0046300001,12:49:59,23/3/2016,0,0
$GPGGA,125000.000,5130.1173,N,00000.2777,E,1,04,3.20,92.3,M,47.0,M,,*52,51.5019531250,0.0046283001,12:50:0,23/3/2016,0,0
$GPRMC,125000.000,A,5130.1173,N,00000.2777,E,0.27,285.67,230316,,,A*60,51.5019531250,0.0046283001,12:50:0,23/3/2016,0,0
$GPGGA,125001.000,5130.1173,N,00000.2776,E,1,04,3.20,92.3,M,47.0,M,,*52,51.5019531250,0.0046266002,12:50:1,23/3/2016,0,0
$GPRMC,125001.000,A,5130.1173,N,00000.2776,E,0.21,251.81,230316,,,A*67,51.5019531250,0.0046266002,12:50:1,23/3/2016,0,0
$GPGGA,125002.000,5130.1176,N,00000.2781,E,1,04,3.20,92.2,M,47.0,M,,*5D,51.5019607543,0.0046350002,12:50:2,23/3/2016,0,0
$GPRMC,125002.000,A,5130.1176,N,00000.2781,E,0.16,65.66,230316,,,A*51,51.5019607543,0.0046350002,12:50:2,23/3/2016,0,0
$GPGGA,125003.000,5130.1177,N,00000.2787,E,1,04,3.20,92.2,M,47.0,M,,*5B,51.5019607543,0.0046450004,12:50:3,23/3/2016,0,0
$GPRMC,125003.000,A,5130.1177,N,00000.2787,E,0.38,80.65,230316,,,A*53,51.5019607543,0.0046450004,12:50:3,23/3/2016,0,0
$GPGGA,125004.000,5130.1175,N,00000.2791,E,1,04,3.20,92.1,M,47.0,M,,*5A,51.5019607543,0.0046515998,12:50:4,23/3/2016,0,0
$GPRMC,125004.000,A,5130.1175,N,00000.2791,E,0.32,80.14,230316,,,A*5D,51.5019607543,0.0046515998,12:50:4,23/3/2016,0,0
$GPGGA,125005.000,5130.1174,N,00000.2800,E,1,04,3.20,92.2,M,47.0,M,,*5E,51.5019531250,0.0046665997,12:50:5,23/3/2016,0,0
$GPRMC,125005.000,A,5130.1174,N,00000.2800,E,0.33,66.10,230316,,,A*57,51.5019531250,0.0046665997,12:50:5,23/3/2016,0,0
$GPGGA,125006.000,5130.1172,N,00000.2798,E,1,04,3.20,92.2,M,47.0,M,,*55,51.5019531250,0.0046633000,12:50:6,23/3/2016,0,0
$GPRMC,125006.000,A,5130.1172,N,00000.2798,E,0.18,161.87,230316,,,A*6D,51.5019531250,0.0046633000,12:50:6,23/3/2016,0,0
$GPGGA,125007.000,5130.1175,N,00000.2806,E,1,04,3.20,92.1,M,47.0,M,,*58,51.5019607543,0.0046766004,12:50:7,23/3/2016,0,0
$GPRMC,125007.000,A,5130.1175,N,00000.2806,E,0.25,74.49,230316,,,A*5A,51.5019607543,0.0046766004,12:50:7,23/3/2016,0,0
$GPGGA,125008.000,5130.1174,N,00000.2807,E,1,04,3.20,92.1,M,47.0,M,,*57,51.5019531250,0.0046782999,12:50:8,23/3/2016,0,0
$GPRMC,125008.000,A,5130.1174,N,00000.2807,E,0.11,177.74,230316,,,A*6E,51.5019531250,0.0046782999,12:50:8,23/3/2016,0,0
$GPGGA,125009.000,5130.1173,N,00000.2810,E,1,04,3.20,92.1,M,47.0,M,,*57,51.5019531250,0.0046833004,12:50:9,23/3/2016,0,0
$GPRMC,125009.000,A,5130.1173,N,00000.2810,E,0.30,183.52,230316,,,A*62,51.5019531250,0.0046833004,12:50:9,23/3/2016,0,0
$GPGGA,125010.000,5130.1173,N,00000.2812,E,1,04,3.20,92.1,M,47.0,M,,*5D,51.5019531250,0.0046865997,12:50:10,23/3/2016,0,0
$GPRMC,125010.000,A,5130.1173,N,00000.2812,E,0.16,168.15,230316,,,A*6A,51.5019531250,0.0046865997,12:50:10,23/3/2016,0,0
$GPGGA,125011.000,5130.1175,N,00000.2817,E,1,04,3.20,92.1,M,47.0,M,,*5F,51.5019607543,0.0046950001,12:50:11,23/3/2016,0,0
$GPRMC,125011.000,A,5130.1175,N,00000.2817,E,0.33,46.47,230316,,,A*55,51.5019607543,0.0046950001,12:50:11,23/3/2016,0,0
$GPGGA,125012.000,5130.1171,N,00000.2820,E,1,04,3.20,92.2,M,47.0,M,,*5F,51.5019531250,0.0046999998,12:50:12,23/3/2016,0,0
$GPRMC,125012.000,A,5130.1171,N,00000.2820,E,0.40,104.81,230316,,,A*6F,51.5019531250,0.0046999998,12:50:12,23/3/2016,0,0
$GPGGA,125013.000,5130.1169,N,00000.2819,E,1,04,3.20,92.2,M,47.0,M,,*5D,51.5019454956,0.0046983003,12:50:13,23/3/2016,0,0
$GPRMC,125013.000,A,5130.1169,N,00000.2819,E,0.15,101.47,230316,,,A*62,51.5019454956,0.0046983003,12:50:13,23/3/2016,0,0
$GPGGA,125014.000,5130.1167,N,00000.2815,E,1,04,3.20,92.3,M,47.0,M,,*59,51.5019454956,0.0046916003,12:50:14,23/3/2016,0,0
$GPRMC,125014.000,A,5130.1167,N,00000.2815,E,0.10,252.28,230316,,,A*6E,51.5019454956,0.0046916003,12:50:14,23/3/2016,0,0
$GPGGA,125015.000,5130.1163,N,00000.2814,E,1,04,3.20,92.3,M,47.0,M,,*5D,51.5019378662,0.0046899995,12:50:15,23/3/2016,0,0
$GPRMC,125015.000,A,5130.1163,N,00000.2814,E,0.12,197.90,230316,,,A*61,51.5019378662,0.0046899995,12:50:15,23/3/2016,0,0
$GPGGA,125016.000,5130.1164,N,00000.2812,E,1,04,3.20,92.3,M,47.0,M,,*5F,51.5019378662,0.0046865997,12:50:16,23/3/2016,0,0
$GPRMC,125016.000,A,5130.1164,N,00000.2812,E,0.06,120.11,230316,,,A*63,51.5019378662,0.0046865997,12:50:16,23/3/2016,0,0
$GPGGA,125017.000,5130.1166,N,00000.2819,E,1,04,3.20,92.3,M,47.0,M,,*57,51.5019454956,0.0046983003,12:50:17,23/3/2016,0,0
$GPRMC,125017.000,A,5130.1166,N,00000.2819,E,0.48,73.85,230316,,,A*5B,51.5019454956,0.0046983003,12:50:17,23/3/2016,0,0
$GPGGA,125018.000,5130.1166,N,00000.2820,E,1,04,3.20,92.2,M,47.0,M,,*53,51.5019454956,0.0046999998,12:50:18,23/3/2016,0,0
$GPRMC,125018.000,A,5130.1166,N,00000.2820,E,0.47,75.85,230316,,,A*57,51.5019454956,0.0046999998,12:50:18,23/3/2016,0,0
$GPGGA,125019.000,5130.1170,N,00000.2822,E,1,04,3.20,92.2,M,47.0,M,,*57,51.5019531250,0.0047032999,12:50:19,23/3/2016,0,0
$GPRMC,125019.000,A,5130.1170,N,00000.2822,E,0.52,50.31,230316,,,A*5F,51.5019531250,0.0047032999,12:50:19,23/3/2016,0,0
$GPGGA,125020.000,5130.1170,N,00000.2821,E,1,04,3.20,92.2,M,47.0,M,,*5E,51.5019531250,0.0047015995,12:50:20,23/3/2016,0,0
$GPRMC,125020.000,A,5130.1170,N,00000.2821,E,0.35,43.15,230316,,,A*53,51.5019531250,0.0047015995,12:50:20,23/3/2016,0,0
$GPGGA,125021.000,5130.1171,N,00000.2819,E,1,04,3.20,92.1,M,47.0,M,,*56,51.5019531250,0.0046983003,12:50:21,23/3/2016,0,0
$GPRMC,125021.000,A,5130.1171,N,00000.2819,E,0.24,25.31,230316,,,A*5E,51.5019531250,0.0046983003,12:50:21,23/3/2016,0,0
$GPGGA,125022.000,5130.1174,N,00000.2827,E,1,04,3.20,92.1,M,47.0,M,,*5D,51.5019531250,0.0047115998,12:50:22,23/3/2016,0,0
$GPRMC,125022.000,A,5130.1174,N,00000.2827,E,0.67,51.18,230316,,,A*5A,51.5019531250,0.0047115998,12:50:22,23/3/2016,0,0
$GPGGA,125023.000,5130.1173,N,00000.2828,E,1,04,3.20,92.1,M,47.0,M,,*54,51.5019531250,0.0047133002,12:50:23,23/3/2016,0,0
$GPRMC,125023.000,A,5130.1173,N,00000.2828,E,0.43,48.74,230316,,,A*57,51.5019531250,0.0047133002,12:50:23,23/3/2016,0,0
$GPGGA,125024.000,5130.1175,N,00000.2829,E,1,04,3.20,92.1,M,47.0,M,,*54,51.5019607543,0.0047150001,12:50:24,23/3/2016,0,0
$GPRMC,125024.000,A,5130.1175,N,00000.2829,E,0.40,36.39,230316,,,A*54,51.5019607543,0.0047150001,12:50:24,23/3/2016,0,0
$GPGGA,125025.000,5130.1175,N,00000.2830,E,1,04,3.20,92.1,M,47.0,M,,*5D,51.5019607543,0.0047165994,12:50:25,23/3/2016,0,0
$GPRMC,125025.000,A,5130.1175,N,00000.2830,E,0.31,29.38,230316,,,A*54,51.5019607543,0.0047165994,12:50:25,23/3/2016,0,0
$GPGGA,125026.000,5130.1174,N,00000.2831,E,1,04,3.20,92.1,M,47.0,M,,*5E,51.5019531250,0.0047183003,12:50:26,23/3/2016,0,0
$GPRMC,125026.000,A,5130.1174,N,00000.2831,E,0.19,32.43,230316,,,A*5B,51.5019531250,0.0047183003,12:50:26,23/3/2016,0,0
$GPGGA,125027.000,5130.1171,N,00000.2833,E,1,04,3.20,92.1,M,47.0,M,,*58,51.5019531250,0.0047216000,12:50:27,23/3/2016,0,0
$GPRMC,125027.000,A,5130.1171,N,00000.2833,E,0.15,79.80,230316,,,A*51,51.5019531250,0.0047216000,12:50:27,23/3/2016,0,0
$GPGGA,125028.000,5130.1169,N,00000.2836,E,1,04,3.20,92.2,M,47.0,M,,*58,51.5019454956,0.0047266001,12:50:28,23/3/2016,0,0
$GPRMC,125028.000,A,5130.1169,N,00000.2836,E,0.21,98.33,230316,,,A*52,51.5019454956,0.0047266001,12:50:28,23/3/2016,0,0
$GPGGA,125029.000,5130.1167,N,00000.2839,E,1,04,3.20,92.1,M,47.0,M,,*5B,51.5019454956,0.0047315998,12:50:29,23/3/2016,0,0
$GPRMC,125029.000,A,5130.1167,N,00000.2839,E,0.23,129.36,230316,,,A*6E,51.5019454956,0.0047315998,12:50:29,23/3/2016,0,0
$GPGGA,125030.000,5130.1169,N,00000.2844,E,1,04,3.20,92.1,M,47.0,M,,*57,51.5019454956,0.0047400002,12:50:30,23/3/2016,0,0
$GPRMC,125030.000,A,5130.1169,N,00000.2844,E,0.17,114.82,230316,,,A*64,51.5019454956,0.0047400002,12:50:30,23/3/2016,0,0
$GPGGA,125031.000,5130.1171,N,00000.2849,E,1,04,3.19,92.1,M,47.0,M,,*58,51.5019531250,0.0047483000,12:50:31,23/3/2016,0,0
$GPRMC,125031.000,A,5130.1171,N,00000.2849,E,0.19,99.13,230316,,,A*53,51.5019531250,0.0047483000,12:50:31,23/3/2016,0,0
$GPGGA,125032.000,5130.1174,N,00000.2853,E,1,04,3.19,92.0,M,47.0,M,,*54,51.5019531250,0.0047550001,12:50:32,23/3/2016,0,0
$GPRMC,125032.000,A,5130.1174,N,00000.2853,E,0.17,85.41,230316,,,A*5A,51.5019531250,0.0047550001,12:50:32,23/3/2016,0,0
$GPGGA,125033.000,5130.1178,N,00000.2858,E,1,04,3.19,92.0,M,47.0,M,,*52,51.5019607543,0.0047632999,12:50:33,23/3/2016,0,0
$GPRMC,125033.000,A,5130.1178,N,00000.2858,E,0.22,73.00,230316,,,A*56,51.5019607543,0.0047632999,12:50:33,23/3/2016,0,0
$GPGGA,125034.000,5130.1183,N,00000.2862,E,1,04,3.19,91.9,M,47.0,M,,*52,51.5019683837,0.0047700004,12:50:34,23/3/2016,0,0
$GPRMC,125034.000,A,5130.1183,N,00000.2862,E,0.21,40.45,230316,,,A*5E,51.5019683837,0.0047700004,12:50:34,23/3/2016,0,0
$GPGGA,125035.000,5130.1187,N,00000.2866,E,1,04,3.19,91.9,M,47.0,M,,*53,51.5019760131,0.0047765998,12:50:35,23/3/2016,0,0
$GPRMC,125035.000,A,5130.1187,N,00000.2866,E,0.30,33.91,230316,,,A*52,51.5019760131,0.0047765998,12:50:35,23/3/2016,0,0
$GPGGA,125036.000,5130.1193,N,00000.2868,E,1,04,3.19,91.8,M,47.0,M,,*5A,51.5019874572,0.0047800002,12:50:36,23/3/2016,0,0
$GPRMC,125036.000,A,5130.1193,N,00000.2868,E,0.42,26.18,230316,,,A*5A,51.5019874572,0.0047800002,12:50:36,23/3/2016,0,0
$GPGGA,125037.000,5130.1197,N,00000.2872,E,1,04,3.19,91.8,M,47.0,M,,*54,51.5019950866,0.0047866001,12:50:37,23/3/2016,0,0
$GPRMC,125037.000,A,5130.1197,N,00000.2872,E,0.37,40.78,230316,,,A*50,51.5019950866,0.0047866001,12:50:37,23/3/2016,0,0
$GPGGA,125038.000,5130.1197,N,00000.2878,E,1,04,3.19,91.7,M,47.0,M,,*5E,51.5019950866,0.0047966003,12:50:38,23/3/2016,0,0
$GPRMC,125038.000,A,5130.1197,N,00000.2878,E,0.37,75.00,230316,,,A*5C,51.5019950866,0.0047966003,12:50:38,23/3/2016,0,0
$GPGGA,125039.000,5130.1201,N,00000.2879,E,1,04,3.19,91.7,M,47.0,M,,*52,51.5020027160,0.0047983002,12:50:39,23/3/2016,0,0
$GPRMC,125039.000,A,5130.1201,N,00000.2879,E,0.40,79.34,230316,,,A*5B,51.5020027160,0.0047983002,12:50:39,23/3/2016,0,0
$GPGGA,125040.000,5130.1205,N,00000.2881,E,1,04,3.19,91.7,M,47.0,M,,*5F,51.5020103454,0.0048016004,12:50:40,23/3/2016,0,0
$GPRMC,125040.000,A,5130.1205,N,00000.2881,E,0.41,73.82,230316,,,A*50,51.5020103454,0.0048016004,12:50:40,23/3/2016,0,0
$GPGGA,125041.000,5130.1209,N,00000.2883,E,1,04,3.19,91.6,M,47.0,M,,*51,51.5020179748,0.0048050003,12:50:41,23/3/2016,0,0
$GPRMC,125041.000,A,5130.1209,N,00000.2883,E,0.42,60.39,230316,,,A*5E,51.5020179748,0.0048050003,12:50:41,23/3/2016,0,0
$GPGGA,125042.000,5130.1212,N,00000.2884,E,1,04,3.19,91.6,M,47.0,M,,*5F,51.5020179748,0.0048066000,12:50:42,23/3/2016,0,0
$GPRMC,125042.000,A,5130.1212,N,00000.2884,E,0.35,54.45,230316,,,A*5C,51.5020179748,0.0048066000,12:50:42,23/3/2016,0,0
$GPGGA,125043.000,5130.1216,N,00000.2888,E,1,04,3.19,91.6,M,47.0,M,,*56,51.5020256042,0.0048133001,12:50:43,23/3/2016,0,0
$GPRMC,125043.000,A,5130.1216,N,00000.2888,E,0.46,41.60,230316,,,A*52,51.5020256042,0.0048133001,12:50:43,23/3/2016,0,0
$GPGGA,125044.000,5130.1221,N,00000.2894,E,1,04,3.19,91.6,M,47.0,M,,*58,51.5020332336,0.0048233003,12:50:44,23/3/2016,0,0
$GPRMC,125044.000,A,5130.1221,N,00000.2894,E,0.48,42.87,230316,,,A*58,51.5020332336,0.0048233003,12:50:44,23/3/2016,0,0
$GPGGA,125045.000,5130.1223,N,00000.2904,E,1,04,3.19,91.6,M,47.0,M,,*53,51.5020332336,0.0048400001,12:50:45,23/3/2016,0,0
$GPRMC,125045.000,A,5130.1223,N,00000.2904,E,0.60,56.68,230316,,,A*5D,51.5020332336,0.0048400001,12:50:45,23/3/2016,0,0
$GPGGA,125046.000,5130.1224,N,00000.2915,E,1,04,3.19,91.6,M,47.0,M,,*57,51.5020408630,0.0048583002,12:50:46,23/3/2016,0,0
$GPRMC,125046.000,A,5130.1224,N,00000.2915,E,0.71,69.31,230316,,,A*59,51.5020408630,0.0048583002,12:50:46,23/3/2016,0,0
$GPGGA,125047.000,5130.1227,N,00000.2922,E,1,04,3.19,91.5,M,47.0,M,,*52,51.5020408630,0.0048699998,12:50:47,23/3/2016,0,0
$GPRMC,125047.000,A,5130.1227,N,00000.2922,E,0.78,73.80,230316,,,A*57,51.5020408630,0.0048699998,12:50:47,23/3/2016,0,0
$GPGGA,125048.000,5130.1229,N,00000.2935,E,1,04,3.19,91.5,M,47.0,M,,*55,51.5020523071,0.0048916001,12:50:48,23/3/2016,0,0
$GPRMC,125048.000,A,5130.1229,N,00000.2935,E,0.87,80.30,230316,,,A*57,51.5020523071,0.0048916001,12:50:48,23/3/2016,0,0
$GPGGA,125049.000,5130.1231,N,00000.2944,E,1,04,3.19,91.5,M,47.0,M,,*5B,51.5020523071,0.0049066004,12:50:49,23/3/2016,0,0
$GPRMC,125049.000,A,5130.1231,N,00000.2944,E,0.74,75.37,230316,,,A*58,51.5020523071,0.0049066004,12:50:49,23/3/2016,0,0
$GPGGA,125050.000,5130.1230,N,00000.2948,E,1,04,3.19,91.5,M,47.0,M,,*5E,51.5020523071,0.0049133005,12:50:50,23/3/2016,0,0
$GPRMC,125050.000,A,5130.1230,N,00000.2948,E,0.58,81.73,230316,,,A*58,51.5020523071,0.0049133005,12:50:50,23/3/2016,0,0
$GPGGA,125051.000,5130.1228,N,00000.2953,E,1,04,3.19,91.5,M,47.0,M,,*5C,51.5020408630,0.0049216003,12:50:51,23/3/2016,0,0
$GPRMC,125051.000,A,5130.1228,N,00000.2953,E,0.57,87.83,230316,,,A*5C,51.5020408630,0.0049216003,12:50:51,23/3/2016,0,0
$GPGGA,125052.000,5130.1223,N,00000.2947,E,1,04,3.19,91.5,M,47.0,M,,*51,51.5020332336,0.0049116001,12:50:52,23/3/2016,0,0
$GPRMC,125052.000,A,5130.1223,N,00000.2947,E,0.31,122.87,230316,,,A*6B,51.5020332336,0.0049116001,12:50:52,23/3/2016,0,0
$GPGGA,125053.000,5130.1224,N,00000.2945,E,1,04,3.19,91.5,M,47.0,M,,*55,51.5020408630,0.0049082999,12:50:53,23/3/2016,0,0
$GPRMC,125053.000,A,5130.1224,N,00000.2945,E,0.17,117.38,230316,,,A*69,51.5020408630,0.0049082999,12:50:53,23/3/2016,0,0
$GPGGA,125054.000,5130.1224,N,00000.2943,E,1,04,3.19,91.5,M,47.0,M,,*54,51.5020408630,0.0049050002,12:50:54,23/3/2016,0,0
$GPRMC,125054.000,A,5130.1224,N,00000.2943,E,0.23,110.58,230316,,,A*6E,51.5020408630,0.0049050002,12:50:54,23/3/2016,0,0
$GPGGA,125055.000,5130.1223,N,00000.2941,E,1,04,3.19,91.5,M,47.0,M,,*50,51.5020332336,0.0049016003,12:50:55,23/3/2016,0,0
$GPRMC,125055.000,A,5130.1223,N,00000.2941,E,0.21,119.20,230316,,,A*6E,51.5020332336,0.0049016003,12:50:55,23/3/2016,0,0
$GPGGA,125056.000,5130.1223,N,00000.2938,E,1,04,3.19,91.5,M,47.0,M,,*5D,51.5020332336,0.0048966002,12:50:56,23/3/2016,0,0
$GPRMC,125056.000,A,5130.1223,N,00000.2938,E,0.21,100.47,230316,,,A*6A,51.5020332336,0.0048966002,12:50:56,23/3/2016,0,0
$GPGGA,125057.000,5130.1222,N,00000.2934,E,1,04,3.19,91.5,M,47.0,M,,*51,51.5020332336,0.0048900003,12:50:57,23/3/2016,0,0
$GPRMC,125057.000,A,5130.1222,N,00000.2934,E,0.20,120.35,230316,,,A*60,51.5020332336,0.0048900003,12:50:57,23/3/2016,0,0
$GPGGA,125058.000,5130.1214,N,00000.2924,E,1,04,3.19,91.5,M,47.0,M,,*5A,51.5020256042,0.0048733000,12:50:58,23/3/2016,0,0
$GPRMC,125058.000,A,5130.1214,N,00000.2924,E,0.34,158.17,230316,,,A*61,51.5020256042,0.0048733000,12:50:58,23/3/2016,0,0
$GPGGA,125059.000,5130.1208,N,00000.2919,E,1,04,3.19,91.5,M,47.0,M,,*58,51.5020103454,0.0048649997,12:50:59,23/3/2016,0,0
$GPRMC,125059.000,A,5130.1208,N,00000.2919,E,0.40,186.77,230316,,,A*65,51.5020103454,0.0048649997,12:50:59,23/3/2016,0,0
$GPGGA,125100.000,5130.1206,N,00000.2900,E,1,04,3.19,91.5,M,47.0,M,,*53,51.5020103454,0.0048333005,12:51:0,23/3/2016,0,0
$GPRMC,125100.000,A,5130.1206,N,00000.2900,E,0.36,237.95,230316,,,A*6A,51.5020103454,0.0048333005,12:51:0,23/3/2016,0,0
$GPGGA,125101.000,5130.1197,N,00000.2902,E,1,04,3.19,91.5,M,47.0,M,,*5B,51.5019950866,0.0048365998,12:51:1,23/3/2016,0,0
$GPRMC,125101.000,A,5130.1197,N,00000.2902,E,0.60,182.46,230316,,,A*62,51.5019950866,0.0048365998,12:51:1,23/3/2016,0,0
$GPGGA,125102.000,5130.1195,N,00000.2892,E,1,04,3.19,91.5,M,47.0,M,,*52,51.5019950866,0.0048199996,12:51:2,23/3/2016,0,0
$GPRMC,125102.000,A,5130.1195,N,00000.2892,E,0.54,204.91,230316,,,A*6B,51.5019950866,0.0048199996,12:51:2,23/3/2016,0,0
$GPGGA,125103.000,5130.1192,N,00000.2890,E,1,04,3.19,91.5,M,47.0,M,,*56,51.5019874572,0.0048165998,12:51:3,23/3/2016,0,0
$GPRMC,125103.000,A,5130.1192,N,00000.2890,E,0.56,195.32,230316,,,A*6F,51.5019874572,0.0048165998,12:51:3,23/3/2016,0,0
$GPGGA,125104.000,5130.1191,N,00000.2884,E,1,04,3.19,91.5,M,47.0,M,,*57,51.5019874572,0.0048066000,12:51:4,23/3/2016,0,0
$GPRMC,125104.000,A,5130.1191,N,00000.2884,E,0.50,227.20,230316,,,A*61,51.5019874572,0.0048066000,12:51:4,23/3/2016,0,0
$GPGGA,125105.000,5130.1185,N,00000.2880,E,1,04,3.19,91.5,M,47.0,M,,*57,51.5019760131,0.0048000001,12:51:5,23/3/2016,1,1
$GPRMC,125105.000,A,5130.1185,N,00000.2880,E,1.64,192.11,230316,,,A*68,51.5019760131,0.0048000001,12:51:5,23/3/2016,0,1
$GPGGA,125106.000,5130.1182,N,00000.2875,E,1,04,3.19,91.5,M,47.0,M,,*59,51.5019683837,0.0047916002,12:51:6,23/3/2016,1,2
$GPRMC,125106.000,A,5130.1182,N,00000.2875,E,1.29,205.16,230316,,,A*65,51.5019683837,0.0047916002,12:51:6,23/3/2016,0,2
$GPGGA,125107.000,5130.1177,N,00000.2864,E,1,04,3.19,91.5,M,47.0,M,,*52,51.5019607543,0.0047733006,12:51:7,23/3/2016,0,2
$GPRMC,125107.000,A,5130.1177,N,00000.2864,E,1.02,211.12,230316,,,A*66,51.5019607543,0.0047733006,12:51:7,23/3/2016,0,2
$GPGGA,125108.000,5130.1174,N,00000.2856,E,1,04,3.18,91.5,M,47.0,M,,*5E,51.5019531250,0.0047600002,12:51:8,23/3/2016,1,3
$GPRMC,125108.000,A,5130.1174,N,00000.2856,E,1.01,210.79,230316,,,A*64,51.5019531250,0.0047600002,12:51:8,23/3/2016,0,3
$GPGGA,125109.000,5130.1171,N,00000.2853,E,1,04,3.18,91.5,M,47.0,M,,*5F,51.5019531250,0.0047550001,12:51:9,23/3/2016,0,3
$GPRMC,125109.000,A,5130.1171,N,00000.2853,E,0.94,179.07,230316,,,A*6D,51.5019531250,0.0047550001,12:51:9,23/3/2016,0,3
$GPGGA,125110.000,5130.1166,N,00000.2844,E,1,04,3.18,91.5,M,47.0,M,,*57,51.5019454956,0.0047400002,12:51:10,23/3/2016,0,3
$GPRMC,125110.000,A,5130.1166,N,00000.2844,E,0.87,201.62,230316,,,A*68,51.5019454956,0.0047400002,12:51:10,23/3/2016,0,3
$GPGGA,125111.000,5130.1164,N,00000.2832,E,1,04,3.18,91.5,M,47.0,M,,*55,51.5019378662,0.0047200002,12:51:11,23/3/2016,0,3
$GPRMC,125111.000,A,5130.1164,N,00000.2832,E,0.71,260.80,230316,,,A*68,51.5019378662,0.0047200002,12:51:11,23/3/2016,0,3
$GPGGA,125112.000,5130.1166,N,00000.2827,E,1,04,3.18,91.5,M,47.0,M,,*50,51.5019454956,0.0047115998,12:51:12,23/3/2016,0,3
$GPRMC,125112.000,A,5130.1166,N,00000.2827,E,0.93,308.64,230316,,,A*64,51.5019454956,0.0047115998,12:51:12,23/3/2016,0,3
$GPGGA,125113.000,5130.1169,N,00000.2826,E,1,04,3.18,91.5,M,47.0,M,,*5F,51.5019454956,0.0047100005,12:51:13,23/3/2016,0,3
$GPRMC,125113.000,A,5130.1169,N,00000.2826,E,0.32,359.16,230316,,,A*61,51.5019454956,0.0047100005,12:51:13,23/3/2016,0,3
$GPGGA,125114.000,5130.1169,N,00000.2822,E,1,04,5.95,91.5,M,47.0,M,,*5F,51.5019454956,0.0047032999,12:51:14,23/3/2016,0,3
$GPRMC,125114.000,A,5130.1169,N,00000.2822,E,0.59,305.07,230316,,,A*66,51.5019454956,0.0047032999,12:51:14,23/3/2016,0,3
$GPGGA,125115.000,5130.1166,N,00000.2815,E,1,04,3.18,91.5,M,47.0,M,,*56,51.5019454956,0.0046916003,12:51:15,23/3/2016,0,3
$GPRMC,125115.000,A,5130.1166,N,00000.2815,E,0.44,209.05,230316,,,A*6F,51.5019454956,0.0046916003,12:51:15,23/3/2016,0,3
$GPGGA,125116.000,5130.1162,N,00000.2808,E,1,04,3.18,91.5,M,47.0,M,,*5D,51.5019378662,0.0046800003,12:51:16,23/3/2016,0,3
$GPRMC,125116.000,A,5130.1162,N,00000.2808,E,0.93,230.38,230316,,,A*6A,51.5019378662,0.0046800003,12:51:16,23/3/2016,0,3
$GPGGA,125117.000,5130.1156,N,00000.2810,E,1,04,3.18,91.4,M,47.0,M,,*53,51.5019302368,0.0046833004,12:51:17,23/3/2016,0,3
$GPRMC,125117.000,A,5130.1156,N,00000.2810,E,1.37,173.98,230316,,,A*64,51.5019302368,0.0046833004,12:51:17,23/3/2016,0,3
$GPGGA,125118.000,5130.1150,N,00000.2796,E,1,04,3.18,91.4,M,47.0,M,,*5B,51.5019187927,0.0046600008,12:51:18,23/3/2016,0,3
$GPRMC,125118.000,A,5130.1150,N,00000.2796,E,1.65,235.72,230316,,,A*6E,51.5019187927,0.0046600008,12:51:18,23/3/2016,0,3
$GPGGA,125119.000,5130.1146,N,00000.2791,E,1,04,3.18,91.4,M,47.0,M,,*5A,51.5019111633,0.0046515998,12:51:19,23/3/2016,0,3
$GPRMC,125119.000,A,5130.1146,N,00000.2791,E,1.09,220.32,230316,,,A*65,51.5019111633,0.0046515998,12:51:19,23/3/2016,0,3
$GPGGA,125120.000,5130.1144,N,00000.2794,E,1,04,3.18,91.3,M,47.0,M,,*50,51.5019035339,0.0046565999,12:51:20,23/3/2016,0,3
$GPRMC,125120.000,A,5130.1144,N,00000.2794,E,0.74,242.21,230316,,,A*65,51.5019035339,0.0046565999,12:51:20,23/3/2016,0,3
$GPGGA,125121.000,5130.1143,N,00000.2800,E,1,04,3.18,91.3,M,47.0,M,,*54,51.5019035339,0.0046665997,12:51:21,23/3/2016,0,3
$GPRMC,125121.000,A,5130.1143,N,00000.2800,E,0.06,173.60,230316,,,A*60,51.5019035339,0.0046665997,12:51:21,23/3/2016,0,3
$GPGGA,125122.000,5130.1139,N,00000.2798,E,1,04,3.18,91.3,M,47.0,M,,*54,51.5018959045,0.0046633000,12:51:22,23/3/2016,0,3
$GPRMC,125122.000,A,5130.1139,N,00000.2798,E,1.34,122.55,230316,,,A*62,51.5018959045,0.0046633000,12:51:22,23/3/2016,0,3
$GPGGA,125123.000,5130.1135,N,00000.2800,E,1,04,3.18,91.3,M,47.0,M,,*57,51.5018882751,0.0046665997,12:51:23,23/3/2016,0,3
$GPRMC,125123.000,A,5130.1135,N,00000.2800,E,1.05,114.54,230316,,,A*67,51.5018882751,0.0046665997,12:51:23,23/3/2016,0,3
$GPGGA,125124.000,5130.1132,N,00000.2790,E,1,04,3.18,91.3,M,47.0,M,,*51,51.5018882751,0.0046500000,12:51:24,23/3/2016,0,3
$GPRMC,125124.000,A,5130.1132,N,00000.2790,E,0.82,165.46,230316,,,A*6A,51.5018882751,0.0046500000,12:51:24,23/3/2016,0,3
$GPGGA,125125.000,5130.1129,N,00000.2783,E,1,04,3.18,91.3,M,47.0,M,,*58,51.5018806457,0.0046382999,12:51:25,23/3/2016,0,3
$GPRMC,125125.000,A,5130.1129,N,00000.2783,E,1.57,242.07,230316,,,A*69,51.5018806457,0.0046382999,12:51:25,23/3/2016,0,3
$GPGGA,125126.000,5130.1125,N,00000.2776,E,1,04,3.18,91.2,M,47.0,M,,*5C,51.5018730163,0.0046266002,12:51:26,23/3/2016,0,3
$GPRMC,125126.000,A,5130.1125,N,00000.2776,E,1.79,232.71,230316,,,A*66,51.5018730163,0.0046266002,12:51:26,23/3/2016,0,3
$GPGGA,125127.000,5130.1127,N,00000.2770,E,1,04,3.18,91.2,M,47.0,M,,*59,51.5018806457,0.0046166000,12:51:27,23/3/2016,0,3
$GPRMC,125127.000,A,5130.1127,N,00000.2770,E,1.78,305.27,230316,,,A*64,51.5018806457,0.0046166000,12:51:27,23/3/2016,0,3
$GPGGA,125128.000,5130.1125,N,00000.2763,E,1,04,3.18,91.2,M,47.0,M,,*56,51.5018730163,0.0046050004,12:51:28,23/3/2016,0,3
$GPRMC,125128.000,A,5130.1125,N,00000.2763,E,1.46,241.75,230316,,,A*60,51.5018730163,0.0046050004,12:51:28,23/3/2016,0,3
$GPGGA,125129.000,5130.1123,N,00000.2768,E,1,04,3.18,91.2,M,47.0,M,,*5A,51.5018730163,0.0046133003,12:51:29,23/3/2016,0,3
$GPRMC,125129.000,A,5130.1123,N,00000.2768,E,0.35,51.27,230316,,,A*5D,51.5018730163,0.0046133003,12:51:29,23/3/2016,0,3
$GPGGA,125130.000,5130.1120,N,00000.2755,E,1,04,3.18,91.2,M,47.0,M,,*5F,51.5018653869,0.0045915994,12:51:30,23/3/2016,0,3
$GPRMC,125130.000,A,5130.1120,N,00000.2755,E,0.94,229.44,230316,,,A*6B,51.5018653869,0.0045915994,12:51:30,23/3/2016,0,3
$GPGGA,125131.000,5130.1116,N,00000.2755,E,1,04,3.18,91.2,M,47.0,M,,*5B,51.5018653869,0.0045915994,12:51:31,23/3/2016,0,3
$GPRMC,125131.000,A,5130.1116,N,00000.2755,E,1.36,195.47,230316,,,A*61,51.5018653869,0.0045915994,12:51:31,23/3/2016,0,3
$GPGGA,125132.000,5130.1111,N,00000.2749,E,1,04,3.18,91.2,M,47.0,M,,*52,51.5018539428,0.0045816001,12:51:32,23/3/2016,0,3
$GPRMC,125132.000,A,5130.1111,N,00000.2749,E,1.25,200.61,230316,,,A*61,51.5018539428,0.0045816001,12:51:32,23/3/2016,0,3
$GPGGA,125133.000,5130.1108,N,00000.2747,E,1,04,3.18,91.1,M,47.0,M,,*56,51.5018463134,0.0045782999,12:51:33,23/3/2016,0,3
$GPRMC,125133.000,A,5130.1108,N,00000.2747,E,1.80,215.47,230316,,,A*69,51.5018463134,0.0045782999,12:51:33,23/3/2016,0,3
$GPGGA,125134.000,5130.1104,N,00000.2740,E,1,04,3.18,91.1,M,47.0,M,,*5A,51.5018386840,0.0045666003,12:51:34,23/3/2016,0,3
$GPRMC,125134.000,A,5130.1104,N,00000.2740,E,1.85,200.00,230316,,,A*67,51.5018386840,0.0045666003,12:51:34,23/3/2016,0,3
$GPGGA,125135.000,5130.1100,N,00000.2729,E,1,04,3.18,91.1,M,47.0,M,,*50,51.5018310546,0.0045483007,12:51:35,23/3/2016,0,3
$GPRMC,125135.000,A,5130.1100,N,00000.2729,E,2.63,209.22,230316,,,A*6F,51.5018310546,0.0045483007,12:51:35,23/3/2016,0,3
$GPGGA,125136.000,5130.1099,N,00000.2718,E,1,04,3.18,91.0,M,47.0,M,,*51,51.5018310546,0.0045300002,12:51:36,23/3/2016,0,3
$GPRMC,125136.000,A,5130.1099,N,00000.2718,E,2.41,231.00,230316,,,A*64,51.5018310546,0.0045300002,12:51:36,23/3/2016,0,3
$GPGGA,125137.000,5130.1098,N,00000.2713,E,1,04,3.18,91.0,M,47.0,M,,*5A,51.5018310546,0.0045216007,12:51:37,23/3/2016,0,3
$GPRMC,125137.000,A,5130.1098,N,00000.2713,E,1.80,212.58,230316,,,A*6D,51.5018310546,0.0045216007,12:51:37,23/3/2016,0,3
$GPGGA,125138.000,5130.1095,N,00000.2707,E,1,04,3.18,91.0,M,47.0,M,,*5D,51.5018234252,0.0045116004,12:51:38,23/3/2016,0,3
$GPRMC,125138.000,A,5130.1095,N,00000.2707,E,1.35,202.89,230316,,,A*69,51.5018234252,0.0045116004,12:51:38,23/3/2016,0,3
$GPGGA,125139.000,5130.1092,N,00000.2700,E,1,04,3.18,91.0,M,47.0,M,,*5C,51.5018234252,0.0045000000,12:51:39,23/3/2016,0,3
$GPRMC,125139.000,A,5130.1092,N,00000.2700,E,1.16,206.51,230316,,,A*68,51.5018234252,0.0045000000,12:51:39,23/3/2016,0,3
$GPGGA,125140.000,5130.1090,N,00000.2689,E,1,04,3.18,90.9,M,47.0,M,,*58,51.5018157958,0.0044816002,12:51:40,23/3/2016,0,3
$GPRMC,125140.000,A,5130.1090,N,00000.2689,E,1.48,211.76,230316,,,A*6C,51.5018157958,0.0044816002,12:51:40,23/3/2016,0,3
$GPGGA,125141.000,5130.1088,N,00000.2682,E,1,04,3.18,90.9,M,47.0,M,,*5B,51.5018157958,0.0044699997,12:51:41,23/3/2016,0,3
$GPRMC,125141.000,A,5130.1088,N,00000.2682,E,1.40,207.09,230316,,,A*68,51.5018157958,0.0044699997,12:51:41,23/3/2016,0,3
$GPGGA,125142.000,5130.1082,N,00000.2659,E,1,04,3.18,90.9,M,47.0,M,,*54,51.5018081665,0.0044316000,12:51:42,23/3/2016,0,3
$GPRMC,125142.000,A,5130.1082,N,00000.2659,E,2.65,222.34,230316,,,A*6A,51.5018081665,0.0044316000,12:51:42,23/3/2016,0,3
