$GPRMC,142901.312,A,5130.1185,N,00000.3463,E,1.12,89.96,270116,,,A*56,51.5019760131,0.0057715997,14:29:1,27/1/2016,33,1,8.26,46,18.36
$GPRMC,142903.000,A,5130.1206,N,00000.3488,E,0.55,169.52,270116,,,A*6C,51.5020103454,0.0058133001,14:29:3,27/1/2016,33,18,10.04,91,18.36
$GPRMC,142904.000,A,5130.1205,N,00000.3480,E,0.23,233.10,270116,,,A*6B,51.5020103454,0.0058000001,14:29:4,27/1/2016,32,1,8.87,129,18.85
$GPRMC,142905.000,A,5130.1205,N,00000.3478,E,0.31,213.32,270116,,,A*6C,51.5020103454,0.0057966003,14:29:4,27/1/2016,39,9,14.59,87,18.85
$GPRMC,142906.000,A,5130.1210,N,00000.3481,E,0.21,318.79,270116,,,A*69,51.5020179748,0.0058016004,14:29:6,27/1/2016,106,18,78.17,390,18.36
$GPRMC,142907.000,A,5130.1207,N,00000.3485,E,0.19,142.91,270116,,,A*6A,51.5020103454,0.0058083004,14:29:7,27/1/2016,80,18,26.91,161,18.36
$GPRMC,142908.000,A,5130.1212,N,00000.3485,E,0.16,323.43,270116,,,A*64,51.5020179748,0.0058083004,14:29:8,27/1/2016,83,35,39.50,292,17.87
$GPRMC,142909.000,A,5130.1214,N,00000.3487,E,0.12,270.42,270116,,,A*63,51.5020256042,0.0058116006,14:29:8,27/1/2016,81,46,24.88,229,18.36
$GPRMC,142910.000,A,5130.1216,N,00000.3489,E,0.13,307.61,270116,,,A*66,51.5020256042,0.0058150000,14:29:10,27/1/2016,79,132,74.98,299,18.36
$GPRMC,142911.000,A,5130.1219,N,00000.3493,E,0.24,348.96,270116,,,A*64,51.5020332336,0.0058215999,14:29:11,27/1/2016,79,28,25.37,128,18.36
$GPRMC,142912.000,A,5130.1222,N,00000.3500,E,0.15,33.36,270116,,,A*53,51.5020332336,0.0058333005,14:29:12,27/1/2016,80,22,17.00,88,17.87
$GPRMC,142913.000,A,5130.1230,N,00000.3501,E,0.25,341.18,270116,,,A*69,51.5020523071,0.0058350000,14:29:12,27/1/2016,81,27,15.31,100,17.87
$GPRMC,142914.000,A,5130.1237,N,00000.3502,E,0.53,345.13,270116,,,A*64,51.5020599365,0.0058366003,14:29:14,27/1/2016,82,33,23.17,185,17.87
$GPRMC,142915.000,A,5130.1240,N,00000.3504,E,0.34,329.34,270116,,,A*6D,51.5020675659,0.0058400001,14:29:15,27/1/2016,82,12,58.19,265,17.87
$GPRMC,142916.000,A,5130.1243,N,00000.3503,E,0.51,281.55,270116,,,A*6D,51.5020751953,0.0058382997,14:29:16,27/1/2016,76,12,20.88,135,17.87
$GPRMC,142917.000,A,5130.1247,N,00000.3505,E,0.35,296.86,270116,,,A*64,51.5020751953,0.0058416004,14:29:16,27/1/2016,75,15,14.08,83,17.87
$GPRMC,142918.000,A,5130.1251,N,00000.3504,E,0.34,295.69,270116,,,A*6E,51.5020828247,0.0058400001,14:29:18,27/1/2016,71,48,25.71,122,17.87
$GPRMC,142919.000,A,5130.1259,N,00000.3502,E,0.66,337.26,270116,,,A*64,51.5020980834,0.0058366003,14:29:19,27/1/2016,77,23,73.66,353,17.38
$GPRMC,142920.000,A,5130.1264,N,00000.3499,E,0.77,334.11,270116,,,A*64,51.5021095275,0.0058315997,14:29:20,27/1/2016,81,9,13.65,91,17.87
$GPRMC,142921.000,A,5130.1270,N,00000.3494,E,1.21,327.65,270116,,,A*6E,51.5021171569,0.0058232998,14:29:20,27/1/2016,41,1,12.29,99,17.38
$GPRMC,142922.000,A,5130.1275,N,00000.3498,E,1.25,356.64,270116,,,A*67,51.5021247863,0.0058300008,14:29:22,27/1/2016,35,75,20.68,176,17.38
$GPRMC,142923.000,A,5130.1274,N,00000.3500,E,0.95,357.41,270116,,,A*6B,51.5021247863,0.0058333005,14:29:23,27/1/2016,38,106,97.95,421,17.38
$GPRMC,142924.000,A,5130.1274,N,00000.3505,E,1.13,14.71,270116,,,A*51,51.5021247863,0.0058416004,14:29:24,27/1/2016,35,110,46.54,259,17.38
$GPRMC,142925.000,A,5130.1271,N,00000.3505,E,0.99,10.98,270116,,,A*55,51.5021171569,0.0058416004,14:29:24,27/1/2016,35,68,60.77,241,17.38
$GPRMC,142926.000,A,5130.1267,N,00000.3510,E,0.78,13.56,270116,,,A*5B,51.5021095275,0.0058500003,14:29:26,27/1/2016,34,44,62.79,277,17.38
$GPRMC,142927.000,A,5130.1258,N,00000.3515,E,0.41,44.61,270116,,,A*5F,51.5020980834,0.0058583002,14:29:27,27/1/2016,35,36,72.13,442,17.38
$GPRMC,142928.000,A,5130.1254,N,00000.3519,E,0.29,66.51,270116,,,A*5D,51.5020904541,0.0058650007,14:29:28,27/1/2016,34,94,43.08,179,17.38
$GPRMC,142929.000,A,5130.1251,N,00000.3517,E,0.35,75.05,270116,,,A*59,51.5020828247,0.0058616008,14:29:28,27/1/2016,33,9,40.89,202,17.38
$GPRMC,142930.000,A,5130.1248,N,00000.3520,E,0.47,87.30,270116,,,A*53,51.5020828247,0.0058666000,14:29:30,27/1/2016,34,6,15.74,133,17.38
$GPRMC,142931.000,A,5130.1247,N,00000.3516,E,0.53,55.82,270116,,,A*5B,51.5020751953,0.0058600001,14:29:31,27/1/2016,33,1,7.25,47,16.89
$GPRMC,142932.000,A,5130.1243,N,00000.3520,E,0.58,96.70,270116,,,A*50,51.5020751953,0.0058666000,14:29:32,27/1/2016,33,31,10.76,48,17.38
$GPRMC,142933.000,A,5130.1238,N,00000.3523,E,0.58,132.44,270116,,,A*66,51.5020675659,0.0058716006,14:29:32,27/1/2016,33,47,21.18,99,17.38
$GPRMC,142934.000,A,5130.1235,N,00000.3525,E,0.70,128.97,270116,,,A*65,51.5020599365,0.0058750004,14:29:34,27/1/2016,33,4,4.68,41,17.38
$GPRMC,142935.000,A,5130.1233,N,00000.3526,E,0.41,127.38,270116,,,A*69,51.5020599365,0.0058766002,14:29:35,27/1/2016,33,0,10.78,74,16.89
$GPRMC,142936.000,A,5130.1229,N,00000.3527,E,0.50,154.47,270116,,,A*6C,51.5020523071,0.0058783001,14:29:36,27/1/2016,33,22,10.05,60,16.89
$GPRMC,142937.000,A,5130.1228,N,00000.3529,E,0.51,147.56,270116,,,A*61,51.5020408630,0.0058816003,14:29:36,27/1/2016,33,11,11.04,85,16.89
$GPRMC,142938.000,A,5130.1227,N,00000.3528,E,0.34,153.19,270116,,,A*6D,51.5020408630,0.0058800001,14:29:38,27/1/2016,33,4,3.44,27,16.41
$GPRMC,142939.000,A,5130.1227,N,00000.3529,E,0.57,168.91,270116,,,A*60,51.5020408630,0.0058816003,14:29:39,27/1/2016,33,8,21.62,165,16.89
$GPRMC,142940.000,A,5130.1225,N,00000.3530,E,0.47,151.95,270116,,,A*6B,51.5020408630,0.0058833003,14:29:40,27/1/2016,33,67,20.66,139,15.43
$GPRMC,142941.000,A,5130.1224,N,00000.3531,E,0.44,171.48,270116,,,A*6B,51.5020408630,0.0058849997,14:29:40,27/1/2016,33,8,20.82,171,17.38
$GPRMC,142942.000,A,5130.1223,N,00000.3531,E,0.46,170.79,270116,,,A*6E,51.5020332336,0.0058849997,14:29:42,27/1/2016,33,0,3.54,29,17.38
$GPRMC,142943.000,A,5130.1222,N,00000.3531,E,0.35,194.59,270116,,,A*62,51.5020332336,0.0058849997,14:29:43,27/1/2016,33,0,12.32,54,16.89
$GPRMC,142944.000,A,5130.1221,N,00000.3531,E,0.21,167.55,270116,,,A*63,51.5020332336,0.0058849997,14:29:44,27/1/2016,33,0,7.09,48,16.41
$GPRMC,142945.000,A,5130.1220,N,00000.3531,E,0.27,185.18,270116,,,A*60,51.5020332336,0.0058849997,14:29:44,27/1/2016,33,12,4.75,22,16.89
$GPRMC,142946.000,A,5130.1219,N,00000.3531,E,0.30,191.89,270116,,,A*62,51.5020332336,0.0058849997,14:29:46,27/1/2016,32,17,8.17,42,16.89
$GPRMC,142947.000,A,5130.1219,N,00000.3530,E,0.27,264.49,270116,,,A*61,51.5020332336,0.0058833003,14:29:47,27/1/2016,32,2,12.52,58,16.89
$GPRMC,142948.000,A,5130.1219,N,00000.3529,E,0.14,204.85,270116,,,A*60,51.5020332336,0.0058816003,14:29:48,27/1/2016,32,15,6.12,26,16.89
$GPRMC,142949.000,A,5130.1218,N,00000.3528,E,0.16,217.05,270116,,,A*69,51.5020256042,0.0058800001,14:29:48,27/1/2016,31,0,5.09,27,16.89
$GPRMC,142950.000,A,5130.1218,N,00000.3528,E,0.71,88.66,270116,,,A*51,51.5020256042,0.0058800001,14:29:50,27/1/2016,31,0,6.45,49,17.38
$GPRMC,142951.000,A,5130.1221,N,00000.3528,E,0.72,72.43,270116,,,A*5B,51.5020332336,0.0058800001,14:29:51,27/1/2016,30,4,5.16,23,17.38
$GPRMC,142952.000,A,5130.1225,N,00000.3525,E,0.84,42.33,270116,,,A*5C,51.5020408630,0.0058750004,14:29:52,27/1/2016,30,0,15.61,69,17.38
$GPRMC,142953.000,A,5130.1230,N,00000.3527,E,1.13,39.82,270116,,,A*52,51.5020523071,0.0058783001,14:29:52,27/1/2016,29,3,4.50,27,17.38
$GPRMC,142954.000,A,5130.1235,N,00000.3530,E,1.40,35.72,270116,,,A*53,51.5020599365,0.0058833003,14:29:54,27/1/2016,29,5,13.02,67,17.38
$GPRMC,142955.000,A,5130.1245,N,00000.3527,E,1.66,18.18,270116,,,A*54,51.5020751953,0.0058783001,14:29:55,27/1/2016,29,5,8.76,39,16.89
$GPRMC,142956.000,A,5130.1250,N,00000.3523,E,1.66,5.04,270116,,,A*66,51.5020828247,0.0058716006,14:29:56,27/1/2016,29,6,6.16,55,16.89
$GPRMC,142957.000,A,5130.1257,N,00000.3518,E,1.79,356.03,270116,,,A*64,51.5020904541,0.0058632998,14:29:56,27/1/2016,29,2,3.27,21,16.41
$GPRMC,142958.000,A,5130.1263,N,00000.3517,E,1.79,3.13,270116,,,A*61,51.5021095275,0.0058616008,14:29:58,27/1/2016,29,22,3.97,27,16.89
$GPRMC,142959.000,A,5130.1272,N,00000.3518,E,2.00,5.77,270116,,,A*66,51.5021247863,0.0058632998,14:29:59,27/1/2016,29,3,27.95,110,16.41
$GPRMC,143000.000,A,5130.1281,N,00000.3518,E,2.16,3.96,270116,,,A*60,51.5021324157,0.0058632998,14:30:0,27/1/2016,29,4,16.96,109,17.38
$GPRMC,143001.000,A,5130.1287,N,00000.3516,E,2.14,1.65,270116,,,A*65,51.5021476745,0.0058600001,14:30:0,27/1/2016,30,24,11.90,58,17.38
$GPRMC,143002.000,A,5130.1293,N,00000.3515,E,2.06,359.57,270116,,,A*6C,51.5021553039,0.0058583002,14:30:2,27/1/2016,30,9,6.60,25,17.38
$GPRMC,143003.000,A,5130.1301,N,00000.3515,E,2.16,3.31,270116,,,A*6A,51.5021629333,0.0058583002,14:30:3,27/1/2016,31,1,3.57,23,17.38
$GPRMC,143004.000,A,5130.1309,N,00000.3515,E,2.20,5.14,270116,,,A*61,51.5021820068,0.0058583002,14:30:4,27/1/2016,30,0,4.89,25,17.38
$GPRMC,143005.000,A,5130.1315,N,00000.3517,E,2.06,11.39,270116,,,A*51,51.5021896362,0.0058616008,14:30:4,27/1/2016,29,6,5.47,30,17.38
$GPRMC,143006.000,A,5130.1323,N,00000.3516,E,2.15,11.35,270116,,,A*58,51.5022048950,0.0058600001,14:30:6,27/1/2016,29,8,4.39,28,17.38
$GPRMC,143007.000,A,5130.1332,N,00000.3513,E,2.24,6.79,270116,,,A*60,51.5022201538,0.0058550000,14:30:7,27/1/2016,30,0,3.48,25,17.38
$GPRMC,143008.000,A,5130.1340,N,00000.3513,E,2.26,6.50,270116,,,A*63,51.5022315979,0.0058550000,14:30:8,27/1/2016,30,1,4.96,80,17.38
$GPRMC,143009.000,A,5130.1350,N,00000.3512,E,2.47,5.33,270116,,,A*63,51.5022468566,0.0058533005,14:30:8,27/1/2016,30,12,11.23,45,17.38
$GPRMC,143010.000,A,5130.1356,N,00000.3512,E,2.17,359.50,270116,,,A*67,51.5022621154,0.0058533005,14:30:10,27/1/2016,29,0,5.15,31,17.38
$GPRMC,143011.000,A,5130.1365,N,00000.3513,E,2.27,1.73,270116,,,A*6B,51.5022773742,0.0058550000,14:30:11,27/1/2016,30,6,3.83,25,16.89
$GPRMC,143012.000,A,5130.1373,N,00000.3516,E,2.38,9.01,270116,,,A*69,51.5022850036,0.0058600001,14:30:12,27/1/2016,29,21,3.59,22,17.38
$GPRMC,143013.000,A,5130.1380,N,00000.3517,E,2.36,8.44,270116,,,A*6B,51.5023040771,0.0058616008,14:30:12,27/1/2016,30,2,6.80,32,17.38
$GPRMC,143014.000,A,5130.1388,N,00000.3519,E,2.44,10.56,270116,,,A*55,51.5023117065,0.0058650007,14:30:14,27/1/2016,31,0,4.72,31,16.89
$GPRMC,143015.000,A,5130.1396,N,00000.3522,E,2.48,12.00,270116,,,A*5E,51.5023269653,0.0058699998,14:30:15,27/1/2016,31,14,3.34,28,16.89
$GPRMC,143016.000,A,5130.1405,N,00000.3525,E,2.46,11.95,270116,,,A*56,51.5023422241,0.0058750004,14:30:16,27/1/2016,29,22,7.58,51,16.89
$GPRMC,143017.000,A,5130.1412,N,00000.3529,E,2.44,14.10,270116,,,A*57,51.5023536682,0.0058816003,14:30:16,27/1/2016,30,0,9.44,51,16.89
$GPRMC,143018.000,A,5130.1419,N,00000.3531,E,2.48,13.86,270116,,,A*5E,51.5023689270,0.0058849997,14:30:18,27/1/2016,29,12,3.01,43,16.89
$GPRMC,143019.000,A,5130.1422,N,00000.3532,E,2.18,13.28,270116,,,A*55,51.5023689270,0.0058866000,14:30:19,27/1/2016,29,2,5.23,47,15.43
$GPRMC,143020.000,A,5130.1429,N,00000.3533,E,2.19,14.11,270116,,,A*59,51.5023841857,0.0058882999,14:30:20,27/1/2016,30,0,2.94,21,16.89
$GPRMC,143021.000,A,5130.1432,N,00000.3531,E,1.85,9.41,270116,,,A*6F,51.5023841857,0.0058849997,14:30:20,27/1/2016,29,0,2.64,23,16.89
$GPRMC,143022.000,A,5130.1436,N,00000.3533,E,1.77,13.19,270116,,,A*51,51.5023918151,0.0058882999,14:30:22,27/1/2016,31,7,4.99,24,16.89
$GPRMC,143023.000,A,5130.1443,N,00000.3535,E,1.90,10.99,270116,,,A*56,51.5024070739,0.0058916001,14:30:23,27/1/2016,30,2,4.80,32,16.89
$GPRMC,143024.000,A,5130.1448,N,00000.3535,E,1.93,11.62,270116,,,A*5C,51.5024185180,0.0058916001,14:30:24,27/1/2016,30,11,8.58,53,16.89
$GPRMC,143025.000,A,5130.1454,N,00000.3535,E,1.95,8.17,270116,,,A*6C,51.5024261474,0.0058916001,14:30:24,27/1/2016,30,4,4.23,23,16.89
$GPRMC,143026.000,A,5130.1464,N,00000.3543,E,2.28,11.30,270116,,,A*55,51.5024414062,0.0059050006,14:30:26,27/1/2016,31,1,6.36,35,16.89
$GPRMC,143027.000,A,5130.1470,N,00000.3544,E,2.26,11.00,270116,,,A*5B,51.5024490356,0.0059066004,14:30:27,27/1/2016,31,3,13.34,89,16.89
$GPRMC,143028.000,A,5130.1478,N,00000.3544,E,2.29,6.74,270116,,,A*66,51.5024642944,0.0059066004,14:30:28,27/1/2016,30,9,7.70,44,16.89
$GPRMC,143029.000,A,5130.1486,N,00000.3546,E,2.37,6.51,270116,,,A*6C,51.5024757385,0.0059100003,14:30:28,27/1/2016,31,0,5.24,31,16.89
$GPRMC,143030.000,A,5130.1490,N,00000.3556,E,2.18,13.20,270116,,,A*5D,51.5024833679,0.0059265999,14:30:30,27/1/2016,31,0,2.74,26,16.89
$GPRMC,143031.000,A,5130.1496,N,00000.3558,E,2.15,13.64,270116,,,A*59,51.5024909973,0.0059299998,14:30:31,27/1/2016,32,6,4.47,35,16.89
$GPRMC,143032.000,A,5130.1499,N,00000.3562,E,1.92,15.97,270116,,,A*5A,51.5024986267,0.0059365997,14:30:32,27/1/2016,32,9,3.63,23,16.89
$GPRMC,143033.000,A,5130.1507,N,00000.3565,E,2.17,15.76,270116,,,A*5B,51.5025138854,0.0059416003,14:30:32,27/1/2016,32,2,4.36,26,16.89
$GPRMC,143034.000,A,5130.1512,N,00000.3567,E,1.86,8.34,270116,,,A*6B,51.5025215148,0.0059450001,14:30:34,27/1/2016,31,1,2.57,19,16.89
$GPRMC,143035.000,A,5130.1515,N,00000.3569,E,1.72,10.27,270116,,,A*53,51.5025215148,0.0059482998,14:30:35,27/1/2016,31,0,2.13,30,16.89
$GPRMC,143036.000,A,5130.1518,N,00000.3573,E,1.62,13.74,270116,,,A*52,51.5025291442,0.0059549999,14:30:36,27/1/2016,32,0,2.03,17,16.41
$GPRMC,143037.000,A,5130.1527,N,00000.3577,E,2.06,17.74,270116,,,A*5E,51.5025482177,0.0059616003,14:30:36,27/1/2016,32,1,2.45,20,16.89
$GPRMC,143038.000,A,5130.1535,N,00000.3580,E,2.08,14.94,270116,,,A*59,51.5025558471,0.0059666004,14:30:38,27/1/2016,32,0,2.61,23,16.89
$GPRMC,143039.000,A,5130.1540,N,00000.3586,E,2.17,23.07,270116,,,A*5C,51.5025634765,0.0059766006,14:30:39,27/1/2016,32,30,5.53,35,16.89
$GPRMC,143040.000,A,5130.1541,N,00000.3590,E,1.85,25.75,270116,,,A*5F,51.5025711059,0.0059833002,14:30:40,27/1/2016,32,0,23.23,61,16.89
$GPRMC,143041.000,A,5130.1547,N,00000.3592,E,1.87,24.48,270116,,,A*57,51.5025787353,0.0059866003,14:30:40,27/1/2016,31,7,9.94,36,16.89
$GPRMC,143042.000,A,5130.1553,N,00000.3594,E,1.82,21.60,270116,,,A*5D,51.5025863647,0.0059899997,14:30:42,27/1/2016,31,0,4.43,35,16.41
$GPRMC,143043.000,A,5130.1559,N,00000.3596,E,1.78,18.88,270116,,,A*5D,51.5025978088,0.0059932999,14:30:43,27/1/2016,32,2,1.98,15,16.41
$GPRMC,143044.000,A,5130.1562,N,00000.3599,E,1.75,24.61,270116,,,A*58,51.5026054382,0.0059983005,14:30:44,27/1/2016,32,2,4.15,20,16.41
$GPRMC,143045.000,A,5130.1569,N,00000.3598,E,1.83,19.45,270116,,,A*52,51.5026130676,0.0059966001,14:30:44,27/1/2016,35,3,5.91,37,16.41
$GPRMC,143046.000,A,5130.1574,N,00000.3601,E,1.86,23.57,270116,,,A*51,51.5026206970,0.0060016002,14:30:46,27/1/2016,35,6,6.75,65,16.41
$GPRMC,143047.000,A,5130.1580,N,00000.3598,E,1.63,15.99,270116,,,A*54,51.5026359558,0.0059966001,14:30:47,27/1/2016,30,1,11.18,161,16.41
$GPRMC,143048.000,A,5130.1594,N,00000.3600,E,2.18,14.56,270116,,,A*51,51.5026512145,0.0060000000,14:30:48,27/1/2016,30,1,1.96,26,16.41
$GPRMC,143049.000,A,5130.1603,N,00000.3599,E,2.18,10.57,270116,,,A*5B,51.5026702880,0.0059983005,14:30:48,27/1/2016,31,0,1.20,16,16.41
$GPRMC,143050.000,A,5130.1612,N,00000.3595,E,2.27,3.21,270116,,,A*60,51.5026855468,0.0059916009,14:30:50,27/1/2016,31,3,2.89,20,16.41
$GPRMC,143051.000,A,5130.1620,N,00000.3594,E,2.42,3.51,270116,,,A*65,51.5027008056,0.0059899997,14:30:51,27/1/2016,31,0,2.43,26,16.41
$GPRMC,143052.000,A,5130.1627,N,00000.3592,E,2.35,358.87,270116,,,A*61,51.5027084350,0.0059866003,14:30:52,27/1/2016,31,0,1.98,13,16.41
$GPRMC,143053.000,A,5130.1632,N,00000.3591,E,2.31,1.35,270116,,,A*65,51.5027198791,0.0059850001,14:30:52,27/1/2016,31,0,1.83,17,16.41
$GPRMC,143054.000,A,5130.1635,N,00000.3598,E,2.27,17.36,270116,,,A*5F,51.5027275085,0.0059966001,14:30:54,27/1/2016,33,5,4.36,43,16.41
$GPRMC,143055.000,A,5130.1648,N,00000.3591,E,2.50,9.07,270116,,,A*60,51.5027503967,0.0059850001,14:30:55,27/1/2016,37,0,2.62,27,16.41
$GPRMC,143056.000,A,5130.1668,N,00000.3589,E,3.33,9.74,270116,,,A*68,51.5027847290,0.0059816002,14:30:56,27/1/2016,38,0,3.23,20,16.41
$GPRMC,143057.000,A,5130.1676,N,00000.3591,E,2.25,355.52,270116,,,A*67,51.5027923583,0.0059850001,14:30:56,27/1/2016,34,0,4.17,107,16.41
$GPRMC,143058.000,A,5130.1686,N,00000.3589,E,1.73,2.15,270116,,,A*6C,51.5028076171,0.0059816002,14:30:58,27/1/2016,31,0,4.13,27,16.41
$GPRMC,143059.000,A,5130.1695,N,00000.3584,E,1.90,353.74,270116,,,A*6F,51.5028228759,0.0059733004,14:30:59,27/1/2016,31,0,4.02,25,16.41
$GPRMC,143100.000,A,5130.1699,N,00000.3583,E,1.82,1.25,270116,,,A*6A,51.5028305053,0.0059715995,14:31:0,27/1/2016,31,0,2.26,20,16.41
$GPRMC,143101.000,A,5130.1703,N,00000.3582,E,2.13,4.92,270116,,,A*6A,51.5028419494,0.0059700007,14:31:0,27/1/2016,31,0,1.79,13,15.92
$GPRMC,143102.000,A,5130.1706,N,00000.3584,E,1.84,26.94,270116,,,A*51,51.5028419494,0.0059733004,14:31:2,27/1/2016,31,3,5.88,32,16.41
$GPRMC,143103.000,A,5130.1710,N,00000.3587,E,1.93,336.84,270116,,,A*61,51.5028495788,0.0059783005,14:31:3,27/1/2016,30,11,5.77,71,16.41
$GPRMC,143104.000,A,5130.1716,N,00000.3586,E,2.30,0.07,270116,,,A*66,51.5028572082,0.0059766006,14:31:4,27/1/2016,30,6,3.59,23,16.41
$GPRMC,143105.000,A,5130.1722,N,00000.3584,E,2.20,357.36,270116,,,A*60,51.5028724670,0.0059733004,14:31:4,27/1/2016,30,0,3.34,24,16.41
$GPRMC,143106.000,A,5130.1728,N,00000.3583,E,2.50,4.06,270116,,,A*6F,51.5028800964,0.0059715995,14:31:6,27/1/2016,31,2,6.28,52,16.41
$GPRMC,143107.000,A,5130.1736,N,00000.3582,E,3.54,0.02,270116,,,A*65,51.5028953552,0.0059700007,14:31:7,27/1/2016,30,15,2.21,23,16.41
$GPRMC,143108.000,A,5130.1739,N,00000.3584,E,1.92,16.08,270116,,,A*56,51.5028953552,0.0059733004,14:31:8,27/1/2016,30,0,2.72,51,16.41
$GPRMC,143109.000,A,5130.1741,N,00000.3586,E,1.72,0.88,270116,,,A*6B,51.5029067993,0.0059766006,14:31:8,27/1/2016,30,0,4.13,32,16.41
$GPRMC,143110.000,A,5130.1745,N,00000.3587,E,2.27,5.52,270116,,,A*67,51.5029067993,0.0059783005,14:31:10,27/1/2016,30,1,1.65,17,16.41
$GPRMC,143111.000,A,5130.1755,N,00000.3589,E,1.81,24.90,270116,,,A*5B,51.5029220581,0.0059816002,14:31:11,27/1/2016,30,1,2.92,28,0.29
$GPRMC,143112.000,A,5130.1758,N,00000.3596,E,2.42,47.32,270116,,,A*5A,51.5029296875,0.0059932999,14:31:12,27/1/2016,30,0,1.85,15,15.92
$GPRMC,143113.000,A,5130.1764,N,00000.3599,E,2.09,7.02,270116,,,A*63,51.5029373168,0.0059983005,14:31:12,27/1/2016,30,24,7.75,56,-14.84
$GPRMC,143114.000,A,5130.1771,N,00000.3601,E,2.77,5.26,270116,,,A*6F,51.5029525756,0.0060016002,14:31:14,27/1/2016,30,2,2.66,23,-7.03
$GPRMC,143115.000,A,5130.1775,N,00000.3601,E,2.15,5.71,270116,,,A*6C,51.5029640197,0.0060016002,14:31:15,27/1/2016,31,8,11.42,34,15.92
$GPRMC,143116.000,A,5130.1781,N,00000.3601,E,2.28,2.11,270116,,,A*6B,51.5029716491,0.0060016002,14:31:16,27/1/2016,30,11,9.97,50,15.92
$GPRMC,143117.000,A,5130.1788,N,00000.3600,E,2.54,3.40,270116,,,A*6C,51.5029792785,0.0060000000,14:31:16,27/1/2016,30,10,7.20,39,15.92
$GPRMC,143118.000,A,5130.1795,N,00000.3601,E,2.73,7.20,270116,,,A*69,51.5029945373,0.0060016002,14:31:18,27/1/2016,30,13,17.86,140,15.92
$GPRMC,143119.000,A,5130.1804,N,00000.3602,E,3.21,12.57,270116,,,A*5E,51.5030021667,0.0060032997,14:31:19,27/1/2016,30,24,10.88,64,15.92
$GPRMC,143120.000,A,5130.1812,N,00000.3606,E,2.51,25.38,270116,,,A*5C,51.5030174255,0.0060100007,14:31:20,27/1/2016,29,0,3.16,34,15.92
$GPRMC,143121.000,A,5130.1820,N,00000.3611,E,3.09,26.02,270116,,,A*5C,51.5030364990,0.0060183000,14:31:20,27/1/2016,29,0,1.55,19,15.92
$GPRMC,143122.000,A,5130.1831,N,00000.3616,E,3.31,21.84,270116,,,A*5A,51.5030517578,0.0060266008,14:31:22,27/1/2016,30,0,8.24,39,15.92
$GPRMC,143123.000,A,5130.1840,N,00000.3622,E,2.96,33.41,270116,,,A*5C,51.5030670166,0.0060366001,14:31:23,27/1/2016,30,0,3.39,21,15.92
$GPRMC,143124.000,A,5130.1850,N,00000.3628,E,2.98,30.09,270116,,,A*51,51.5030860900,0.0060466003,14:31:24,27/1/2016,31,5,3.47,23,15.92
$GPRMC,143125.000,A,5130.1857,N,00000.3635,E,2.71,44.19,270116,,,A*5E,51.5030937194,0.0060583000,14:31:24,27/1/2016,31,2,3.37,20,15.92
$GPRMC,143126.000,A,5130.1864,N,00000.3641,E,2.50,40.49,270116,,,A*5C,51.5031089782,0.0060683002,14:31:26,27/1/2016,33,4,1.38,13,15.92
$GPRMC,143127.000,A,5130.1871,N,00000.3649,E,3.17,43.07,270116,,,A*5A,51.5031166076,0.0060816001,14:31:27,27/1/2016,33,1,2.14,14,15.92
$GPRMC,143128.000,A,5130.1877,N,00000.3660,E,2.97,47.33,270116,,,A*52,51.5031242370,0.0061000003,14:31:28,27/1/2016,33,4,5.11,30,15.92
$GPRMC,143129.000,A,5130.1883,N,00000.3670,E,2.79,63.93,270116,,,A*55,51.5031394958,0.0061166000,14:31:28,27/1/2016,33,0,2.13,14,15.92
$GPRMC,143130.000,A,5130.1888,N,00000.3680,E,2.69,43.31,270116,,,A*52,51.5031509399,0.0061332998,14:31:30,27/1/2016,33,7,2.90,24,15.92
$GPRMC,143131.000,A,5130.1894,N,00000.3691,E,3.00,56.19,270116,,,A*5E,51.5031585693,0.0061515998,14:31:31,27/1/2016,31,3,5.38,24,15.92
$GPRMC,143132.000,A,5130.1897,N,00000.3705,E,3.25,69.30,270116,,,A*52,51.5031585693,0.0061750001,14:31:32,27/1/2016,30,0,5.28,26,15.92
$GPRMC,143133.000,A,5130.1900,N,00000.3719,E,3.42,71.44,270116,,,A*5A,51.5031661987,0.0061983003,14:31:32,27/1/2016,29,12,6.17,40,15.92
$GPRMC,143134.000,A,5130.1898,N,00000.3732,E,3.06,98.31,270116,,,A*51,51.5031661987,0.0062199997,14:31:34,27/1/2016,28,16,9.14,36,15.92
$GPRMC,143135.000,A,5130.1898,N,00000.3747,E,3.33,87.80,270116,,,A*50,51.5031661987,0.0062450003,14:31:35,27/1/2016,28,34,28.93,116,15.92
$GPRMC,143136.000,A,5130.1895,N,00000.3761,E,3.02,116.00,270116,,,A*69,51.5031585693,0.0062683000,14:31:36,27/1/2016,28,17,26.62,121,15.92
$GPRMC,143137.000,A,5130.1893,N,00000.3771,E,1.94,117.06,270116,,,A*65,51.5031585693,0.0062849998,14:31:36,27/1/2016,28,0,11.99,72,15.92
$GPRMC,143138.000,A,5130.1892,N,00000.3775,E,1.26,148.09,270116,,,A*63,51.5031509399,0.0062915992,14:31:38,27/1/2016,28,9,20.60,143,15.43
$GPRMC,143139.000,A,5130.1888,N,00000.3778,E,1.60,153.61,270116,,,A*62,51.5031509399,0.0062966003,14:31:39,27/1/2016,29,10,39.56,192,15.43
$GPRMC,143140.000,A,5130.1883,N,00000.3784,E,1.85,150.34,270116,,,A*6C,51.5031394958,0.0063066005,14:31:40,27/1/2016,28,12,30.12,242,15.43
$GPRMC,143141.000,A,5130.1877,N,00000.3791,E,2.08,145.53,270116,,,A*61,51.5031242370,0.0063183002,14:31:40,27/1/2016,28,2,14.38,75,15.43
$GPRMC,143142.000,A,5130.1869,N,00000.3798,E,2.51,148.12,270116,,,A*60,51.5031166076,0.0063299999,14:31:42,27/1/2016,28,6,7.51,50,15.43
$GPRMC,143143.000,A,5130.1863,N,00000.3806,E,2.71,145.53,270116,,,A*69,51.5031089782,0.0063432998,14:31:43,27/1/2016,27,1,4.98,30,15.43
$GPRMC,143144.000,A,5130.1856,N,00000.3813,E,2.82,149.26,270116,,,A*6E,51.5030937194,0.0063550000,14:31:44,27/1/2016,27,5,3.66,19,14.94
$GPRMC,143145.000,A,5130.1851,N,00000.3818,E,2.54,147.49,270116,,,A*6F,51.5030860900,0.0063633003,14:31:44,27/1/2016,28,11,9.95,36,15.43
$GPRMC,143146.000,A,5130.1845,N,00000.3827,E,2.62,142.30,270116,,,A*6B,51.5030746459,0.0063782997,14:31:46,27/1/2016,28,3,6.22,34,15.43
$GPRMC,143147.000,A,5130.1839,N,00000.3836,E,2.66,138.11,270116,,,A*6B,51.5030670166,0.0063933000,14:31:47,27/1/2016,28,12,12.69,112,15.43
$GPRMC,143148.000,A,5130.1833,N,00000.3844,E,2.65,140.42,270116,,,A*61,51.5030517578,0.0064065999,14:31:48,27/1/2016,28,3,5.55,29,15.43
$GPRMC,143149.000,A,5130.1826,N,00000.3851,E,2.69,142.56,270116,,,A*6B,51.5030441284,0.0064183001,14:31:48,27/1/2016,28,7,3.28,17,15.43
$GPRMC,143150.000,A,5130.1818,N,00000.3861,E,2.77,142.31,270116,,,A*63,51.5030288696,0.0064350004,14:31:50,27/1/2016,27,0,7.17,34,15.43
$GPRMC,143151.000,A,5130.1811,N,00000.3871,E,2.86,140.99,270116,,,A*64,51.5030174255,0.0064516000,14:31:51,27/1/2016,27,0,3.99,21,15.43
$GPRMC,143152.000,A,5130.1803,N,00000.3879,E,2.93,142.26,270116,,,A*6E,51.5030021667,0.0064650006,14:31:52,27/1/2016,28,3,3.42,28,15.43
$GPRMC,143153.000,A,5130.1795,N,00000.3890,E,3.82,138.64,270116,,,A*62,51.5029945373,0.0064832997,14:31:52,27/1/2016,28,1,1.79,17,14.94
$GPRMC,143154.000,A,5130.1788,N,00000.3899,E,2.98,143.08,270116,,,A*6C,51.5029792785,0.0064983005,14:31:54,27/1/2016,27,2,1.10,18,14.94
$GPRMC,143155.000,A,5130.1782,N,00000.3906,E,2.53,145.42,270116,,,A*6F,51.5029716491,0.0065100002,14:31:55,27/1/2016,27,0,2.96,26,15.43
$GPRMC,143156.000,A,5130.1776,N,00000.3915,E,2.76,126.56,270116,,,A*62,51.5029640197,0.0065250010,14:31:56,27/1/2016,27,0,1.96,15,12.99
$GPRMC,143157.000,A,5130.1770,N,00000.3924,E,2.96,141.04,270116,,,A*6F,51.5029449462,0.0065400004,14:31:56,27/1/2016,27,4,0.84,13,14.94
$GPRMC,143158.000,A,5130.1762,N,00000.3933,E,3.11,142.70,270116,,,A*6B,51.5029373168,0.0065549998,14:31:58,27/1/2016,28,2,1.67,14,14.94
$GPRMC,143159.000,A,5130.1752,N,00000.3944,E,5.27,145.83,270116,,,A*61,51.5029220581,0.0065733003,14:31:59,27/1/2016,28,5,2.32,16,14.94
$GPRMC,143200.000,A,5130.1742,N,00000.3953,E,4.12,148.99,270116,,,A*68,51.5029067993,0.0065883007,14:32:0,27/1/2016,28,0,4.19,24,14.94
$GPRMC,143201.000,A,5130.1735,N,00000.3962,E,2.80,133.27,270116,,,A*6F,51.5028877258,0.0066033000,14:32:0,27/1/2016,27,0,1.74,13,14.94
$GPRMC,143202.000,A,5130.1729,N,00000.3970,E,2.66,132.67,270116,,,A*6F,51.5028800964,0.0066166009,14:32:2,27/1/2016,27,0,3.37,17,15.43
$GPRMC,143203.000,A,5130.1723,N,00000.3977,E,2.41,137.31,270116,,,A*60,51.5028724670,0.0066282997,14:32:3,27/1/2016,27,0,1.59,22,14.94
$GPRMC,143204.000,A,5130.1717,N,00000.3985,E,2.24,132.18,270116,,,A*60,51.5028648376,0.0066415996,14:32:4,27/1/2016,27,4,3.44,36,14.94
$GPRMC,143205.000,A,5130.1711,N,00000.3992,E,2.54,138.24,270116,,,A*63,51.5028495788,0.0066533002,14:32:4,27/1/2016,27,0,2.51,21,15.43
$GPRMC,143206.000,A,5130.1704,N,00000.3999,E,2.25,138.06,270116,,,A*69,51.5028419494,0.0066650004,14:32:6,27/1/2016,28,0,9.56,40,14.94
$GPRMC,143207.000,A,5130.1698,N,00000.4006,E,2.78,145.23,270116,,,A*61,51.5028305053,0.0066765999,14:32:7,27/1/2016,28,3,7.06,30,14.94
$GPRMC,143208.000,A,5130.1693,N,00000.4012,E,2.48,137.13,270116,,,A*65,51.5028228759,0.0066865992,14:32:8,27/1/2016,28,0,3.28,27,14.94
$GPRMC,143209.000,A,5130.1688,N,00000.4019,E,2.25,140.13,270116,,,A*6E,51.5028152465,0.0066983008,14:32:8,27/1/2016,28,0,3.72,31,14.94
$GPRMC,143210.000,A,5130.1683,N,00000.4028,E,3.15,130.41,270116,,,A*6D,51.5028076171,0.0067133002,14:32:10,27/1/2016,28,3,2.03,24,14.94
$GPRMC,143211.000,A,5130.1677,N,00000.4037,E,3.47,141.97,270116,,,A*63,51.5027923583,0.0067283005,14:32:11,27/1/2016,28,0,2.66,30,14.94
$GPRMC,143212.000,A,5130.1670,N,00000.4045,E,2.46,142.52,270116,,,A*68,51.5027847290,0.0067416000,14:32:12,27/1/2016,28,25,3.22,44,14.94
$GPRMC,143213.000,A,5130.1663,N,00000.4052,E,2.95,144.35,270116,,,A*64,51.5027732849,0.0067533006,14:32:12,27/1/2016,28,0,9.53,92,14.94
$GPRMC,143214.000,A,5130.1655,N,00000.4059,E,3.33,144.90,270116,,,A*6F,51.5027580261,0.0067649993,14:32:14,27/1/2016,28,2,7.92,51,14.94
$GPRMC,143215.000,A,5130.1648,N,00000.4063,E,1.96,153.35,270116,,,A*6F,51.5027503967,0.0067716002,14:32:15,27/1/2016,28,9,7.38,114,14.94
$GPRMC,143216.000,A,5130.1640,N,00000.4068,E,2.36,146.15,270116,,,A*60,51.5027351379,0.0067799997,14:32:16,27/1/2016,28,0,7.69,56,14.94
$GPRMC,143217.000,A,5130.1634,N,00000.4073,E,1.95,141.09,270116,,,A*68,51.5027275085,0.0067883005,14:32:16,27/1/2016,28,5,2.16,18,14.94
$GPRMC,143218.000,A,5130.1629,N,00000.4081,E,2.58,126.61,270116,,,A*6B,51.5027198791,0.0068015999,14:32:18,27/1/2016,28,4,2.00,21,14.94
$GPRMC,143219.000,A,5130.1623,N,00000.4092,E,3.33,135.80,270116,,,A*63,51.5027008056,0.0068199996,14:32:19,27/1/2016,28,5,1.45,14,14.45
$GPRMC,143220.000,A,5130.1618,N,00000.4100,E,2.25,137.33,270116,,,A*67,51.5026931762,0.0068333001,14:32:20,27/1/2016,28,8,3.28,30,14.45
$GPRMC,143221.000,A,5130.1613,N,00000.4107,E,2.73,151.04,270116,,,A*6D,51.5026855468,0.0068450002,14:32:20,27/1/2016,28,4,1.84,16,14.94
$GPRMC,143222.000,A,5130.1606,N,00000.4113,E,2.96,145.95,270116,,,A*69,51.5026779174,0.0068550004,14:32:22,27/1/2016,28,8,7.79,46,14.94
$GPRMC,143223.000,A,5130.1601,N,00000.4120,E,2.84,146.74,270116,,,A*60,51.5026702880,0.0068665990,14:32:23,27/1/2016,28,9,3.99,26,14.94
$GPRMC,143224.000,A,5130.1595,N,00000.4127,E,2.82,140.00,270116,,,A*6D,51.5026626586,0.0068782997,14:32:24,27/1/2016,28,0,8.76,99,14.94
$GPRMC,143225.000,A,5130.1588,N,00000.4136,E,3.00,135.36,270116,,,A*6C,51.5026435852,0.0068933005,14:32:24,27/1/2016,28,0,3.71,18,14.94
$GPRMC,143226.000,A,5130.1582,N,00000.4145,E,3.06,142.92,270116,,,A*69,51.5026359558,0.0069082999,14:32:26,27/1/2016,28,5,4.80,28,14.94
$GPRMC,143227.000,A,5130.1575,N,00000.4153,E,2.79,141.22,270116,,,A*66,51.5026283264,0.0069216003,14:32:27,27/1/2016,28,44,6.44,77,14.94
$GPRMC,143228.000,A,5130.1568,N,00000.4160,E,3.05,150.24,270116,,,A*69,51.5026130676,0.0069333004,14:32:28,27/1/2016,29,30,8.50,122,14.94
$GPRMC,143229.000,A,5130.1564,N,00000.4164,E,0.34,176.57,270116,,,A*61,51.5026054382,0.0069400005,14:32:28,27/1/2016,28,6,4.24,28,14.94
$GPRMC,143230.000,A,5130.1558,N,00000.4171,E,1.78,146.99,270116,,,A*6A,51.5025978088,0.0069516000,14:32:30,27/1/2016,28,21,7.42,50,14.94
$GPRMC,143231.000,A,5130.1549,N,00000.4181,E,2.65,142.45,270116,,,A*6E,51.5025787353,0.0069683003,14:32:31,27/1/2016,28,17,9.16,54,14.94
$GPRMC,143232.000,A,5130.1542,N,00000.4187,E,2.80,148.31,270116,,,A*62,51.5025711059,0.0069783000,14:32:32,27/1/2016,28,14,7.95,50,14.94
$GPRMC,143233.000,A,5130.1534,N,00000.4195,E,2.95,146.43,270116,,,A*6E,51.5025558471,0.0069916009,14:32:32,27/1/2016,28,15,10.25,116,14.94
$GPRMC,143234.000,A,5130.1529,N,00000.4202,E,2.23,129.93,270116,,,A*61,51.5025482177,0.0070033006,14:32:34,27/1/2016,28,1,10.33,70,14.45
$GPRMC,143235.000,A,5130.1523,N,00000.4210,E,3.28,138.95,270116,,,A*65,51.5025405883,0.0070165996,14:32:35,27/1/2016,28,2,3.18,28,14.45
$GPRMC,143236.000,A,5130.1518,N,00000.4217,E,2.14,144.20,270116,,,A*62,51.5025291442,0.0070282993,14:32:36,27/1/2016,28,3,3.05,28,10.55
$GPRMC,143237.000,A,5130.1511,N,00000.4224,E,2.73,150.71,270116,,,A*6A,51.5025138854,0.0070400004,14:32:36,27/1/2016,28,11,8.87,50,14.94
$GPRMC,143238.000,A,5130.1504,N,00000.4232,E,3.15,144.76,270116,,,A*65,51.5025062561,0.0070532999,14:32:38,27/1/2016,29,0,14.73,104,14.94
$GPRMC,143239.000,A,5130.1496,N,00000.4238,E,2.92,153.09,270116,,,A*64,51.5024909973,0.0070633001,14:32:39,27/1/2016,29,9,22.25,161,14.94
$GPRMC,143240.000,A,5130.1491,N,00000.4245,E,2.35,138.57,270116,,,A*6C,51.5024833679,0.0070749998,14:32:40,27/1/2016,29,4,9.60,44,14.94
$GPRMC,143241.000,A,5130.1484,N,00000.4253,E,3.14,146.10,270116,,,A*66,51.5024757385,0.0070883007,14:32:40,27/1/2016,29,2,3.54,24,14.94
$GPRMC,143242.000,A,5130.1477,N,00000.4261,E,3.46,142.81,270116,,,A*63,51.5024566650,0.0071016006,14:32:42,27/1/2016,29,7,4.28,33,14.94
$GPRMC,143243.000,A,5130.1464,N,00000.4269,E,2.61,141.59,270116,,,A*6A,51.5024414062,0.0071150007,14:32:43,27/1/2016,29,4,5.26,30,14.94
$GPRMC,143244.000,A,5130.1457,N,00000.4275,E,2.15,154.26,270116,,,A*6F,51.5024261474,0.0071250000,14:32:44,27/1/2016,29,2,3.73,36,14.94
$GPRMC,143245.000,A,5130.1451,N,00000.4281,E,2.57,133.04,270116,,,A*64,51.5024185180,0.0071350007,14:32:44,27/1/2016,28,4,2.66,18,14.94
$GPRMC,143246.000,A,5130.1443,N,00000.4289,E,3.37,145.73,270116,,,A*6A,51.5024070739,0.0071483001,14:32:46,27/1/2016,29,3,4.62,29,14.45
$GPRMC,143247.000,A,5130.1437,N,00000.4295,E,2.10,155.24,270116,,,A*62,51.5023918151,0.0071583003,14:32:47,27/1/2016,29,0,2.73,15,14.45
$GPRMC,143248.000,A,5130.1429,N,00000.4300,E,2.82,155.64,270116,,,A*60,51.5023841857,0.0071666002,14:32:48,27/1/2016,28,13,4.67,20,14.94
$GPRMC,143249.000,A,5130.1422,N,00000.4303,E,3.50,154.79,270116,,,A*6A,51.5023689270,0.0071716003,14:32:48,27/1/2016,28,2,4.69,23,14.45
$GPRMC,143250.000,A,5130.1415,N,00000.4311,E,2.94,138.90,270116,,,A*61,51.5023612976,0.0071850004,14:32:50,27/1/2016,28,12,7.07,39,14.45
$GPRMC,143251.000,A,5130.1408,N,00000.4318,E,2.94,147.00,270116,,,A*64,51.5023422241,0.0071965999,14:32:51,27/1/2016,28,10,2.94,19,14.45
$GPRMC,143252.000,A,5130.1402,N,00000.4323,E,2.48,153.84,270116,,,A*6D,51.5023345947,0.0072050004,14:32:52,27/1/2016,28,3,4.95,31,14.45
$GPRMC,143253.000,A,5130.1397,N,00000.4326,E,1.99,157.39,270116,,,A*6F,51.5023269653,0.0072100009,14:32:52,27/1/2016,28,6,2.44,17,14.94
$GPRMC,143254.000,A,5130.1390,N,00000.4331,E,3.22,153.15,270116,,,A*61,51.5023193359,0.0072183008,14:32:54,27/1/2016,29,10,5.05,35,14.45
$GPRMC,143255.000,A,5130.1382,N,00000.4338,E,3.33,148.48,270116,,,A*68,51.5023040771,0.0072300004,14:32:55,27/1/2016,29,0,3.61,22,14.45
$GPRMC,143256.000,A,5130.1376,N,00000.4347,E,2.18,132.55,270116,,,A*61,51.5022964477,0.0072449994,14:32:56,27/1/2016,28,0,3.75,20,14.94
$GPRMC,143257.000,A,5130.1370,N,00000.4353,E,2.66,152.47,270116,,,A*6F,51.5022850036,0.0072550005,14:32:56,27/1/2016,28,9,3.01,26,14.45
$GPRMC,143258.000,A,5130.1363,N,00000.4359,E,2.80,146.82,270116,,,A*6C,51.5022697448,0.0072650003,14:32:58,27/1/2016,29,8,4.43,25,14.45
$GPRMC,143259.000,A,5130.1358,N,00000.4365,E,2.09,147.93,270116,,,A*6A,51.5022621154,0.0072750000,14:32:59,27/1/2016,28,1,5.07,30,14.45
$GPRMC,143300.000,A,5130.1352,N,00000.4374,E,2.42,130.25,270116,,,A*6F,51.5022544860,0.0072899999,14:33:0,27/1/2016,28,15,5.73,30,14.45
$GPRMC,143301.000,A,5130.1346,N,00000.4380,E,2.77,146.54,270116,,,A*61,51.5022468566,0.0073000001,14:33:0,27/1/2016,28,0,5.08,23,14.45
$GPRMC,143302.000,A,5130.1339,N,00000.4385,E,2.14,140.21,270116,,,A*6E,51.5022315979,0.0073082995,14:33:2,27/1/2016,28,15,7.78,35,14.45
$GPRMC,143303.000,A,5130.1333,N,00000.4391,E,2.03,130.27,270116,,,A*67,51.5022201538,0.0073183007,14:33:3,27/1/2016,28,1,4.43,21,14.45
$GPRMC,143304.000,A,5130.1328,N,00000.4399,E,4.05,156.08,270116,,,A*6F,51.5022125244,0.0073316006,14:33:4,27/1/2016,28,4,16.60,98,14.45
$GPRMC,143305.000,A,5130.1321,N,00000.4407,E,2.63,140.03,270116,,,A*6D,51.5022048950,0.0073449997,14:33:4,27/1/2016,28,17,20.51,116,14.45
$GPRMC,143306.000,A,5130.1314,N,00000.4416,E,3.44,134.36,270116,,,A*69,51.5021896362,0.0073600006,14:33:6,27/1/2016,29,17,15.72,81,13.96
$GPRMC,143307.000,A,5130.1309,N,00000.4424,E,2.14,127.60,270116,,,A*60,51.5021820068,0.0073733000,14:33:7,27/1/2016,29,5,7.18,43,14.45
$GPRMC,143308.000,A,5130.1304,N,00000.4429,E,2.22,147.98,270116,,,A*6B,51.5021743774,0.0073816003,14:33:8,27/1/2016,29,10,13.12,83,14.45
$GPRMC,143309.000,A,5130.1298,N,00000.4436,E,2.59,136.61,270116,,,A*6C,51.5021629333,0.0073933000,14:33:8,27/1/2016,29,6,17.87,116,14.45
$GPRMC,143310.000,A,5130.1292,N,00000.4447,E,2.84,130.08,270116,,,A*61,51.5021553039,0.0074115996,14:33:10,27/1/2016,29,11,11.38,45,14.45
$GPRMC,143311.000,A,5130.1287,N,00000.4455,E,2.76,126.92,270116,,,A*6E,51.5021476745,0.0074250006,14:33:11,27/1/2016,29,8,8.37,34,14.45
$GPRMC,143312.000,A,5130.1282,N,00000.4464,E,2.41,131.70,270116,,,A*64,51.5021400451,0.0074400000,14:33:12,27/1/2016,29,18,16.24,47,14.45
$GPRMC,143313.000,A,5130.1275,N,00000.4473,E,2.72,140.73,270116,,,A*6E,51.5021247863,0.0074550004,14:33:12,27/1/2016,29,9,13.41,46,14.45
$GPRMC,143314.000,A,5130.1267,N,00000.4480,E,3.09,146.62,270116,,,A*6D,51.5021095275,0.0074665999,14:33:14,27/1/2016,30,16,13.49,55,14.45
$GPRMC,143315.000,A,5130.1260,N,00000.4490,E,3.29,129.98,270116,,,A*64,51.5020980834,0.0074833006,14:33:15,27/1/2016,32,12,13.10,78,14.45
$GPRMC,143316.000,A,5130.1255,N,00000.4499,E,2.60,131.05,270116,,,A*69,51.5020904541,0.0074983000,14:33:16,27/1/2016,35,1,18.59,76,14.45
$GPRMC,143317.000,A,5130.1248,N,00000.4503,E,2.20,152.47,270116,,,A*61,51.5020828247,0.0075050001,14:33:16,27/1/2016,36,7,9.60,47,14.45
$GPRMC,143318.000,A,5130.1242,N,00000.4508,E,2.26,138.74,270116,,,A*65,51.5020675659,0.0075132999,14:33:18,27/1/2016,36,15,12.24,46,14.45
$GPRMC,143319.000,A,5130.1238,N,00000.4514,E,1.63,144.03,270116,,,A*6D,51.5020675659,0.0075232992,14:33:19,27/1/2016,39,15,21.48,60,14.45
$GPRMC,143320.000,A,5130.1233,N,00000.4518,E,1.86,146.76,270116,,,A*6B,51.5020599365,0.0075300006,14:33:20,27/1/2016,38,21,17.98,53,13.96
$GPRMC,143321.000,A,5130.1226,N,00000.4522,E,2.22,150.02,270116,,,A*6E,51.5020408630,0.0075365996,14:33:20,27/1/2016,37,17,26.35,87,13.96
$GPRMC,143322.000,A,5130.1222,N,00000.4527,E,1.97,130.49,270116,,,A*68,51.5020332336,0.0075450000,14:33:22,27/1/2016,36,20,26.85,90,13.96
$GPRMC,143323.000,A,5130.1217,N,00000.4537,E,2.57,111.97,270116,,,A*61,51.5020256042,0.0075616002,14:33:23,27/1/2016,35,19,24.96,69,11.52
$GPRMC,143324.000,A,5130.1212,N,00000.4546,E,2.38,139.34,270116,,,A*6F,51.5020179748,0.0075766000,14:33:24,27/1/2016,35,9,15.14,73,13.96
$GPRMC,143325.000,A,5130.1206,N,00000.4555,E,2.89,136.41,270116,,,A*6E,51.5020103454,0.0075915999,14:33:24,27/1/2016,34,13,9.85,54,13.96
$GPRMC,143326.000,A,5130.1200,N,00000.4565,E,2.80,136.81,270116,,,A*6D,51.5020027160,0.0076083002,14:33:26,27/1/2016,32,7,14.73,51,13.96
$GPRMC,143327.000,A,5130.1193,N,00000.4573,E,2.35,139.23,270116,,,A*6B,51.5019874572,0.0076216006,14:33:27,27/1/2016,31,7,12.72,39,13.96
$GPRMC,143328.000,A,5130.1188,N,00000.4578,E,2.26,142.34,270116,,,A*6D,51.5019760131,0.0076300001,14:33:28,27/1/2016,29,14,8.27,35,13.96
$GPRMC,143329.000,A,5130.1182,N,00000.4587,E,2.60,137.10,270116,,,A*60,51.5019683837,0.0076450004,14:33:28,27/1/2016,29,18,14.43,40,13.96
$GPRMC,143330.000,A,5130.1175,N,00000.4597,E,2.95,134.78,270116,,,A*66,51.5019607543,0.0076616001,14:33:30,27/1/2016,29,3,8.97,39,13.96
$GPRMC,143331.000,A,5130.1169,N,00000.4605,E,2.15,142.11,270116,,,A*64,51.5019454956,0.0076750001,14:33:31,27/1/2016,29,16,7.27,40,13.96
$GPRMC,143332.000,A,5130.1162,N,00000.4611,E,2.82,148.40,270116,,,A*69,51.5019378662,0.0076849994,14:33:32,27/1/2016,29,18,24.45,77,13.96
$GPRMC,143333.000,A,5130.1155,N,00000.4620,E,3.23,140.06,270116,,,A*6E,51.5019302368,0.0077000007,14:33:32,27/1/2016,29,35,27.78,99,13.96
$GPRMC,143334.000,A,5130.1148,N,00000.4629,E,3.26,147.55,270116,,,A*68,51.5019111633,0.0077150001,14:33:34,27/1/2016,29,37,26.08,67,13.96
$GPRMC,143335.000,A,5130.1139,N,00000.4638,E,3.10,148.58,270116,,,A*68,51.5018959045,0.0077300004,14:33:35,27/1/2016,29,20,23.60,72,13.96
$GPRMC,143336.000,A,5130.1132,N,00000.4646,E,2.33,135.27,270116,,,A*6B,51.5018882751,0.0077433004,14:33:36,27/1/2016,29,30,24.33,78,13.96
$GPRMC,143337.000,A,5130.1126,N,00000.4655,E,2.69,132.45,270116,,,A*61,51.5018806457,0.0077583003,14:33:36,27/1/2016,28,30,20.63,71,13.96
$GPRMC,143338.000,A,5130.1120,N,00000.4663,E,2.90,141.54,270116,,,A*6F,51.5018653869,0.0077716007,14:33:38,27/1/2016,28,22,15.45,49,10.55
$GPRMC,143339.000,A,5130.1114,N,00000.4670,E,2.91,137.05,270116,,,A*6F,51.5018539428,0.0077833003,14:33:39,27/1/2016,27,12,17.29,59,13.96
$GPRMC,143340.000,A,5130.1107,N,00000.4678,E,3.26,144.89,270116,,,A*66,51.5018463134,0.0077966003,14:33:40,27/1/2016,27,10,9.17,49,13.96
$GPRMC,143341.000,A,5130.1100,N,00000.4687,E,3.72,142.60,270116,,,A*60,51.5018310546,0.0078115997,14:33:40,27/1/2016,29,12,17.07,54,13.96
$GPRMC,143342.000,A,5130.1094,N,00000.4696,E,2.71,137.11,270116,,,A*69,51.5018234252,0.0078266000,14:33:42,27/1/2016,30,38,15.76,72,13.96
$GPRMC,143343.000,A,5130.1087,N,00000.4705,E,2.56,130.99,270116,,,A*63,51.5018157958,0.0078416004,14:33:43,27/1/2016,28,40,39.61,112,13.96
$GPRMC,143344.000,A,5130.1083,N,00000.4713,E,1.71,115.95,270116,,,A*6A,51.5018081665,0.0078549995,14:33:44,27/1/2016,27,54,41.01,103,13.96
$GPRMC,143345.000,A,5130.1079,N,00000.4719,E,2.00,125.30,270116,,,A*6D,51.5017967224,0.0078650002,14:33:44,27/1/2016,27,22,32.20,87,13.96
$GPRMC,143346.000,A,5130.1076,N,00000.4729,E,2.79,110.72,270116,,,A*6C,51.5017890930,0.0078816003,14:33:46,27/1/2016,27,33,41.61,113,13.96
$GPRMC,143347.000,A,5130.1073,N,00000.4739,E,2.42,109.97,270116,,,A*62,51.5017890930,0.0078983001,14:33:47,27/1/2016,27,27,43.98,118,13.96
$GPRMC,143348.000,A,5130.1071,N,00000.4750,E,2.67,109.00,270116,,,A*69,51.5017814636,0.0079166002,14:33:48,27/1/2016,27,5,28.04,77,13.96
$GPRMC,143349.000,A,5130.1069,N,00000.4760,E,1.65,92.77,270116,,,A*50,51.5017814636,0.0079333000,14:33:48,27/1/2016,27,10,15.06,74,13.96
$GPRMC,143350.000,A,5130.1065,N,00000.4770,E,2.53,133.16,270116,,,A*6E,51.5017738342,0.0079500007,14:33:50,27/1/2016,27,23,16.24,70,13.96
$GPRMC,143351.000,A,5130.1059,N,00000.4780,E,3.36,131.28,270116,,,A*62,51.5017662048,0.0079666004,14:33:51,27/1/2016,27,12,14.81,54,13.96
$GPRMC,143352.000,A,5130.1052,N,00000.4791,E,3.37,139.11,270116,,,A*69,51.5017509460,0.0079850006,14:33:52,27/1/2016,27,22,32.79,223,13.96
$GPRMC,143353.000,A,5130.1045,N,00000.4800,E,3.27,141.35,270116,,,A*61,51.5017433166,0.0080000009,14:33:52,27/1/2016,27,40,41.32,186,13.96
$GPRMC,143354.000,A,5130.1040,N,00000.4810,E,2.87,132.18,270116,,,A*62,51.5017318725,0.0080166006,14:33:54,27/1/2016,26,10,12.37,95,13.96
$GPRMC,143355.000,A,5130.1033,N,00000.4820,E,2.73,131.92,270116,,,A*6E,51.5017242431,0.0080333003,14:33:55,27/1/2016,27,4,4.10,24,13.96
$GPRMC,143356.000,A,5130.1026,N,00000.4828,E,2.90,147.58,270116,,,A*6B,51.5017089843,0.0080466003,14:33:56,27/1/2016,27,5,4.10,47,13.96
$GPRMC,143357.000,A,5130.1018,N,00000.4836,E,3.82,147.32,270116,,,A*66,51.5016937255,0.0080599994,14:33:56,27/1/2016,27,16,5.73,67,13.96
$GPRMC,143358.000,A,5130.1010,N,00000.4843,E,3.45,152.17,270116,,,A*6B,51.5016860961,0.0080716009,14:33:58,27/1/2016,27,5,11.05,131,13.48
$GPRMC,143359.000,A,5130.1003,N,00000.4848,E,3.02,152.69,270116,,,A*69,51.5016670227,0.0080799999,14:33:59,27/1/2016,27,22,37.22,182,13.48
$GPRMC,143400.000,A,5130.0998,N,00000.4852,E,2.16,148.46,270116,,,A*61,51.5016593933,0.0080866003,14:34:0,27/1/2016,27,10,8.42,37,13.48
$GPRMC,143401.000,A,5130.0992,N,00000.4855,E,2.75,154.00,270116,,,A*67,51.5016517639,0.0080916004,14:34:0,27/1/2016,27,31,17.58,90,13.48
$GPRMC,143402.000,A,5130.0985,N,00000.4858,E,2.36,158.44,270116,,,A*64,51.5016441345,0.0080965995,14:34:2,27/1/2016,27,8,19.48,164,13.48
$GPRMC,143403.000,A,5130.0978,N,00000.4860,E,2.84,162.62,270116,,,A*68,51.5016288757,0.0081000003,14:34:3,27/1/2016,27,8,11.32,46,13.48
$GPRMC,143404.000,A,5130.0971,N,00000.4862,E,2.58,169.39,270116,,,A*60,51.5016212463,0.0081033000,14:34:4,27/1/2016,27,61,9.78,75,13.48
$GPRMC,143405.000,A,5130.0967,N,00000.4860,E,1.78,190.42,270116,,,A*6F,51.5016098022,0.0081000003,14:34:4,27/1/2016,27,23,17.65,106,13.48
$GPRMC,143406.000,A,5130.0961,N,00000.4862,E,2.54,158.48,270116,,,A*6B,51.5016021728,0.0081033000,14:34:6,27/1/2016,27,12,17.30,173,13.48
$GPRMC,143407.000,A,5130.0956,N,00000.4864,E,1.73,160.63,270116,,,A*6C,51.5015945434,0.0081066007,14:34:7,27/1/2016,27,102,30.19,237,13.48
$GPRMC,143408.000,A,5130.0950,N,00000.4867,E,2.44,164.54,270116,,,A*61,51.5015869140,0.0081115999,14:34:8,27/1/2016,27,60,35.42,118,13.48
$GPRMC,143409.000,A,5130.0944,N,00000.4870,E,1.56,157.06,270116,,,A*64,51.5015716552,0.0081166000,14:34:8,27/1/2016,27,19,11.84,72,13.48
$GPRMC,143410.000,A,5130.0938,N,00000.4872,E,2.40,166.53,270116,,,A*63,51.5015640258,0.0081200008,14:34:10,27/1/2016,27,15,14.85,66,10.55
$GPRMC,143411.000,A,5130.0932,N,00000.4875,E,2.68,154.88,270116,,,A*62,51.5015525817,0.0081250009,14:34:11,27/1/2016,27,17,28.37,160,13.48
$GPRMC,143412.000,A,5130.0925,N,00000.4881,E,2.21,146.91,270116,,,A*6A,51.5015373229,0.0081350002,14:34:12,27/1/2016,28,6,17.14,129,13.48
$GPRMC,143413.000,A,5130.0920,N,00000.4887,E,2.16,144.89,270116,,,A*67,51.5015296936,0.0081449995,14:34:12,27/1/2016,27,17,9.30,59,13.48
$GPRMC,143414.000,A,5130.0915,N,00000.4894,E,2.67,138.07,270116,,,A*6F,51.5015220642,0.0081566009,14:34:14,27/1/2016,28,2,27.96,160,13.48
$GPRMC,143415.000,A,5130.0907,N,00000.4900,E,3.06,163.47,270116,,,A*6D,51.5015144348,0.0081666002,14:34:15,27/1/2016,28,3,19.47,116,13.48
$GPRMC,143416.000,A,5130.0900,N,00000.4904,E,2.45,159.16,270116,,,A*66,51.5014991760,0.0081732997,14:34:16,27/1/2016,28,10,13.40,76,13.48
$GPRMC,143417.000,A,5130.0892,N,00000.4908,E,2.51,154.70,270116,,,A*69,51.5014877319,0.0081800003,14:34:16,27/1/2016,27,13,7.97,45,13.48
$GPRMC,143418.000,A,5130.0886,N,00000.4913,E,2.52,145.90,270116,,,A*64,51.5014724731,0.0081883010,14:34:18,27/1/2016,27,4,13.05,125,13.48
$GPRMC,143419.000,A,5130.0881,N,00000.4918,E,1.75,156.01,270116,,,A*65,51.5014648437,0.0081966009,14:34:19,27/1/2016,28,72,74.20,328,13.48
$GPRMC,143420.000,A,5130.0877,N,00000.4923,E,1.75,144.26,270116,,,A*68,51.5014648437,0.0082049999,14:34:20,27/1/2016,28,18,27.05,128,13.48
$GPRMC,143421.000,A,5130.0872,N,00000.4930,E,1.98,139.24,270116,,,A*65,51.5014572143,0.0082166004,14:34:20,27/1/2016,28,1,19.27,109,13.48
$GPRMC,143422.000,A,5130.0868,N,00000.4938,E,2.49,141.55,270116,,,A*63,51.5014495849,0.0082300004,14:34:22,27/1/2016,28,68,45.11,333,12.99
$GPRMC,143423.000,A,5130.0860,N,00000.4941,E,2.86,165.73,270116,,,A*65,51.5014305114,0.0082350006,14:34:23,27/1/2016,28,35,37.94,225,12.99
$GPRMC,143424.000,A,5130.0853,N,00000.4945,E,2.51,147.07,270116,,,A*6F,51.5014228820,0.0082416000,14:34:24,27/1/2016,28,10,21.16,136,12.99
$GPRMC,143425.000,A,5130.0847,N,00000.4950,E,2.34,149.80,270116,,,A*6D,51.5014076232,0.0082499990,14:34:24,27/1/2016,28,17,12.94,99,12.99
$GPRMC,143426.000,A,5130.0841,N,00000.4956,E,2.62,148.95,270116,,,A*68,51.5013999938,0.0082600002,14:34:26,27/1/2016,28,7,62.25,421,12.99
$GPRMC,143427.000,A,5130.0835,N,00000.4962,E,2.84,140.79,270116,,,A*6F,51.5013923645,0.0082700004,14:34:27,27/1/2016,28,11,18.86,98,12.99
$GPRMC,143428.000,A,5130.0828,N,00000.4970,E,2.78,148.58,270116,,,A*67,51.5013847351,0.0082833003,14:34:28,27/1/2016,28,2,11.09,95,12.99
$GPRMC,143429.000,A,5130.0822,N,00000.4975,E,2.06,154.92,270116,,,A*6B,51.5013656616,0.0082916011,14:34:28,27/1/2016,28,29,33.25,303,12.99
$GPRMC,143430.000,A,5130.0816,N,00000.4980,E,2.14,149.16,270116,,,A*6D,51.5013580322,0.0083000001,14:34:30,27/1/2016,28,10,22.63,141,12.99
$GPRMC,143431.000,A,5130.0810,N,00000.4985,E,2.46,144.15,270116,,,A*66,51.5013504028,0.0083083000,14:34:31,27/1/2016,28,2,7.11,36,12.99
$GPRMC,143432.000,A,5130.0802,N,00000.4988,E,2.70,157.26,270116,,,A*6C,51.5013351440,0.0083132991,14:34:32,27/1/2016,28,5,5.50,29,12.99
$GPRMC,143433.000,A,5130.0794,N,00000.4992,E,2.50,148.77,270116,,,A*6E,51.5013275146,0.0083199996,14:34:32,27/1/2016,28,4,7.41,66,12.99
$GPRMC,143434.000,A,5130.0787,N,00000.4998,E,2.54,151.31,270116,,,A*6F,51.5013084411,0.0083300008,14:34:34,27/1/2016,28,7,5.42,38,12.99
$GPRMC,143435.000,A,5130.0782,N,00000.5003,E,1.83,150.47,270116,,,A*68,51.5013008117,0.0083383007,14:34:35,27/1/2016,28,9,18.53,94,12.99
$GPRMC,143436.000,A,5130.0777,N,00000.5011,E,2.12,142.06,270116,,,A*6F,51.5012931823,0.0083516006,14:34:36,27/1/2016,28,11,7.25,51,12.99
$GPRMC,143437.000,A,5130.0772,N,00000.5018,E,1.82,131.63,270116,,,A*6F,51.5012855529,0.0083633003,14:34:36,27/1/2016,28,13,13.69,94,12.99
$GPRMC,143438.000,A,5130.0767,N,00000.5023,E,2.40,154.82,270116,,,A*6D,51.5012779235,0.0083716001,14:34:38,27/1/2016,28,18,4.76,38,12.99
$GPRMC,143439.000,A,5130.0761,N,00000.5028,E,1.95,153.66,270116,,,A*67,51.5012702941,0.0083800010,14:34:39,27/1/2016,29,10,14.54,107,12.99
$GPRMC,143440.000,A,5130.0757,N,00000.5036,E,2.19,136.27,270116,,,A*62,51.5012626647,0.0083933010,14:34:40,27/1/2016,29,6,8.13,74,12.99
$GPRMC,143441.000,A,5130.0751,N,00000.5040,E,2.72,159.73,270116,,,A*61,51.5012550354,0.0083999996,14:34:40,27/1/2016,29,62,52.82,292,12.99
$GPRMC,143442.000,A,5130.0744,N,00000.5044,E,2.30,158.64,270116,,,A*63,51.5012359619,0.0084065999,14:34:42,27/1/2016,28,7,24.39,100,12.99
$GPRMC,143443.000,A,5130.0737,N,00000.5050,E,2.27,153.30,270116,,,A*6F,51.5012283325,0.0084165992,14:34:43,27/1/2016,29,3,35.91,188,12.99
$GPRMC,143444.000,A,5130.0733,N,00000.5055,E,1.62,146.76,270116,,,A*6D,51.5012207031,0.0084250001,14:34:44,27/1/2016,29,2,63.14,390,12.99
$GPRMC,143445.000,A,5130.0728,N,00000.5062,E,2.75,150.10,270116,,,A*60,51.5012130737,0.0084366016,14:34:44,27/1/2016,29,6,9.41,77,12.99
$GPRMC,143446.000,A,5130.0722,N,00000.5069,E,2.31,143.14,270116,,,A*64,51.5012054443,0.0084483013,14:34:46,27/1/2016,29,0,17.87,129,12.99
$GPRMC,143447.000,A,5130.0718,N,00000.5074,E,1.28,155.04,270116,,,A*6D,51.5011978149,0.0084566011,14:34:47,27/1/2016,29,4,22.28,132,12.99
$GPRMC,143448.000,A,5130.0712,N,00000.5079,E,1.81,151.81,270116,,,A*6F,51.5011863708,0.0084650001,14:34:48,27/1/2016,30,13,46.79,311,12.99
$GPRMC,143449.000,A,5130.0708,N,00000.5086,E,1.83,145.52,270116,,,A*6C,51.5011787414,0.0084765996,14:34:48,27/1/2016,30,32,25.15,208,12.99
$GPRMC,143450.000,A,5130.0701,N,00000.5092,E,1.99,150.05,270116,,,A*65,51.5011711120,0.0084865999,14:34:50,27/1/2016,29,6,18.05,188,12.99
$GPRMC,143451.000,A,5130.0694,N,00000.5099,E,2.30,147.73,270116,,,A*65,51.5011558532,0.0084982995,14:34:51,27/1/2016,29,13,27.79,135,12.99
$GPRMC,143452.000,A,5130.0686,N,00000.5104,E,2.42,154.41,270116,,,A*66,51.5011405944,0.0085065994,14:34:52,27/1/2016,29,11,19.12,144,12.99
$GPRMC,143453.000,A,5130.0680,N,00000.5108,E,2.33,156.19,270116,,,A*64,51.5011329650,0.0085133008,14:34:52,27/1/2016,30,7,11.91,102,12.99
$GPRMC,143454.000,A,5130.0671,N,00000.5116,E,2.63,151.09,270116,,,A*61,51.5011138916,0.0085265998,14:34:54,27/1/2016,30,48,16.67,152,12.99
$GPRMC,143455.000,A,5130.0663,N,00000.5122,E,2.63,150.91,270116,,,A*64,51.5011062622,0.0085366001,14:34:55,27/1/2016,29,0,16.48,121,12.99
$GPRMC,143456.000,A,5130.0655,N,00000.5127,E,2.62,154.37,270116,,,A*6E,51.5010910034,0.0085450000,14:34:56,27/1/2016,30,0,11.48,108,12.99
$GPRMC,143457.000,A,5130.0648,N,00000.5134,E,2.63,152.54,270116,,,A*63,51.5010833740,0.0085566005,14:34:56,27/1/2016,30,5,4.03,30,12.99
$GPRMC,143458.000,A,5130.0643,N,00000.5140,E,2.48,150.66,270116,,,A*6E,51.5010757446,0.0085665998,14:34:58,27/1/2016,29,5,11.97,60,12.99
$GPRMC,143459.000,A,5130.0635,N,00000.5148,E,2.57,145.21,270116,,,A*6F,51.5010566711,0.0085799999,14:34:59,27/1/2016,30,42,31.74,246,12.99
$GPRMC,143500.000,A,5130.0631,N,00000.5152,E,2.32,146.97,270116,,,A*60,51.5010490417,0.0085866003,14:35:0,27/1/2016,30,0,26.05,239,12.99
$GPRMC,143501.000,A,5130.0626,N,00000.5160,E,2.27,144.65,270116,,,A*6D,51.5010414123,0.0086000003,14:35:0,27/1/2016,29,11,28.42,172,10.55
$GPRMC,143502.000,A,5130.0621,N,00000.5168,E,2.20,140.06,270116,,,A*67,51.5010337829,0.0086133003,14:35:2,27/1/2016,29,11,48.46,367,7.62
$GPRMC,143503.000,A,5130.0616,N,00000.5174,E,2.12,139.43,270116,,,A*61,51.5010261535,0.0086233005,14:35:3,27/1/2016,29,4,6.89,34,12.50
$GPRMC,143504.000,A,5130.0611,N,00000.5180,E,2.26,145.24,270116,,,A*67,51.5010185241,0.0086333007,14:35:4,27/1/2016,30,3,3.03,60,12.50
$GPRMC,143505.000,A,5130.0605,N,00000.5187,E,2.38,147.43,270116,,,A*68,51.5010108947,0.0086449995,14:35:4,27/1/2016,30,0,1.15,10,12.50
$GPRMC,143506.000,A,5130.0599,N,00000.5195,E,2.36,146.03,270116,,,A*65,51.5009994506,0.0086583003,14:35:6,27/1/2016,30,1,2.26,20,12.50
$GPRMC,143507.000,A,5130.0593,N,00000.5202,E,2.46,143.58,270116,,,A*6F,51.5009841918,0.0086700010,14:35:7,27/1/2016,29,5,2.24,16,12.50
$GPRMC,143508.000,A,5130.0586,N,00000.5209,E,2.52,144.18,270116,,,A*69,51.5009765625,0.0086816005,14:35:8,27/1/2016,30,1,3.81,24,12.50
$GPRMC,143509.000,A,5130.0580,N,00000.5214,E,2.51,147.64,270116,,,A*69,51.5009689331,0.0086900005,14:35:8,27/1/2016,30,15,1.29,15,12.50
$GPRMC,143510.000,A,5130.0574,N,00000.5221,E,2.62,148.41,270116,,,A*64,51.5009613037,0.0087016010,14:35:10,27/1/2016,30,18,7.72,54,12.99
$GPRMC,143511.000,A,5130.0568,N,00000.5227,E,2.68,147.28,270116,,,A*64,51.5009422302,0.0087116003,14:35:11,27/1/2016,30,4,7.55,51,12.50
$GPRMC,143512.000,A,5130.0562,N,00000.5233,E,2.49,149.15,270116,,,A*6B,51.5009346008,0.0087216005,14:35:12,27/1/2016,29,11,5.99,101,12.99
$GPRMC,143513.000,A,5130.0558,N,00000.5240,E,1.93,139.12,270116,,,A*63,51.5009269714,0.0087333011,14:35:12,27/1/2016,30,74,35.86,376,12.99
$GPRMC,143514.000,A,5130.0553,N,00000.5247,E,2.53,144.78,270116,,,A*61,51.5009193420,0.0087450008,14:35:14,27/1/2016,30,7,21.56,137,12.99
$GPRMC,143515.000,A,5130.0547,N,00000.5254,E,2.28,142.62,270116,,,A*66,51.5009117126,0.0087565994,14:35:15,27/1/2016,30,63,28.60,298,12.99
$GPRMC,143516.000,A,5130.0541,N,00000.5264,E,2.57,136.79,270116,,,A*61,51.5009040832,0.0087733001,14:35:16,27/1/2016,30,18,59.28,406,12.99
$GPRMC,143517.000,A,5130.0536,N,00000.5271,E,0.77,162.80,270116,,,A*63,51.5008964538,0.0087850008,14:35:16,27/1/2016,30,81,44.48,201,12.50
$GPRMC,143518.000,A,5130.0529,N,00000.5279,E,2.02,152.73,270116,,,A*65,51.5008773803,0.0087983007,14:35:18,27/1/2016,30,87,59.92,276,12.50
$GPRMC,143519.000,A,5130.0523,N,00000.5286,E,2.30,152.32,270116,,,A*6A,51.5008697509,0.0088100004,14:35:19,27/1/2016,30,58,74.83,353,12.99
$GPRMC,143520.000,A,5130.0517,N,00000.5292,E,2.38,148.27,270116,,,A*65,51.5008621215,0.0088200006,14:35:20,27/1/2016,29,80,68.76,351,12.50
$GPRMC,143521.000,A,5130.0513,N,00000.5297,E,2.25,147.23,270116,,,A*62,51.5008544921,0.0088283004,14:35:20,27/1/2016,30,12,46.79,300,12.50
$GPRMC,143522.000,A,5130.0508,N,00000.5303,E,2.18,146.26,270116,,,A*6D,51.5008468627,0.0088382997,14:35:22,27/1/2016,30,4,36.31,317,12.50
$GPRMC,143523.000,A,5130.0503,N,00000.5309,E,2.20,147.65,270116,,,A*60,51.5008392333,0.0088483009,14:35:23,27/1/2016,30,4,18.72,112,12.50
$GPRMC,143524.000,A,5130.0496,N,00000.5317,E,2.35,145.13,270116,,,A*62,51.5008316040,0.0088616008,14:35:24,27/1/2016,30,11,11.38,87,12.50
$GPRMC,143525.000,A,5130.0490,N,00000.5323,E,2.42,147.73,270116,,,A*66,51.5008125305,0.0088716001,14:35:24,27/1/2016,30,0,3.40,31,12.99
$GPRMC,143526.000,A,5130.0482,N,00000.5326,E,2.59,158.17,270116,,,A*65,51.5008049011,0.0088766002,14:35:26,27/1/2016,30,8,1.54,21,12.50
$GPRMC,143527.000,A,5130.0475,N,00000.5333,E,2.52,156.33,270116,,,A*6B,51.5007896423,0.0088883008,14:35:27,27/1/2016,30,1,16.22,203,12.01
$GPRMC,143528.000,A,5130.0467,N,00000.5339,E,2.44,160.66,270116,,,A*6F,51.5007820129,0.0088983001,14:35:28,27/1/2016,30,21,9.25,53,12.50
$GPRMC,143529.000,A,5130.0458,N,00000.5346,E,2.60,157.13,270116,,,A*6A,51.5007667541,0.0089099998,14:35:28,27/1/2016,31,19,22.17,152,12.50
$GPRMC,143530.000,A,5130.0452,N,00000.5352,E,2.51,146.59,270116,,,A*61,51.5007553100,0.0089200000,14:35:30,27/1/2016,31,0,29.43,252,12.50
$GPRMC,143531.000,A,5130.0446,N,00000.5360,E,2.76,146.48,270116,,,A*61,51.5007400512,0.0089333009,14:35:31,27/1/2016,30,0,1.48,26,12.50
$GPRMC,143532.000,A,5130.0440,N,00000.5367,E,2.67,148.87,270116,,,A*6E,51.5007324218,0.0089449996,14:35:32,27/1/2016,30,12,19.92,155,12.50
$GPRMC,143533.000,A,5130.0432,N,00000.5376,E,2.68,155.46,270116,,,A*64,51.5007171630,0.0089600000,14:35:32,27/1/2016,30,53,19.65,166,12.50
$GPRMC,143534.000,A,5130.0424,N,00000.5384,E,3.74,145.84,270116,,,A*6A,51.5007095336,0.0089733009,14:35:34,27/1/2016,30,62,87.92,316,12.50
$GPRMC,143535.000,A,5130.0416,N,00000.5391,E,3.38,158.31,270116,,,A*64,51.5006904602,0.0089849996,14:35:35,27/1/2016,30,147,50.90,346,12.50
$GPRMC,143536.000,A,5130.0409,N,00000.5401,E,2.93,143.11,270116,,,A*6F,51.5006828308,0.0090016002,14:35:36,27/1/2016,30,65,92.85,321,12.50
$GPRMC,143537.000,A,5130.0405,N,00000.5411,E,2.22,114.88,270116,,,A*6B,51.5006752014,0.0090183010,14:35:36,27/1/2016,30,6,37.61,289,12.50
$GPRMC,143538.000,A,5130.0402,N,00000.5421,E,1.54,106.98,270116,,,A*60,51.5006675720,0.0090349998,14:35:38,27/1/2016,30,30,23.45,98,12.50
$GPRMC,143539.000,A,5130.0397,N,00000.5428,E,2.52,151.70,270116,,,A*62,51.5006599426,0.0090466003,14:35:39,27/1/2016,31,9,51.92,247,12.50
$GPRMC,143540.000,A,5130.0389,N,00000.5436,E,2.87,156.84,270116,,,A*68,51.5006523132,0.0090600004,14:35:40,27/1/2016,31,32,83.71,302,12.50
$GPRMC,143541.000,A,5130.0380,N,00000.5442,E,2.67,154.87,270116,,,A*6C,51.5006332397,0.0090699996,14:35:40,27/1/2016,31,7,25.01,146,12.50
$GPRMC,143542.000,A,5130.0373,N,00000.5449,E,3.17,149.88,270116,,,A*6D,51.5006179809,0.0090816011,14:35:42,27/1/2016,31,2,6.23,64,12.50
$GPRMC,143543.000,A,5130.0365,N,00000.5454,E,2.72,160.24,270116,,,A*68,51.5006103515,0.0090900001,14:35:43,27/1/2016,30,13,24.14,128,12.50
$GPRMC,143544.000,A,5130.0358,N,00000.5461,E,2.82,154.91,270116,,,A*61,51.5005950927,0.0091015996,14:35:44,27/1/2016,30,24,36.88,139,12.50
$GPRMC,143545.000,A,5130.0349,N,00000.5468,E,2.85,152.61,270116,,,A*67,51.5005760192,0.0091133003,14:35:44,27/1/2016,30,8,14.68,97,12.50
$GPRMC,143546.000,A,5130.0340,N,00000.5472,E,2.48,162.03,270116,,,A*60,51.5005683898,0.0091200008,14:35:46,27/1/2016,30,48,45.55,197,12.50
$GPRMC,143547.000,A,5130.0331,N,00000.5478,E,2.40,153.54,270116,,,A*65,51.5005531311,0.0091300001,14:35:47,27/1/2016,30,2,13.87,110,12.50
$GPRMC,143548.000,A,5130.0325,N,00000.5484,E,1.78,149.53,270116,,,A*68,51.5005455017,0.0091400003,14:35:48,27/1/2016,29,15,9.18,41,12.50
$GPRMC,143549.000,A,5130.0322,N,00000.5489,E,1.47,141.31,270116,,,A*63,51.5005378723,0.0091483001,14:35:48,27/1/2016,30,4,2.60,26,12.50
$GPRMC,143550.000,A,5130.0317,N,00000.5495,E,2.07,148.40,270116,,,A*68,51.5005302429,0.0091583003,14:35:50,27/1/2016,30,2,3.72,19,12.50
$GPRMC,143551.000,A,5130.0312,N,00000.5500,E,2.27,155.51,270116,,,A*6F,51.5005226135,0.0091665992,14:35:51,27/1/2016,30,1,6.82,46,12.50
$GPRMC,143552.000,A,5130.0307,N,00000.5505,E,1.94,147.02,270116,,,A*63,51.5005111694,0.0091750011,14:35:52,27/1/2016,30,0,1.35,17,12.50
$GPRMC,143553.000,A,5130.0301,N,00000.5514,E,2.40,142.18,270116,,,A*60,51.5005035400,0.0091899995,14:35:52,27/1/2016,30,13,5.54,31,12.50
$GPRMC,143554.000,A,5130.0297,N,00000.5519,E,1.98,147.65,270116,,,A*6D,51.5004959106,0.0091982994,14:35:54,27/1/2016,30,4,11.50,62,12.50
$GPRMC,143555.000,A,5130.0292,N,00000.5525,E,2.32,146.73,270116,,,A*63,51.5004882812,0.0092083005,14:35:55,27/1/2016,30,19,3.79,27,12.50
$GPRMC,143556.000,A,5130.0287,N,00000.5530,E,2.68,151.43,270116,,,A*6A,51.5004806518,0.0092166004,14:35:56,27/1/2016,30,5,3.23,23,11.04
$GPRMC,143557.000,A,5130.0281,N,00000.5537,E,2.64,138.58,270116,,,A*63,51.5004730224,0.0092283000,14:35:56,27/1/2016,31,7,4.00,19,12.50
$GPRMC,143558.000,A,5130.0275,N,00000.5544,E,2.41,145.61,270116,,,A*64,51.5004539489,0.0092400007,14:35:58,27/1/2016,30,2,7.21,37,12.50
$GPRMC,143559.000,A,5130.0268,N,00000.5552,E,2.63,144.31,270116,,,A*6A,51.5004463195,0.0092532997,14:35:59,27/1/2016,30,1,12.03,53,12.99
$GPRMC,143600.000,A,5130.0263,N,00000.5556,E,2.01,156.58,270116,,,A*62,51.5004386901,0.0092600002,14:36:0,27/1/2016,30,38,7.49,48,12.50
$GPRMC,143601.000,A,5130.0257,N,00000.5563,E,2.27,143.92,270116,,,A*64,51.5004310607,0.0092716007,14:36:0,27/1/2016,30,0,3.91,33,12.50
$GPRMC,143602.000,A,5130.0249,N,00000.5572,E,2.66,151.42,270116,,,A*63,51.5004158020,0.0092866001,14:36:2,27/1/2016,31,4,8.78,49,12.50
$GPRMC,143603.000,A,5130.0242,N,00000.5578,E,2.44,143.40,270116,,,A*62,51.5004081726,0.0092965993,14:36:3,27/1/2016,31,10,15.66,74,12.50
$GPRMC,143604.000,A,5130.0238,N,00000.5584,E,2.00,146.93,270116,,,A*60,51.5004005432,0.0093066005,14:36:4,27/1/2016,31,0,4.59,32,12.99
$GPRMC,143605.000,A,5130.0235,N,00000.5591,E,1.98,129.77,270116,,,A*69,51.5003890991,0.0093183002,14:36:4,27/1/2016,31,8,2.27,35,12.99
$GPRMC,143606.000,A,5130.0229,N,00000.5600,E,2.25,148.44,270116,,,A*6E,51.5003814697,0.0093333005,14:36:6,27/1/2016,31,65,15.96,91,12.50
$GPRMC,143607.000,A,5130.0221,N,00000.5609,E,2.46,146.51,270116,,,A*61,51.5003662109,0.0093482999,14:36:7,27/1/2016,31,21,18.99,93,12.50
$GPRMC,143608.000,A,5130.0213,N,00000.5617,E,2.26,155.81,270116,,,A*69,51.5003585815,0.0093615999,14:36:8,27/1/2016,31,21,17.30,73,12.50
$GPRMC,143609.000,A,5130.0205,N,00000.5625,E,2.46,157.07,270116,,,A*64,51.5003433227,0.0093750000,14:36:8,27/1/2016,31,2,9.49,90,12.50
$GPRMC,143610.000,A,5130.0198,N,00000.5634,E,2.27,133.97,270116,,,A*67,51.5003318786,0.0093900003,14:36:10,27/1/2016,30,4,2.60,23,12.50
$GPRMC,143611.000,A,5130.0192,N,00000.5641,E,2.67,154.13,270116,,,A*67,51.5003166198,0.0094016008,14:36:11,27/1/2016,30,3,0.76,18,12.50
$GPRMC,143612.000,A,5130.0185,N,00000.5646,E,2.56,158.84,270116,,,A*65,51.5003089904,0.0094099998,14:36:12,27/1/2016,31,0,2.60,29,12.50
$GPRMC,143613.000,A,5130.0178,N,00000.5655,E,2.86,146.35,270116,,,A*6C,51.5002937316,0.0094250001,14:36:12,27/1/2016,30,11,5.11,53,12.50
$GPRMC,143614.000,A,5130.0169,N,00000.5665,E,3.41,154.72,270116,,,A*62,51.5002861022,0.0094415998,14:36:14,27/1/2016,30,0,1.69,15,12.50
$GPRMC,143615.000,A,5130.0161,N,00000.5672,E,2.91,150.52,270116,,,A*67,51.5002670288,0.0094533004,14:36:15,27/1/2016,30,0,0.69,12,12.50
$GPRMC,143616.000,A,5130.0153,N,00000.5681,E,2.73,134.77,270116,,,A*60,51.5002517700,0.0094682998,14:36:16,27/1/2016,31,1,5.02,47,12.50
$GPRMC,143617.000,A,5130.0147,N,00000.5690,E,2.37,145.31,270116,,,A*60,51.5002441406,0.0094833011,14:36:16,27/1/2016,31,0,1.49,28,12.50
$GPRMC,143618.000,A,5130.0139,N,00000.5697,E,3.07,151.78,270116,,,A*6B,51.5002288818,0.0094950008,14:36:18,27/1/2016,31,0,4.51,42,12.50
$GPRMC,143619.000,A,5130.0133,N,00000.5706,E,2.52,149.21,270116,,,A*6D,51.5002212524,0.0095100002,14:36:19,27/1/2016,31,0,0.62,9,12.50
$GPRMC,143620.000,A,5130.0125,N,00000.5711,E,2.42,166.21,270116,,,A*6A,51.5002098083,0.0095183000,14:36:20,27/1/2016,30,3,0.36,7,12.50
