$GPRMC,170659.000,A,3842.4877,N,00908.2638,W,2.91,101.49,080216,,,A*75,38.7081298828,-9.1377296447,17:6:59,8/2/2016,107,0,0.30,8,17.38
$GPRMC,170700.000,A,3842.4883,N,00908.2655,W,2.86,102.55,080216,,,A*70,38.7081375122,-9.1377582550,17:7:0,8/2/2016,148,0,0.43,8,17.38
$GPRMC,170701.000,A,3842.4843,N,00908.2764,W,2.88,103.97,080216,,,A*7F,38.7080726623,-9.1379404067,17:7:0,8/2/2016,95,1,0.37,12,17.38
$GPRMC,170702.000,A,3842.4813,N,00908.2800,W,2.38,83.23,080216,,,A*49,38.7080192565,-9.1380004882,17:7:2,8/2/2016,83,0,0.43,7,17.38
$GPRMC,170703.000,A,3842.4816,N,00908.2781,W,2.08,72.61,080216,,,A*40,38.7080268859,-9.1379680633,17:7:3,8/2/2016,103,0,2.12,25,16.89
$GPRMC,170704.000,A,3842.4809,N,00908.2772,W,1.89,86.55,080216,,,A*43,38.7080154418,-9.1379537582,17:7:4,8/2/2016,122,0,3.14,18,16.89
$GPRMC,170705.000,A,3842.4788,N,00908.2801,W,1.75,96.50,080216,,,A*48,38.7079811096,-9.1380014419,17:7:4,8/2/2016,134,0,0.50,11,16.89
$GPRMC,170706.000,A,3842.4776,N,00908.2793,W,1.68,113.44,080216,,,A*7B,38.7079582214,-9.1379880905,17:7:6,8/2/2016,139,0,0.12,3,17.38
$GPRMC,170707.000,A,3842.4765,N,00908.2786,W,1.70,121.02,080216,,,A*76,38.7079429626,-9.1379766464,17:7:7,8/2/2016,122,0,0.41,11,16.89
$GPRMC,170708.000,A,3842.4751,N,00908.2779,W,2.32,128.39,080216,,,A*7A,38.7079200744,-9.1379652023,17:7:8,8/2/2016,110,0,0.40,12,16.89
$GPRMC,170709.000,A,3842.4737,N,00908.2769,W,2.58,136.02,080216,,,A*71,38.7078933715,-9.1379489898,17:7:8,8/2/2016,112,0,0.45,10,16.89
$GPRMC,170710.000,A,3842.4732,N,00908.2764,W,2.53,136.38,080216,,,A*73,38.7078857421,-9.1379404067,17:7:10,8/2/2016,120,0,0.26,6,16.89
$GPRMC,170711.000,A,3842.4725,N,00908.2758,W,2.54,137.79,080216,,,A*78,38.7078742980,-9.1379299163,17:7:11,8/2/2016,111,0,0.23,7,16.89
$GPRMC,170712.000,A,3842.4724,N,00908.2751,W,2.31,134.36,080216,,,A*78,38.7078742980,-9.1379184722,17:7:12,8/2/2016,102,1,0.22,5,17.38
$GPRMC,170713.000,A,3842.4716,N,00908.2745,W,2.44,137.48,080216,,,A*75,38.7078628540,-9.1379079818,17:7:12,8/2/2016,111,0,0.70,12,16.89
$GPRMC,170714.000,A,3842.4713,N,00908.2740,W,2.32,139.10,080216,,,A*70,38.7078514099,-9.1378993988,17:7:14,8/2/2016,115,0,0.37,9,17.38
$GPRMC,170715.000,A,3842.4707,N,00908.2739,W,2.35,146.07,080216,,,A*73,38.7078437805,-9.1378984451,17:7:15,8/2/2016,99,0,0.23,5,16.89
$GPRMC,170716.000,A,3842.4701,N,00908.2735,W,2.37,148.73,080216,,,A*75,38.7078361511,-9.1378917694,17:7:16,8/2/2016,109,0,0.44,8,16.89
$GPRMC,170717.000,A,3842.4696,N,00908.2729,W,2.32,146.26,080216,,,A*7D,38.7078247070,-9.1378812789,17:7:16,8/2/2016,100,4,0.83,13,16.89
$GPRMC,170718.000,A,3842.4695,N,00908.2726,W,2.10,146.22,080216,,,A*7A,38.7078247070,-9.1378765106,17:7:18,8/2/2016,81,0,0.66,10,16.89
$GPRMC,170719.000,A,3842.4684,N,00908.2722,W,2.32,156.68,080216,,,A*70,38.7078094482,-9.1378698348,17:7:19,8/2/2016,93,2,1.96,32,16.89
$GPRMC,170720.000,A,3842.4679,N,00908.2715,W,2.25,153.06,080216,,,A*77,38.7078018188,-9.1378583908,17:7:20,8/2/2016,94,0,0.66,13,16.89
$GPRMC,170721.000,A,3842.4671,N,00908.2706,W,2.40,149.99,080216,,,A*72,38.7077827453,-9.1378431320,17:7:20,8/2/2016,57,3,0.66,11,16.89
$GPRMC,170722.000,A,3842.4661,N,00908.2697,W,2.58,145.46,080216,,,A*7E,38.7077674865,-9.1378288269,17:7:22,8/2/2016,41,1,1.09,13,16.89
$GPRMC,170723.000,A,3842.4647,N,00908.2712,W,2.26,125.48,080216,,,A*76,38.7077445983,-9.1378526687,17:7:23,8/2/2016,36,0,0.51,10,16.89
$GPRMC,170724.000,A,3842.4634,N,00908.2706,W,2.20,117.81,080216,,,A*72,38.7077217102,-9.1378431320,17:7:24,8/2/2016,33,0,0.20,8,16.89
$GPRMC,170725.000,A,3842.4623,N,00908.2699,W,2.61,116.26,080216,,,A*7B,38.7077064514,-9.1378316879,17:7:24,8/2/2016,31,0,0.27,10,16.89
$GPRMC,170726.000,A,3842.4627,N,00908.2706,W,2.15,105.19,080216,,,A*76,38.7077102661,-9.1378431320,17:7:26,8/2/2016,31,0,0.27,8,16.89
$GPRMC,170727.000,A,3842.4627,N,00908.2692,W,2.94,100.54,080216,,,A*7E,38.7077102661,-9.1378202438,17:7:27,8/2/2016,29,0,0.18,5,16.89
$GPRMC,170728.000,A,3842.4631,N,00908.2678,W,3.12,85.52,080216,,,A*47,38.7077178955,-9.1377973556,17:7:28,8/2/2016,29,0,0.20,8,16.89
$GPRMC,170729.000,A,3842.4629,N,00908.2669,W,3.25,81.86,080216,,,A*46,38.7077140808,-9.1377820968,17:7:28,8/2/2016,28,0,0.21,9,16.89
$GPRMC,170730.000,A,3842.4634,N,00908.2639,W,3.36,89.67,080216,,,A*42,38.7077217102,-9.1377315521,17:7:30,8/2/2016,28,0,1.38,24,16.89
$GPRMC,170731.000,A,3842.4635,N,00908.2626,W,2.22,68.05,080216,,,A*43,38.7077217102,-9.1377096176,17:7:31,8/2/2016,28,0,0.13,5,16.89
$GPRMC,170732.000,A,3842.4637,N,00908.2610,W,2.92,83.86,080216,,,A*42,38.7077255249,-9.1376829147,17:7:32,8/2/2016,28,7,0.31,10,16.89
$GPRMC,170733.000,A,3842.4639,N,00908.2585,W,3.61,99.79,080216,,,A*44,38.7077293395,-9.1376409530,17:7:32,8/2/2016,27,0,0.15,6,16.89
$GPRMC,170734.000,A,3842.4640,N,00908.2566,W,2.72,90.76,080216,,,A*45,38.7077369689,-9.1376094818,17:7:34,8/2/2016,27,0,0.18,9,16.89
$GPRMC,170735.000,A,3842.4642,N,00908.2546,W,2.77,104.35,080216,,,A*7A,38.7077369689,-9.1375761032,17:7:35,8/2/2016,28,3,0.83,23,16.89
$GPRMC,170736.000,A,3842.4644,N,00908.2528,W,2.45,83.06,080216,,,A*48,38.7077407836,-9.1375465393,17:7:36,8/2/2016,27,0,0.87,15,16.89
$GPRMC,170737.000,A,3842.4646,N,00908.2512,W,2.60,100.15,080216,,,A*7D,38.7077445983,-9.1375207901,17:7:36,8/2/2016,27,0,0.30,9,16.89
$GPRMC,170738.000,A,3842.4647,N,00908.2500,W,2.75,89.22,080216,,,A*40,38.7077445983,-9.1374998092,17:7:38,8/2/2016,26,0,0.25,7,16.89
$GPRMC,170739.000,A,3842.4647,N,00908.2490,W,2.57,101.70,080216,,,A*7F,38.7077445983,-9.1374835968,17:7:39,8/2/2016,27,0,2.39,45,16.89
$GPRMC,170740.000,A,3842.4647,N,00908.2480,W,2.75,103.00,080216,,,A*75,38.7077445983,-9.1374664306,17:7:40,8/2/2016,26,0,0.54,12,16.89
$GPRMC,170741.000,A,3842.4648,N,00908.2470,W,2.71,95.14,080216,,,A*4B,38.7077484130,-9.1374502182,17:7:40,8/2/2016,27,0,2.63,37,16.89
$GPRMC,170742.000,A,3842.4648,N,00908.2461,W,3.00,92.58,080216,,,A*40,38.7077484130,-9.1374349594,17:7:42,8/2/2016,27,0,2.36,35,16.89
$GPRMC,170743.000,A,3842.4649,N,00908.2449,W,3.11,99.86,080216,,,A*42,38.7077484130,-9.1374149322,17:7:43,8/2/2016,26,0,0.17,5,16.89
$GPRMC,170744.000,A,3842.4649,N,00908.2437,W,3.21,102.60,080216,,,A*74,38.7077484130,-9.1373949050,17:7:44,8/2/2016,26,0,0.11,4,16.89
$GPRMC,170745.000,A,3842.4649,N,00908.2427,W,2.59,94.63,080216,,,A*47,38.7077484130,-9.1373777389,17:7:44,8/2/2016,26,0,0.29,13,16.41
$GPRMC,170746.000,A,3842.4648,N,00908.2417,W,2.79,102.29,080216,,,A*74,38.7077484130,-9.1373615264,17:7:46,8/2/2016,25,0,0.08,5,16.89
$GPRMC,170747.000,A,3842.4647,N,00908.2407,W,2.79,112.65,080216,,,A*72,38.7077445983,-9.1373453140,17:7:47,8/2/2016,25,0,0.17,11,16.41
$GPRMC,170748.000,A,3842.4644,N,00908.2397,W,2.80,115.10,080216,,,A*73,38.7077407836,-9.1373281478,17:7:48,8/2/2016,25,0,0.03,2,16.89
$GPRMC,170749.000,A,3842.4641,N,00908.2387,W,2.73,113.16,080216,,,A*7A,38.7077369689,-9.1373119354,17:7:48,8/2/2016,25,0,0.01,1,16.41
$GPRMC,170750.000,A,3842.4639,N,00908.2377,W,2.81,111.69,080216,,,A*75,38.7077293395,-9.1372947692,17:7:50,8/2/2016,25,0,0.01,2,16.41
$GPRMC,170751.000,A,3842.4636,N,00908.2367,W,2.80,114.25,080216,,,A*76,38.7077255249,-9.1372785568,17:7:51,8/2/2016,25,0,0.16,16,16.89
$GPRMC,170752.000,A,3842.4633,N,00908.2357,W,2.68,108.06,080216,,,A*79,38.7077217102,-9.1372623443,17:7:52,8/2/2016,25,0,0.39,23,16.89
$GPRMC,170753.000,A,3842.4630,N,00908.2347,W,2.85,114.96,080216,,,A*7D,38.7077140808,-9.1372442245,17:7:52,8/2/2016,26,0,0.06,3,16.89
$GPRMC,170754.000,A,3842.4627,N,00908.2337,W,2.51,114.57,080216,,,A*7F,38.7077102661,-9.1372280120,17:7:54,8/2/2016,26,0,0.10,7,16.41
$GPRMC,170755.000,A,3842.4623,N,00908.2327,W,2.69,114.81,080216,,,A*7B,38.7077064514,-9.1372108459,17:7:55,8/2/2016,25,0,0.04,3,16.41
$GPRMC,170756.000,A,3842.4619,N,00908.2318,W,2.66,116.10,080216,,,A*78,38.7076988220,-9.1371965408,17:7:56,8/2/2016,26,0,0.15,6,16.41
$GPRMC,170757.000,A,3842.4615,N,00908.2308,W,2.65,112.27,080216,,,A*77,38.7076911926,-9.1371793746,17:7:56,8/2/2016,26,0,0.03,3,16.41
$GPRMC,170758.000,A,3842.4610,N,00908.2298,W,2.52,106.73,080216,,,A*75,38.7076835632,-9.1371631622,17:7:58,8/2/2016,26,0,0.08,4,16.41
$GPRMC,170759.000,A,3842.4606,N,00908.2287,W,2.52,106.57,080216,,,A*7B,38.7076797485,-9.1371450424,17:7:59,8/2/2016,26,0,1.08,27,16.89
$GPRMC,170800.000,A,3842.4603,N,00908.2279,W,2.45,107.40,080216,,,A*7D,38.7076683044,-9.1371316909,17:8:0,8/2/2016,25,0,0.40,26,16.41
$GPRMC,170801.000,A,3842.4601,N,00908.2271,W,2.47,124.27,080216,,,A*74,38.7076683044,-9.1371183395,17:8:0,8/2/2016,25,0,0.17,5,16.41
$GPRMC,170802.000,A,3842.4597,N,00908.2264,W,2.53,136.48,080216,,,A*70,38.7076606750,-9.1371059417,17:8:2,8/2/2016,25,0,0.09,5,16.41
$GPRMC,170803.000,A,3842.4592,N,00908.2257,W,2.32,140.63,080216,,,A*7B,38.7076530456,-9.1370954513,17:8:3,8/2/2016,25,0,0.16,8,16.41
$GPRMC,170804.000,A,3842.4588,N,00908.2251,W,1.97,127.14,080216,,,A*7C,38.7076454162,-9.1370849609,17:8:4,8/2/2016,25,4,0.38,14,16.41
$GPRMC,170805.000,A,3842.4586,N,00908.2245,W,2.13,123.11,080216,,,A*78,38.7076416015,-9.1370744705,17:8:4,8/2/2016,25,0,0.29,9,16.41
$GPRMC,170806.000,A,3842.4583,N,00908.2239,W,2.25,132.30,080216,,,A*73,38.7076377868,-9.1370649337,17:8:6,8/2/2016,25,0,1.77,25,16.41
$GPRMC,170807.000,A,3842.4579,N,00908.2233,W,2.58,130.02,080216,,,A*74,38.7076339721,-9.1370553970,17:8:7,8/2/2016,25,0,0.72,22,16.41
$GPRMC,170808.000,A,3842.4575,N,00908.2227,W,2.58,125.47,080216,,,A*77,38.7076263427,-9.1370449066,17:8:8,8/2/2016,25,0,2.01,44,16.41
$GPRMC,170809.000,A,3842.4571,N,00908.2220,W,2.55,131.87,080216,,,A*71,38.7076187133,-9.1370334625,17:8:8,8/2/2016,25,0,0.84,18,16.41
$GPRMC,170810.000,A,3842.4567,N,00908.2212,W,2.46,126.69,080216,,,A*7B,38.7076148986,-9.1370201110,17:8:10,8/2/2016,25,5,12.53,69,16.41
$GPRMC,170811.000,A,3842.4563,N,00908.2206,W,2.34,134.26,080216,,,A*76,38.7076034545,-9.1370096206,17:8:11,8/2/2016,25,11,3.70,35,16.41
$GPRMC,170812.000,A,3842.4558,N,00908.2199,W,2.44,134.60,080216,,,A*7D,38.7075958251,-9.1369981765,17:8:12,8/2/2016,25,0,6.23,51,15.92
$GPRMC,170813.000,A,3842.4553,N,00908.2193,W,2.45,133.67,080216,,,A*7C,38.7075881958,-9.1369886398,17:8:12,8/2/2016,25,0,6.05,42,15.92
$GPRMC,170814.000,A,3842.4547,N,00908.2186,W,2.35,135.08,080216,,,A*72,38.7075767517,-9.1369762420,17:8:14,8/2/2016,25,1,0.74,19,15.92
$GPRMC,170815.000,A,3842.4542,N,00908.2180,W,2.49,136.37,080216,,,A*74,38.7075691223,-9.1369667053,17:8:15,8/2/2016,25,0,1.57,23,15.92
$GPRMC,170816.000,A,3842.4537,N,00908.2174,W,2.19,132.38,080216,,,A*70,38.7075614929,-9.1369571685,17:8:16,8/2/2016,26,0,0.14,7,15.92
$GPRMC,170817.000,A,3842.4532,N,00908.2168,W,1.96,130.36,080216,,,A*71,38.7075538635,-9.1369466781,17:8:16,8/2/2016,26,0,0.22,11,15.92
$GPRMC,170818.000,A,3842.4528,N,00908.2162,W,2.21,130.16,080216,,,A*72,38.7075462341,-9.1369361877,17:8:18,8/2/2016,26,0,0.09,8,15.92
$GPRMC,170819.000,A,3842.4524,N,00908.2156,W,2.36,126.58,080216,,,A*73,38.7075386047,-9.1369266510,17:8:19,8/2/2016,25,0,0.49,18,15.92
$GPRMC,170820.000,A,3842.4519,N,00908.2149,W,2.24,129.69,080216,,,A*77,38.7075309753,-9.1369152069,17:8:20,8/2/2016,25,0,0.31,11,15.92
$GPRMC,170821.000,A,3842.4514,N,00908.2142,W,2.55,125.28,080216,,,A*7F,38.7075233459,-9.1369028091,17:8:20,8/2/2016,25,0,0.12,5,15.92
$GPRMC,170822.000,A,3842.4509,N,00908.2134,W,2.77,135.30,080216,,,A*79,38.7075157165,-9.1368894577,17:8:22,8/2/2016,26,0,0.62,26,15.92
$GPRMC,170823.000,A,3842.4503,N,00908.2125,W,3.31,128.72,080216,,,A*7B,38.7075042724,-9.1368751525,17:8:23,8/2/2016,26,0,0.45,15,15.92
$GPRMC,170824.000,A,3842.4498,N,00908.2115,W,3.03,116.30,080216,,,A*76,38.7074966430,-9.1368579864,17:8:24,8/2/2016,26,0,0.11,3,15.92
$GPRMC,170825.000,A,3842.4494,N,00908.2105,W,2.31,109.89,080216,,,A*76,38.7074928283,-9.1368417739,17:8:24,8/2/2016,26,4,0.31,10,15.92
$GPRMC,170826.000,A,3842.4492,N,00908.2095,W,2.16,100.20,080216,,,A*74,38.7074851989,-9.1368246078,17:8:26,8/2/2016,26,5,1.17,21,15.92
$GPRMC,170827.000,A,3842.4490,N,00908.2086,W,2.58,110.24,080216,,,A*7A,38.7074813842,-9.1368103027,17:8:27,8/2/2016,26,0,0.14,8,15.92
$GPRMC,170828.000,A,3842.4488,N,00908.2078,W,2.64,110.34,080216,,,A*73,38.7074775695,-9.1367969512,17:8:28,8/2/2016,26,0,0.06,4,15.92
$GPRMC,170829.000,A,3842.4486,N,00908.2069,W,2.68,107.46,080216,,,A*73,38.7074737548,-9.1367816925,17:8:28,8/2/2016,26,0,0.08,3,15.92
$GPRMC,170830.000,A,3842.4484,N,00908.2061,W,2.55,114.20,080216,,,A*7D,38.7074737548,-9.1367683410,17:8:30,8/2/2016,26,0,0.06,4,15.92
$GPRMC,170831.000,A,3842.4481,N,00908.2054,W,2.52,117.68,080216,,,A*77,38.7074661254,-9.1367559432,17:8:31,8/2/2016,25,0,0.13,4,15.92
$GPRMC,170832.000,A,3842.4479,N,00908.2041,W,2.26,116.24,080216,,,A*7D,38.7074661254,-9.1367349624,17:8:32,8/2/2016,25,0,0.17,5,16.41
$GPRMC,170833.000,A,3842.4477,N,00908.2032,W,2.53,114.02,080216,,,A*72,38.7074623107,-9.1367197036,17:8:32,8/2/2016,26,0,0.06,3,16.41
$GPRMC,170834.000,A,3842.4474,N,00908.2021,W,2.58,118.80,080216,,,A*79,38.7074584960,-9.1367015838,17:8:34,8/2/2016,26,0,0.10,6,16.41
$GPRMC,170835.000,A,3842.4471,N,00908.2011,W,2.51,119.39,080216,,,A*74,38.7074508666,-9.1366853713,17:8:35,8/2/2016,26,0,0.42,8,16.41
$GPRMC,170836.000,A,3842.4467,N,00908.2001,W,2.49,118.58,080216,,,A*7E,38.7074470520,-9.1366682052,17:8:36,8/2/2016,26,0,0.21,6,16.41
$GPRMC,170837.000,A,3842.4464,N,00908.1991,W,2.46,115.45,080216,,,A*71,38.7074394226,-9.1366519927,17:8:36,8/2/2016,26,0,0.12,5,16.41
$GPRMC,170838.000,A,3842.4460,N,00908.1982,W,2.51,117.44,080216,,,A*7D,38.7074356079,-9.1366367340,17:8:38,8/2/2016,26,0,0.08,9,16.41
$GPRMC,170839.000,A,3842.4457,N,00908.1974,W,2.57,121.95,080216,,,A*7E,38.7074317932,-9.1366233825,17:8:39,8/2/2016,26,0,0.16,5,15.92
$GPRMC,170840.000,A,3842.4453,N,00908.1965,W,2.58,117.70,080216,,,A*75,38.7074203491,-9.1366081237,17:8:40,8/2/2016,26,0,0.25,8,15.92
$GPRMC,170841.000,A,3842.4450,N,00908.1957,W,2.47,119.94,080216,,,A*7C,38.7074165344,-9.1365947723,17:8:40,8/2/2016,25,0,0.33,7,15.92
$GPRMC,170842.000,A,3842.4447,N,00908.1950,W,2.01,121.74,080216,,,A*79,38.7074089050,-9.1365833282,17:8:42,8/2/2016,25,0,1.39,12,15.92
$GPRMC,170843.000,A,3842.4445,N,00908.1943,W,2.35,102.71,080216,,,A*7B,38.7074089050,-9.1365709304,17:8:43,8/2/2016,27,0,6.59,38,16.41
$GPRMC,170844.000,A,3842.4442,N,00908.1934,W,2.48,111.81,080216,,,A*7C,38.7074012756,-9.1365566253,17:8:44,8/2/2016,27,3,0.23,5,16.41
$GPRMC,170845.000,A,3842.4439,N,00908.1926,W,2.29,115.25,080216,,,A*7F,38.7073974609,-9.1365442276,17:8:44,8/2/2016,27,0,0.19,4,16.41
$GPRMC,170846.000,A,3842.4437,N,00908.1918,W,2.15,109.20,080216,,,A*78,38.7073936462,-9.1365299224,17:8:46,8/2/2016,26,0,0.19,7,16.41
$GPRMC,170847.000,A,3842.4434,N,00908.1910,W,2.39,114.03,080216,,,A*71,38.7073898315,-9.1365165710,17:8:47,8/2/2016,26,0,0.09,3,15.92
$GPRMC,170848.000,A,3842.4431,N,00908.1902,W,2.32,112.43,080216,,,A*71,38.7073860168,-9.1365032196,17:8:48,8/2/2016,27,2,0.37,7,16.41
$GPRMC,170849.000,A,3842.4429,N,00908.1894,W,2.36,112.63,080216,,,A*71,38.7073822021,-9.1364898681,17:8:48,8/2/2016,27,0,1.39,27,15.92
$GPRMC,170850.000,A,3842.4427,N,00908.1887,W,2.16,105.51,080216,,,A*70,38.7073783874,-9.1364784240,17:8:50,8/2/2016,27,0,0.53,12,16.41
$GPRMC,170851.000,A,3842.4426,N,00908.1879,W,1.94,86.61,080216,,,A*41,38.7073783874,-9.1364650726,17:8:51,8/2/2016,28,0,0.32,11,15.92
$GPRMC,170852.000,A,3842.4426,N,00908.1872,W,2.00,83.83,080216,,,A*4E,38.7073783874,-9.1364536285,17:8:52,8/2/2016,28,0,0.03,2,15.92
$GPRMC,170853.000,A,3842.4426,N,00908.1865,W,1.81,80.98,080216,,,A*4A,38.7073783874,-9.1364421844,17:8:52,8/2/2016,27,0,0.06,4,15.92
$GPRMC,170854.000,A,3842.4427,N,00908.1858,W,1.77,77.95,080216,,,A*4E,38.7073783874,-9.1364297866,17:8:54,8/2/2016,28,0,0.27,9,15.92
$GPRMC,170855.000,A,3842.4427,N,00908.1851,W,1.70,84.37,080216,,,A*45,38.7073783874,-9.1364183425,17:8:55,8/2/2016,28,0,0.05,4,15.92
$GPRMC,170856.000,A,3842.4427,N,00908.1845,W,1.82,83.25,080216,,,A*4A,38.7073783874,-9.1364088058,17:8:56,8/2/2016,28,0,0.08,5,15.92
$GPRMC,170857.000,A,3842.4428,N,00908.1838,W,1.80,76.18,080216,,,A*48,38.7073822021,-9.1363964080,17:8:56,8/2/2016,28,0,0.08,7,15.92
$GPRMC,170858.000,A,3842.4429,N,00908.1832,W,1.94,84.07,080216,,,A*4A,38.7073822021,-9.1363859176,17:8:58,8/2/2016,27,0,0.14,4,15.92
$GPRMC,170859.000,A,3842.4430,N,00908.1825,W,2.06,80.27,080216,,,A*4B,38.7073860168,-9.1363744735,17:8:59,8/2/2016,29,0,0.20,5,15.92
$GPRMC,170900.000,A,3842.4431,N,00908.1819,W,2.10,86.26,080216,,,A*48,38.7073860168,-9.1363649368,17:9:0,8/2/2016,27,0,0.08,4,16.41
$GPRMC,170901.000,A,3842.4431,N,00908.1812,W,1.67,97.43,080216,,,A*42,38.7073860168,-9.1363534927,17:9:0,8/2/2016,26,0,0.18,5,15.92
$GPRMC,170902.000,A,3842.4430,N,00908.1806,W,1.68,119.80,080216,,,A*72,38.7073860168,-9.1363430023,17:9:2,8/2/2016,26,0,0.07,4,15.92
$GPRMC,170903.000,A,3842.4427,N,00908.1801,W,1.47,133.00,080216,,,A*7F,38.7073783874,-9.1363353729,17:9:3,8/2/2016,26,0,0.21,11,15.92
$GPRMC,170904.000,A,3842.4424,N,00908.1796,W,1.78,130.99,080216,,,A*75,38.7073745727,-9.1363258361,17:9:4,8/2/2016,26,0,0.21,6,15.92
$GPRMC,170905.000,A,3842.4421,N,00908.1790,W,1.78,121.11,080216,,,A*77,38.7073707580,-9.1363172531,17:9:4,8/2/2016,26,0,0.22,7,15.92
$GPRMC,170906.000,A,3842.4420,N,00908.1785,W,1.41,97.20,080216,,,A*45,38.7073631286,-9.1363086700,17:9:6,8/2/2016,26,0,0.28,8,15.92
$GPRMC,170907.000,A,3842.4420,N,00908.1780,W,1.64,91.95,080216,,,A*4E,38.7073631286,-9.1363000869,17:9:7,8/2/2016,27,3,0.25,10,15.92
$GPRMC,170908.000,A,3842.4420,N,00908.1774,W,1.65,85.00,080216,,,A*42,38.7073631286,-9.1362905502,17:9:8,8/2/2016,28,0,0.10,4,15.92
$GPRMC,170909.000,A,3842.4420,N,00908.1768,W,1.78,85.07,080216,,,A*45,38.7073631286,-9.1362800598,17:9:8,8/2/2016,27,26,2.41,46,15.92
$GPRMC,170910.000,A,3842.4421,N,00908.1762,W,1.60,77.47,080216,,,A*46,38.7073707580,-9.1362705230,17:9:10,8/2/2016,28,0,1.87,49,15.92
$GPRMC,170911.000,A,3842.4424,N,00908.1760,W,1.43,53.29,080216,,,A*4F,38.7073745727,-9.1362667083,17:9:11,8/2/2016,29,0,0.27,6,15.92
$GPRMC,170912.000,A,3842.4425,N,00908.1760,W,0.76,27.60,080216,,,A*44,38.7073745727,-9.1362667083,17:9:12,8/2/2016,29,0,2.51,26,15.92
$GPRMC,170913.000,A,3842.4426,N,00908.1761,W,0.20,350.83,080216,,,A*7A,38.7073783874,-9.1362676620,17:9:12,8/2/2016,28,0,8.98,64,15.92
$GPRMC,170914.000,A,3842.4427,N,00908.1761,W,0.20,331.29,080216,,,A*7B,38.7073783874,-9.1362676620,17:9:14,8/2/2016,27,3,6.45,61,16.41
$GPRMC,170915.000,A,3842.4428,N,00908.1766,W,0.78,263.21,080216,,,A*71,38.7073822021,-9.1362762451,17:9:15,8/2/2016,26,0,9.10,76,15.92
$GPRMC,170916.000,A,3842.4427,N,00908.1772,W,1.28,253.58,080216,,,A*71,38.7073783874,-9.1362867355,17:9:16,8/2/2016,26,7,12.65,75,15.92
$GPRMC,170917.000,A,3842.4426,N,00908.1779,W,1.53,255.20,080216,,,A*7F,38.7073783874,-9.1362981796,17:9:16,8/2/2016,28,6,6.97,71,15.92
$GPRMC,170918.000,A,3842.4423,N,00908.1786,W,1.98,250.71,080216,,,A*73,38.7073745727,-9.1363096237,17:9:18,8/2/2016,27,0,0.48,11,15.92
$GPRMC,170919.000,A,3842.4421,N,00908.1793,W,2.06,245.14,080216,,,A*77,38.7073707580,-9.1363220214,17:9:19,8/2/2016,26,0,1.37,15,15.92
$GPRMC,170920.000,A,3842.4419,N,00908.1800,W,1.96,245.70,080216,,,A*7B,38.7073631286,-9.1363334655,17:9:20,8/2/2016,26,1,2.62,19,15.92
$GPRMC,170921.000,A,3842.4417,N,00908.1809,W,2.06,240.40,080216,,,A*71,38.7073593139,-9.1363487243,17:9:20,8/2/2016,26,1,1.97,23,15.92
$GPRMC,170922.000,A,3842.4413,N,00908.1814,W,1.88,231.26,080216,,,A*79,38.7073554992,-9.1363563537,17:9:22,8/2/2016,25,0,1.19,20,15.92
$GPRMC,170923.000,A,3842.4409,N,00908.1820,W,1.93,224.71,080216,,,A*78,38.7073478698,-9.1363668441,17:9:23,8/2/2016,26,1,2.53,41,15.92
$GPRMC,170924.000,A,3842.4405,N,00908.1825,W,1.81,233.31,080216,,,A*77,38.7073402404,-9.1363744735,17:9:24,8/2/2016,28,0,1.24,14,15.92
$GPRMC,170925.000,A,3842.4404,N,00908.1831,W,1.55,251.44,080216,,,A*7D,38.7073402404,-9.1363849639,17:9:24,8/2/2016,28,2,3.53,38,15.92
$GPRMC,170926.000,A,3842.4404,N,00908.1837,W,1.53,265.88,080216,,,A*79,38.7073402404,-9.1363954544,17:9:26,8/2/2016,27,0,5.85,48,15.92
$GPRMC,170927.000,A,3842.4404,N,00908.1842,W,1.38,276.70,080216,,,A*72,38.7073402404,-9.1364030838,17:9:27,8/2/2016,29,5,17.97,76,15.92
$GPRMC,170928.000,A,3842.4405,N,00908.1848,W,1.50,279.81,080216,,,A*79,38.7073402404,-9.1364135742,17:9:28,8/2/2016,28,9,3.18,17,15.92
$GPRMC,170929.000,A,3842.4406,N,00908.1855,W,1.60,279.33,080216,,,A*7D,38.7073440551,-9.1364250183,17:9:28,8/2/2016,29,0,2.38,24,15.92
$GPRMC,170930.000,A,3842.4407,N,00908.1861,W,1.67,278.15,080216,,,D*74,38.7073440551,-9.1364345550,17:9:30,8/2/2016,28,13,3.91,32,15.92
$GPRMC,170931.000,A,3842.4407,N,00908.1866,W,1.47,274.80,080216,,,D*70,38.7073440551,-9.1364431381,17:9:31,8/2/2016,30,0,4.96,38,15.92
$GPRMC,170932.000,A,3842.4410,N,00908.1870,W,1.29,304.90,080216,,,D*7D,38.7073478698,-9.1364498138,17:9:32,8/2/2016,31,0,0.40,9,15.92
$GPRMC,170933.000,A,3842.4414,N,00908.1874,W,1.29,323.88,080216,,,D*70,38.7073554992,-9.1364564895,17:9:32,8/2/2016,30,2,0.29,8,15.92
$GPRMC,170934.000,A,3842.4417,N,00908.1877,W,1.31,332.74,080216,,,D*7D,38.7073593139,-9.1364612579,17:9:34,8/2/2016,31,0,3.20,24,15.92
$GPRMC,170935.000,A,3842.4421,N,00908.1880,W,1.52,336.24,080216,,,D*75,38.7073707580,-9.1364660263,17:9:35,8/2/2016,30,0,0.87,9,16.41
$GPRMC,170936.000,A,3842.4426,N,00908.1879,W,1.56,358.71,080216,,,D*7B,38.7073783874,-9.1364650726,17:9:36,8/2/2016,31,0,1.16,10,15.92
$GPRMC,170937.000,A,3842.4432,N,00908.1879,W,1.85,4.72,080216,,,D*78,38.7073860168,-9.1364650726,17:9:36,8/2/2016,30,1,0.30,11,16.41
$GPRMC,170938.000,A,3842.4437,N,00908.1880,W,1.90,355.64,080216,,,D*70,38.7073936462,-9.1364660263,17:9:38,8/2/2016,30,0,0.19,6,16.41
$GPRMC,170939.000,A,3842.4443,N,00908.1883,W,2.11,342.20,080216,,,D*7D,38.7074050903,-9.1364717483,17:9:39,8/2/2016,30,0,0.23,4,16.41
$GPRMC,170940.000,A,3842.4449,N,00908.1887,W,1.85,330.55,080216,,,D*74,38.7074127197,-9.1364784240,17:9:40,8/2/2016,30,0,0.14,5,16.41
$GPRMC,170941.000,A,3842.4454,N,00908.1890,W,1.40,328.94,080216,,,D*72,38.7074203491,-9.1364841461,17:9:40,8/2/2016,31,2,6.83,52,16.41
$GPRMC,170942.000,A,3842.4457,N,00908.1894,W,1.32,317.84,080216,,,D*7E,38.7074317932,-9.1364898681,17:9:42,8/2/2016,30,0,1.99,18,16.41
$GPRMC,170943.000,A,3842.4460,N,00908.1898,W,1.41,309.78,080216,,,D*7F,38.7074356079,-9.1364965438,17:9:43,8/2/2016,29,0,0.26,7,16.41
$GPRMC,170944.000,A,3842.4464,N,00908.1904,W,1.82,315.90,080216,,,D*7C,38.7074394226,-9.1365060806,17:9:44,8/2/2016,29,2,0.64,9,16.41
$GPRMC,170945.000,A,3842.4470,N,00908.1908,W,1.87,328.85,080216,,,D*7B,38.7074508666,-9.1365137100,17:9:44,8/2/2016,30,0,0.19,5,16.41
$GPRMC,170946.000,A,3842.4475,N,00908.1913,W,1.96,335.64,080216,,,D*74,38.7074584960,-9.1365213394,17:9:46,8/2/2016,30,0,0.20,7,16.41
$GPRMC,170947.000,A,3842.4481,N,00908.1916,W,1.79,359.78,080216,,,D*7D,38.7074661254,-9.1365261077,17:9:47,8/2/2016,30,0,0.21,6,16.41
$GPRMC,170948.000,A,3842.4486,N,00908.1917,W,1.39,346.37,080216,,,D*75,38.7074737548,-9.1365289688,17:9:48,8/2/2016,30,0,0.13,5,16.41
$GPRMC,170949.000,A,3842.4490,N,00908.1918,W,1.37,341.38,080216,,,D*7A,38.7074813842,-9.1365299224,17:9:48,8/2/2016,32,0,0.25,10,16.41
$GPRMC,170950.000,A,3842.4494,N,00908.1921,W,1.42,333.58,080216,,,D*7D,38.7074928283,-9.1365346908,17:9:50,8/2/2016,29,3,1.68,28,16.41
$GPRMC,170951.000,A,3842.4498,N,00908.1923,W,1.51,339.70,080216,,,D*70,38.7074966430,-9.1365385055,17:9:51,8/2/2016,29,1,2.01,26,16.41
$GPRMC,170952.000,A,3842.4503,N,00908.1924,W,1.63,354.03,080216,,,D*79,38.7075042724,-9.1365394592,17:9:52,8/2/2016,29,0,1.25,24,16.41
$GPRMC,170953.000,A,3842.4508,N,00908.1926,W,1.60,347.24,080216,,,D*75,38.7075119018,-9.1365442276,17:9:52,8/2/2016,30,0,0.82,10,16.41
$GPRMC,170954.000,A,3842.4512,N,00908.1928,W,1.58,348.77,080216,,,D*75,38.7075195312,-9.1365470886,17:9:54,8/2/2016,31,0,0.15,4,15.92
$GPRMC,170955.000,A,3842.4515,N,00908.1926,W,1.28,3.78,080216,,,D*79,38.7075233459,-9.1365442276,17:9:55,8/2/2016,31,0,0.34,5,16.41
$GPRMC,170956.000,A,3842.4518,N,00908.1926,W,1.14,15.64,080216,,,D*42,38.7075309753,-9.1365442276,17:9:56,8/2/2016,31,0,0.09,3,16.41
$GPRMC,170957.000,A,3842.4520,N,00908.1925,W,1.08,23.68,080216,,,D*4F,38.7075309753,-9.1365413665,17:9:56,8/2/2016,32,0,1.14,16,16.41
$GPRMC,171819.480,A,3842.4467,N,00908.2009,W,1.19,173.80,080216,,,A*78,38.7074470520,-9.1366815567,17:18:19,8/2/2016,34,1,0.42,12,16.89
$GPRMC,171820.488,A,3842.4419,N,00908.1881,W,1.50,139.19,080216,,,A*7B,38.7073631286,-9.1364688873,17:18:20,8/2/2016,0,0,0.14,6,16.89
$GPRMC,171821.487,A,3842.4421,N,00908.1877,W,1.58,132.24,080216,,,A*7A,38.7073707580,-9.1364612579,17:18:21,8/2/2016,0,1,0.19,7,16.89
$GPRMC,171822.486,A,3842.4429,N,00908.1876,W,1.47,124.81,080216,,,A*77,38.7073822021,-9.1364603042,17:18:22,8/2/2016,35,0,0.29,8,16.89
$GPRMC,171823.485,A,3842.4432,N,00908.1871,W,1.76,121.71,080216,,,A*70,38.7073860168,-9.1364507675,17:18:23,8/2/2016,36,0,0.15,5,16.89
$GPRMC,171824.484,A,3842.4433,N,00908.1866,W,1.73,117.42,080216,,,A*71,38.7073898315,-9.1364431381,17:18:24,8/2/2016,34,0,0.25,6,16.89
$GPRMC,171825.482,A,3842.4443,N,00908.1889,W,1.63,121.19,080216,,,A*7A,38.7074050903,-9.1364812850,17:18:25,8/2/2016,33,16,0.41,19,16.89
$GPRMC,171826.483,A,3842.4439,N,00908.1875,W,1.83,130.65,080216,,,A*73,38.7073974609,-9.1364583969,17:18:26,8/2/2016,33,0,6.76,41,16.41
$GPRMC,171828.000,A,3842.4437,N,00908.1876,W,1.59,151.83,080216,,,A*77,38.7073936462,-9.1364603042,17:18:28,8/2/2016,33,0,4.50,34,16.41
$GPRMC,171829.000,A,3842.4433,N,00908.1874,W,1.57,138.19,080216,,,A*72,38.7073898315,-9.1364564895,17:18:28,8/2/2016,33,0,0.26,7,16.41
$GPRMC,171830.000,A,3842.4428,N,00908.1866,W,1.87,130.42,080216,,,A*78,38.7073822021,-9.1364431381,17:18:30,8/2/2016,32,3,0.27,9,16.41
$GPRMC,171831.000,A,3842.4422,N,00908.1860,W,2.21,138.69,080216,,,A*7B,38.7073707580,-9.1364326477,17:18:31,8/2/2016,31,0,2.04,27,16.41
$GPRMC,171832.000,A,3842.4416,N,00908.1854,W,2.24,136.13,080216,,,A*7E,38.7073593139,-9.1364240646,17:18:32,8/2/2016,33,0,1.01,25,16.41
$GPRMC,171833.000,A,3842.4413,N,00908.1847,W,2.23,130.45,080216,,,A*7A,38.7073554992,-9.1364116668,17:18:32,8/2/2016,34,2,2.62,38,16.41
$GPRMC,171834.000,A,3842.4414,N,00908.1838,W,2.11,123.64,080216,,,A*72,38.7073554992,-9.1363964080,17:18:34,8/2/2016,33,9,10.16,147,16.41
$GPRMC,171835.000,A,3842.4414,N,00908.1832,W,1.73,126.64,080216,,,A*7B,38.7073554992,-9.1363859176,17:18:35,8/2/2016,31,0,1.27,14,15.92
$GPRMC,171836.000,A,3842.4411,N,00908.1827,W,1.85,129.37,080216,,,A*79,38.7073516845,-9.1363782882,17:18:36,8/2/2016,31,0,0.57,12,15.92
$GPRMC,171837.000,A,3842.4407,N,00908.1822,W,1.99,134.13,080216,,,A*7D,38.7073440551,-9.1363697052,17:18:36,8/2/2016,31,0,0.62,14,16.41
$GPRMC,171838.000,A,3842.4403,N,00908.1815,W,2.14,133.38,080216,,,A*7A,38.7073364257,-9.1363582611,17:18:38,8/2/2016,0,0,0.77,18,15.92
$GPRMC,171839.000,A,3842.4398,N,00908.1808,W,2.22,126.77,080216,,,A*78,38.7073287963,-9.1363468170,17:18:39,8/2/2016,0,0,0.94,19,15.92
$GPRMC,171840.000,A,3842.4394,N,00908.1802,W,1.52,133.51,080216,,,A*74,38.7073249816,-9.1363363265,17:18:40,8/2/2016,0,2,2.25,31,15.43
$GPRMC,171841.000,A,3842.4390,N,00908.1797,W,1.77,131.31,080216,,,A*71,38.7073173522,-9.1363277435,17:18:40,8/2/2016,40,28,18.44,153,14.45
$GPRMC,171842.000,A,3842.4387,N,00908.1792,W,1.72,130.30,080216,,,A*74,38.7073135375,-9.1363201141,17:18:42,8/2/2016,36,5,13.88,94,15.43
$GPRMC,171843.000,A,3842.4384,N,00908.1786,W,1.82,126.20,080216,,,A*7A,38.7073097229,-9.1363096237,17:18:43,8/2/2016,42,1,6.94,64,15.92
$GPRMC,171844.000,A,3842.4381,N,00908.1782,W,1.12,131.48,080216,,,A*7D,38.7072982788,-9.1363039016,17:18:44,8/2/2016,73,0,8.55,54,15.43
$GPRMC,171845.000,A,3842.4378,N,00908.1778,W,1.42,134.43,080216,,,A*74,38.7072944641,-9.1362962722,17:18:44,8/2/2016,31,11,6.94,53,15.43
$GPRMC,171846.000,A,3842.4373,N,00908.1773,W,1.77,142.06,080216,,,A*71,38.7072868347,-9.1362886428,17:18:46,8/2/2016,29,31,13.30,88,15.43
$GPRMC,171847.000,A,3842.4370,N,00908.1767,W,1.80,136.24,080216,,,A*7D,38.7072830200,-9.1362781524,17:18:47,8/2/2016,29,12,10.55,55,15.43
$GPRMC,171848.000,A,3842.4368,N,00908.1762,W,1.53,128.12,080216,,,A*7A,38.7072792053,-9.1362705230,17:18:48,8/2/2016,30,1,5.51,31,15.43
$GPRMC,171849.000,A,3842.4364,N,00908.1757,W,1.79,136.32,080216,,,A*74,38.7072753906,-9.1362619400,17:18:48,8/2/2016,30,2,5.03,56,14.94
$GPRMC,171850.000,A,3842.4360,N,00908.1753,W,1.80,143.48,080216,,,A*75,38.7072677612,-9.1362552642,17:18:50,8/2/2016,30,0,21.17,98,15.43
$GPRMC,171851.000,A,3842.4355,N,00908.1749,W,1.90,144.00,080216,,,A*73,38.7072601318,-9.1362485885,17:18:51,8/2/2016,29,18,2.58,24,15.43
$GPRMC,171852.000,A,3842.4349,N,00908.1745,W,1.96,150.73,080216,,,A*76,38.7072486877,-9.1362419128,17:18:52,8/2/2016,29,6,10.10,51,15.43
$GPRMC,171853.000,A,3842.4344,N,00908.1741,W,2.04,151.48,080216,,,A*7F,38.7072372436,-9.1362342834,17:18:52,8/2/2016,31,0,6.81,61,15.43
$GPRMC,171854.000,A,3842.4340,N,00908.1737,W,2.01,141.25,080216,,,A*72,38.7072334289,-9.1362285614,17:18:54,8/2/2016,33,5,10.45,82,15.92
$GPRMC,171855.000,A,3842.4335,N,00908.1733,W,1.97,144.99,080216,,,A*7B,38.7072257995,-9.1362209320,17:18:55,8/2/2016,31,30,18.63,92,15.43
$GPRMC,171856.000,A,3842.4330,N,00908.1727,W,2.10,149.32,080216,,,A*78,38.7072181701,-9.1362113952,17:18:56,8/2/2016,28,28,15.98,87,15.43
$GPRMC,171857.000,A,3842.4325,N,00908.1720,W,2.23,138.42,080216,,,A*7B,38.7072105407,-9.1361999511,17:18:56,8/2/2016,29,8,5.46,43,15.43
$GPRMC,171858.000,A,3842.4319,N,00908.1715,W,2.31,147.35,080216,,,A*76,38.7071990966,-9.1361913681,17:18:58,8/2/2016,29,0,5.66,43,14.94
$GPRMC,171859.000,A,3842.4312,N,00908.1710,W,2.48,151.09,080216,,,A*7F,38.7071876525,-9.1361837387,17:18:59,8/2/2016,30,3,7.18,60,15.43
$GPRMC,171900.000,A,3842.4305,N,00908.1706,W,2.52,153.71,080216,,,A*75,38.7071723937,-9.1361761093,17:19:0,8/2/2016,29,2,11.61,68,14.45
$GPRMC,171901.000,A,3842.4297,N,00908.1704,W,2.57,163.64,080216,,,A*7E,38.7071609497,-9.1361732482,17:19:0,8/2/2016,29,39,17.39,58,14.94
$GPRMC,171902.000,A,3842.4289,N,00908.1702,W,2.20,190.59,080216,,,A*76,38.7071495056,-9.1361703872,17:19:2,8/2/2016,29,0,9.33,57,14.45
$GPRMC,171903.000,A,3842.4282,N,00908.1701,W,2.19,180.18,080216,,,A*71,38.7071380615,-9.1361684799,17:19:3,8/2/2016,28,7,11.33,55,14.45
$GPRMC,171904.000,A,3842.4277,N,00908.1699,W,1.99,177.30,080216,,,A*75,38.7071304321,-9.1361656188,17:19:4,8/2/2016,28,11,34.13,179,14.45
$GPRMC,171905.000,A,3842.4269,N,00908.1696,W,2.76,169.56,080216,,,A*79,38.7071151733,-9.1361598968,17:19:4,8/2/2016,28,0,2.96,34,14.45
$GPRMC,171906.000,A,3842.4261,N,00908.1695,W,2.56,187.89,080216,,,A*71,38.7070999145,-9.1361579895,17:19:6,8/2/2016,29,26,20.30,87,14.45
$GPRMC,171907.000,A,3842.4255,N,00908.1696,W,2.19,187.29,080216,,,A*75,38.7070922851,-9.1361598968,17:19:7,8/2/2016,29,23,10.14,54,14.45
$GPRMC,171908.000,A,3842.4249,N,00908.1694,W,2.13,162.49,080216,,,A*72,38.7070808410,-9.1361560821,17:19:8,8/2/2016,30,27,16.17,72,13.96
$GPRMC,171909.000,A,3842.4243,N,00908.1691,W,2.73,149.26,080216,,,A*7A,38.7070732116,-9.1361513137,17:19:8,8/2/2016,31,14,15.11,59,13.48
$GPRMC,171910.000,A,3842.4236,N,00908.1687,W,2.50,151.24,080216,,,A*7D,38.7070579528,-9.1361446380,17:19:10,8/2/2016,31,32,48.62,292,14.45
$GPRMC,171911.000,A,3842.4231,N,00908.1683,W,1.85,161.50,080216,,,A*74,38.7070503234,-9.1361379623,17:19:11,8/2/2016,30,14,23.22,90,13.48
$GPRMC,171912.000,A,3842.4226,N,00908.1681,W,2.43,161.53,080216,,,A*79,38.7070426940,-9.1361351013,17:19:12,8/2/2016,29,15,40.49,203,12.50
$GPRMC,171913.000,A,3842.4220,N,00908.1677,W,2.97,153.82,080216,,,A*73,38.7070350646,-9.1361284255,17:19:12,8/2/2016,29,31,13.55,73,14.94
$GPRMC,171914.000,A,3842.4213,N,00908.1673,W,3.07,152.97,080216,,,A*7D,38.7070236206,-9.1361217498,17:19:14,8/2/2016,30,9,12.51,88,14.94
$GPRMC,171915.000,A,3842.4206,N,00908.1668,W,2.64,160.62,080216,,,A*7D,38.7070121765,-9.1361131668,17:19:15,8/2/2016,31,0,1.68,18,14.94
$GPRMC,171916.000,A,3842.4199,N,00908.1665,W,2.16,162.29,080216,,,A*7E,38.7069969177,-9.1361083984,17:19:16,8/2/2016,30,0,0.83,23,14.45
$GPRMC,171917.000,A,3842.4192,N,00908.1663,W,2.70,163.81,080216,,,A*71,38.7069854736,-9.1361055374,17:19:16,8/2/2016,30,2,0.76,18,14.45
$GPRMC,171918.000,A,3842.4186,N,00908.1661,W,2.14,160.57,080216,,,A*73,38.7069778442,-9.1361017227,17:19:18,8/2/2016,30,0,1.82,17,14.45
$GPRMC,171919.000,A,3842.4181,N,00908.1660,W,2.01,182.44,080216,,,A*7E,38.7069702148,-9.1360998153,17:19:19,8/2/2016,30,0,3.14,46,14.45
$GPRMC,171920.000,A,3842.4174,N,00908.1659,W,2.52,172.69,080216,,,A*72,38.7069587707,-9.1360979080,17:19:20,8/2/2016,30,14,15.67,92,14.45
$GPRMC,171921.000,A,3842.4168,N,00908.1657,W,2.37,162.76,080216,,,A*7C,38.7069473266,-9.1360950469,17:19:20,8/2/2016,30,69,14.32,100,14.45
$GPRMC,171922.000,A,3842.4162,N,00908.1654,W,2.63,157.64,080216,,,A*72,38.7069358825,-9.1360902786,17:19:22,8/2/2016,30,48,34.00,157,14.45
$GPRMC,171923.000,A,3842.4156,N,00908.1652,W,2.28,179.44,080216,,,A*73,38.7069244384,-9.1360874176,17:19:23,8/2/2016,29,11,27.05,121,14.45
$GPRMC,171924.000,A,3842.4150,N,00908.1651,W,2.35,177.35,080216,,,A*75,38.7069168090,-9.1360845565,17:19:24,8/2/2016,28,0,20.11,133,14.45
$GPRMC,171925.000,A,3842.4144,N,00908.1651,W,2.11,182.33,080216,,,A*7B,38.7069053649,-9.1360845565,17:19:24,8/2/2016,28,3,20.15,117,14.94
$GPRMC,171926.000,A,3842.4139,N,00908.1653,W,2.38,199.93,080216,,,A*7B,38.7068977355,-9.1360883712,17:19:26,8/2/2016,29,18,13.42,56,14.45
$GPRMC,171927.000,A,3842.4132,N,00908.1655,W,2.11,183.93,080216,,,A*77,38.7068862915,-9.1360912322,17:19:27,8/2/2016,32,0,2.57,32,14.94
$GPRMC,171928.000,A,3842.4125,N,00908.1653,W,2.51,153.21,080216,,,A*78,38.7068748474,-9.1360883712,17:19:28,8/2/2016,32,3,9.26,61,14.94
$GPRMC,171929.000,A,3842.4120,N,00908.1648,W,2.13,133.15,080216,,,A*71,38.7068672180,-9.1360797882,17:19:28,8/2/2016,32,40,15.95,84,14.94
$GPRMC,171930.000,A,3842.4117,N,00908.1641,W,2.30,122.13,080216,,,A*73,38.7068595886,-9.1360683441,17:19:30,8/2/2016,30,15,14.88,59,14.94
$GPRMC,171931.000,A,3842.4113,N,00908.1634,W,2.45,134.31,080216,,,A*71,38.7068557739,-9.1360569000,17:19:31,8/2/2016,31,7,19.72,77,14.45
$GPRMC,171932.000,A,3842.4109,N,00908.1629,W,2.16,144.52,080216,,,A*71,38.7068481445,-9.1360483169,17:19:32,8/2/2016,32,4,2.26,17,14.45
$GPRMC,171933.000,A,3842.4103,N,00908.1624,W,2.33,140.00,080216,,,A*73,38.7068405151,-9.1360406875,17:19:32,8/2/2016,32,3,4.80,35,14.94
$GPRMC,171934.000,A,3842.4098,N,00908.1618,W,2.26,136.67,080216,,,A*7C,38.7068328857,-9.1360301971,17:19:34,8/2/2016,32,10,2.47,28,14.45
$GPRMC,171935.000,A,3842.4095,N,00908.1613,W,1.91,132.67,080216,,,A*70,38.7068252563,-9.1360216140,17:19:35,8/2/2016,32,10,10.89,67,14.94
$GPRMC,171936.000,A,3842.4090,N,00908.1607,W,2.23,132.65,080216,,,A*7B,38.7068138122,-9.1360120773,17:19:36,8/2/2016,31,29,19.51,70,14.94
$GPRMC,171937.000,A,3842.4086,N,00908.1602,W,2.01,149.98,080216,,,A*76,38.7068099975,-9.1360034942,17:19:36,8/2/2016,31,16,27.40,166,14.94
$GPRMC,171938.000,A,3842.4082,N,00908.1597,W,2.06,130.18,080216,,,A*73,38.7068023681,-9.1359958648,17:19:38,8/2/2016,33,5,11.42,51,14.94
$GPRMC,171939.000,A,3842.4078,N,00908.1592,W,2.33,143.41,080216,,,A*7C,38.7067947387,-9.1359863281,17:19:39,8/2/2016,33,22,6.48,43,14.94
$GPRMC,171940.000,A,3842.4075,N,00908.1589,W,1.66,145.93,080216,,,A*7F,38.7067909240,-9.1359815597,17:19:40,8/2/2016,32,10,15.30,77,14.94
$GPRMC,171941.000,A,3842.4071,N,00908.1584,W,1.51,125.20,080216,,,A*7D,38.7067832946,-9.1359729766,17:19:40,8/2/2016,32,16,21.48,72,14.94
$GPRMC,171942.000,A,3842.4067,N,00908.1578,W,2.17,128.18,080216,,,A*7D,38.7067794799,-9.1359624862,17:19:42,8/2/2016,32,3,10.85,43,14.94
$GPRMC,171943.000,A,3842.4061,N,00908.1573,W,2.51,144.34,080216,,,A*77,38.7067680358,-9.1359548568,17:19:43,8/2/2016,30,8,7.07,47,14.94
$GPRMC,171944.000,A,3842.4056,N,00908.1568,W,2.62,139.92,080216,,,A*78,38.7067604064,-9.1359462738,17:19:44,8/2/2016,31,13,10.35,69,14.45
$GPRMC,171945.000,A,3842.4051,N,00908.1563,W,2.32,149.92,080216,,,A*77,38.7067489624,-9.1359386444,17:19:44,8/2/2016,31,3,8.42,47,14.94
$GPRMC,171946.000,A,3842.4045,N,00908.1559,W,1.84,163.41,080216,,,A*70,38.7067413330,-9.1359310150,17:19:46,8/2/2016,31,7,8.03,81,14.94
$GPRMC,171947.000,A,3842.4040,N,00908.1556,W,1.88,163.71,080216,,,A*74,38.7067337036,-9.1359262466,17:19:47,8/2/2016,30,46,9.68,73,14.94
$GPRMC,171948.000,A,3842.4036,N,00908.1555,W,1.85,175.78,080216,,,A*7A,38.7067260742,-9.1359252929,17:19:48,8/2/2016,31,6,1.77,40,14.94
$GPRMC,171949.000,A,3842.4030,N,00908.1553,W,1.97,160.38,080216,,,A*78,38.7067184448,-9.1359214782,17:19:48,8/2/2016,30,4,1.30,12,14.94
$GPRMC,171950.000,A,3842.4025,N,00908.1549,W,1.36,150.06,080216,,,A*7A,38.7067108154,-9.1359148025,17:19:50,8/2/2016,30,2,5.57,50,14.45
$GPRMC,171951.000,A,3842.4023,N,00908.1546,W,1.23,138.78,080216,,,A*71,38.7067070007,-9.1359100341,17:19:51,8/2/2016,30,3,1.85,21,13.96
$GPRMC,171952.000,A,3842.4022,N,00908.1546,W,0.50,159.67,080216,,,A*7F,38.7067031860,-9.1359100341,17:19:52,8/2/2016,29,0,0.82,10,14.94
$GPRMC,171953.000,A,3842.4022,N,00908.1549,W,0.77,244.49,080216,,,A*77,38.7067031860,-9.1359148025,17:19:52,8/2/2016,28,3,1.01,9,14.94
$GPRMC,171954.000,A,3842.4021,N,00908.1554,W,1.28,252.82,080216,,,A*74,38.7067031860,-9.1359233856,17:19:54,8/2/2016,29,5,3.81,18,14.94
$GPRMC,171955.000,A,3842.4021,N,00908.1560,W,1.78,268.81,080216,,,A*7D,38.7067031860,-9.1359338760,17:19:55,8/2/2016,29,7,6.78,38,14.94
$GPRMC,171956.000,A,3842.4021,N,00908.1566,W,1.74,267.22,080216,,,A*72,38.7067031860,-9.1359434127,17:19:56,8/2/2016,30,7,6.79,26,14.94
$GPRMC,171957.000,A,3842.4019,N,00908.1567,W,1.12,252.04,080216,,,A*7B,38.7066993713,-9.1359443664,17:19:56,8/2/2016,31,0,4.85,25,14.94
$GPRMC,171958.000,A,3842.4016,N,00908.1568,W,0.87,209.54,080216,,,A*72,38.7066917419,-9.1359462738,17:19:58,8/2/2016,31,1,0.98,10,14.94
$GPRMC,171959.000,A,3842.4013,N,00908.1567,W,0.88,179.18,080216,,,A*7A,38.7066879272,-9.1359443664,17:19:59,8/2/2016,31,1,2.54,33,14.94
$GPRMC,172000.000,A,3842.4013,N,00908.1567,W,0.42,182.83,080216,,,A*7C,38.7066879272,-9.1359443664,17:20:0,8/2/2016,30,0,4.62,37,14.94
$GPRMC,172001.000,A,3842.4014,N,00908.1566,W,0.11,229.00,080216,,,A*74,38.7066879272,-9.1359434127,17:20:0,8/2/2016,29,4,10.45,126,14.94
$GPRMC,172002.000,A,3842.4016,N,00908.1565,W,0.28,22.69,080216,,,A*4A,38.7066917419,-9.1359415054,17:20:2,8/2/2016,30,0,4.52,26,14.94
$GPRMC,172003.000,A,3842.4017,N,00908.1565,W,0.19,14.16,080216,,,A*45,38.7066917419,-9.1359415054,17:20:3,8/2/2016,30,4,15.32,75,14.94
$GPRMC,172004.000,A,3842.4017,N,00908.1565,W,0.09,304.76,080216,,,A*77,38.7066917419,-9.1359415054,17:20:4,8/2/2016,30,14,34.81,158,14.94
$GPRMC,172005.000,A,3842.4018,N,00908.1565,W,0.20,13.67,080216,,,A*47,38.7066993713,-9.1359415054,17:20:4,8/2/2016,30,3,9.29,59,14.94
$GPRMC,172006.000,A,3842.4018,N,00908.1565,W,0.20,29.50,080216,,,A*49,38.7066993713,-9.1359415054,17:20:6,8/2/2016,30,5,3.52,19,15.43
$GPRMC,172007.000,A,3842.4019,N,00908.1564,W,0.51,13.72,080216,,,A*47,38.7066993713,-9.1359395980,17:20:7,8/2/2016,30,7,17.89,64,14.94
$GPRMC,172008.000,A,3842.4020,N,00908.1564,W,0.67,339.01,080216,,,A*78,38.7067031860,-9.1359395980,17:20:8,8/2/2016,29,4,10.20,41,15.43
$GPRMC,172009.000,A,3842.4023,N,00908.1564,W,0.68,347.31,080216,,,A*7F,38.7067070007,-9.1359395980,17:20:8,8/2/2016,29,3,5.32,25,15.43
$GPRMC,172010.000,A,3842.4026,N,00908.1566,W,0.63,344.71,080216,,,A*7C,38.7067108154,-9.1359434127,17:20:10,8/2/2016,31,3,7.36,27,14.94
$GPRMC,172011.000,A,3842.4028,N,00908.1569,W,0.85,320.40,080216,,,A*74,38.7067146301,-9.1359491348,17:20:11,8/2/2016,31,6,6.88,27,15.43
$GPRMC,172012.000,A,3842.4029,N,00908.1577,W,1.38,294.54,080216,,,A*75,38.7067146301,-9.1359615325,17:20:12,8/2/2016,30,6,8.36,33,15.43
$GPRMC,172013.000,A,3842.4031,N,00908.1584,W,1.76,292.64,080216,,,A*7E,38.7067184448,-9.1359729766,17:20:12,8/2/2016,29,14,5.64,34,15.43
$GPRMC,172014.000,A,3842.4032,N,00908.1591,W,1.95,286.31,080216,,,A*76,38.7067222595,-9.1359853744,17:20:14,8/2/2016,29,9,8.76,35,15.43
$GPRMC,172015.000,A,3842.4033,N,00908.1598,W,1.80,284.04,080216,,,A*7F,38.7067222595,-9.1359968185,17:20:15,8/2/2016,28,15,20.69,135,15.43
$GPRMC,172016.000,A,3842.4033,N,00908.1604,W,1.66,274.86,080216,,,A*77,38.7067222595,-9.1360063552,17:20:16,8/2/2016,28,9,22.82,119,15.43
$GPRMC,172017.000,A,3842.4030,N,00908.1611,W,1.60,246.72,080216,,,A*7D,38.7067184448,-9.1360177993,17:20:16,8/2/2016,29,19,23.97,102,15.43
$GPRMC,172018.000,A,3842.4028,N,00908.1617,W,1.51,249.79,080216,,,A*7B,38.7067146301,-9.1360282897,17:20:18,8/2/2016,29,22,17.78,69,15.43
$GPRMC,172019.000,A,3842.4026,N,00908.1621,W,1.56,241.64,080216,,,A*72,38.7067108154,-9.1360349655,17:20:19,8/2/2016,28,11,11.82,37,14.94
$GPRMC,172020.000,A,3842.4023,N,00908.1626,W,1.33,234.13,080216,,,A*7B,38.7067070007,-9.1360435485,17:20:20,8/2/2016,29,8,17.91,46,14.94
$GPRMC,172021.000,A,3842.4021,N,00908.1629,W,1.19,226.35,080216,,,A*78,38.7067031860,-9.1360483169,17:20:20,8/2/2016,29,10,13.73,42,14.94
$GPRMC,172022.000,A,3842.4018,N,00908.1631,W,1.57,198.85,080216,,,A*7F,38.7066993713,-9.1360511779,17:20:22,8/2/2016,30,8,11.46,43,14.94
$GPRMC,172023.000,A,3842.4014,N,00908.1631,W,1.06,169.77,080216,,,A*75,38.7066879272,-9.1360511779,17:20:23,8/2/2016,29,7,10.07,41,14.94
$GPRMC,172024.000,A,3842.4010,N,00908.1631,W,1.23,176.56,080216,,,A*7C,38.7066802978,-9.1360511779,17:20:24,8/2/2016,29,9,3.96,21,14.94
$GPRMC,172025.000,A,3842.4006,N,00908.1632,W,1.28,192.67,080216,,,A*7A,38.7066764831,-9.1360530853,17:20:24,8/2/2016,29,1,3.95,27,14.94
$GPRMC,172026.000,A,3842.4002,N,00908.1634,W,1.46,201.84,080216,,,A*77,38.7066688537,-9.1360569000,17:20:26,8/2/2016,29,0,2.93,23,14.94
$GPRMC,172027.000,A,3842.3999,N,00908.1636,W,0.92,212.45,080216,,,A*7F,38.7066650390,-9.1360597610,17:20:27,8/2/2016,30,0,1.94,29,14.45
$GPRMC,172028.000,A,3842.3996,N,00908.1637,W,1.14,176.05,080216,,,A*74,38.7066612243,-9.1360616683,17:20:28,8/2/2016,29,0,2.95,21,14.45
$GPRMC,172029.000,A,3842.3992,N,00908.1636,W,1.58,163.10,080216,,,A*78,38.7066535949,-9.1360597610,17:20:28,8/2/2016,30,3,6.22,50,14.94
$GPRMC,172030.000,A,3842.3988,N,00908.1636,W,1.42,186.50,080216,,,A*7F,38.7066459655,-9.1360597610,17:20:30,8/2/2016,30,5,9.93,82,14.94
$GPRMC,172031.000,A,3842.3984,N,00908.1637,W,1.25,183.24,080216,,,A*74,38.7066421508,-9.1360616683,17:20:31,8/2/2016,31,8,9.44,86,14.94
$GPRMC,172032.000,A,3842.3981,N,00908.1637,W,1.09,186.97,080216,,,A*71,38.7066383361,-9.1360616683,17:20:32,8/2/2016,32,24,9.30,37,14.94
$GPRMC,172033.000,A,3842.3979,N,00908.1635,W,0.90,153.75,080216,,,A*70,38.7066307067,-9.1360588073,17:20:32,8/2/2016,32,1,6.01,55,14.45
$GPRMC,172034.000,A,3842.3975,N,00908.1631,W,1.46,137.49,080216,,,A*78,38.7066230773,-9.1360511779,17:20:34,8/2/2016,32,6,5.15,57,14.94
$GPRMC,172035.000,A,3842.3973,N,00908.1628,W,1.36,133.81,080216,,,A*70,38.7066192626,-9.1360464096,17:20:35,8/2/2016,32,2,11.41,68,14.94
$GPRMC,172036.000,A,3842.3972,N,00908.1624,W,1.25,121.65,080216,,,A*75,38.7066192626,-9.1360406875,17:20:36,8/2/2016,32,13,3.78,52,14.94
$GPRMC,172037.000,A,3842.3971,N,00908.1621,W,1.14,110.71,080216,,,A*77,38.7066192626,-9.1360349655,17:20:36,8/2/2016,34,3,1.51,24,14.45
$GPRMC,172038.000,A,3842.3971,N,00908.1617,W,1.19,89.37,080216,,,A*43,38.7066192626,-9.1360282897,17:20:38,8/2/2016,34,0,0.53,9,14.94
$GPRMC,172039.000,A,3842.3971,N,00908.1613,W,1.21,72.79,080216,,,A*43,38.7066192626,-9.1360216140,17:20:39,8/2/2016,33,0,0.60,8,14.94
$GPRMC,172040.000,A,3842.3971,N,00908.1609,W,1.03,82.47,080216,,,A*44,38.7066192626,-9.1360149383,17:20:40,8/2/2016,30,0,6.51,48,14.45
$GPRMC,172041.000,A,3842.3970,N,00908.1609,W,0.30,158.14,080216,,,A*75,38.7066154479,-9.1360149383,17:20:40,8/2/2016,29,6,7.08,51,14.45
$GPRMC,172042.000,A,3842.3969,N,00908.1610,W,0.16,186.03,080216,,,A*77,38.7066154479,-9.1360168457,17:20:42,8/2/2016,30,5,7.83,64,14.94
$GPRMC,172043.000,A,3842.3969,N,00908.1609,W,0.11,65.25,080216,,,A*41,38.7066154479,-9.1360149383,17:20:43,8/2/2016,30,10,8.62,80,14.45
$GPRMC,172044.000,A,3842.3970,N,00908.1611,W,0.18,303.15,080216,,,A*7E,38.7066154479,-9.1360177993,17:20:44,8/2/2016,29,0,6.64,73,14.94
$GPRMC,172045.000,A,3842.3970,N,00908.1611,W,0.50,279.20,080216,,,A*79,38.7066154479,-9.1360177993,17:20:44,8/2/2016,30,2,10.47,102,14.94
$GPRMC,172046.000,A,3842.3970,N,00908.1613,W,1.08,285.24,080216,,,A*73,38.7066154479,-9.1360216140,17:20:46,8/2/2016,30,3,2.04,16,14.94
$GPRMC,172047.000,A,3842.3970,N,00908.1617,W,1.23,274.33,080216,,,A*77,38.7066154479,-9.1360282897,17:20:47,8/2/2016,30,1,6.30,59,14.94
$GPRMC,172048.000,A,3842.3969,N,00908.1622,W,1.36,267.62,080216,,,A*74,38.7066154479,-9.1360359191,17:20:48,8/2/2016,30,0,4.17,25,14.94
$GPRMC,172049.000,A,3842.3968,N,00908.1627,W,1.33,257.77,080216,,,A*73,38.7066116333,-9.1360454559,17:20:48,8/2/2016,29,3,2.31,18,14.94
$GPRMC,172050.000,A,3842.3967,N,00908.1633,W,1.67,257.65,080216,,,A*73,38.7066116333,-9.1360559463,17:20:50,8/2/2016,30,1,9.26,119,14.94
$GPRMC,172051.000,A,3842.3965,N,00908.1640,W,1.76,257.65,080216,,,A*74,38.7066078186,-9.1360664367,17:20:51,8/2/2016,30,2,11.92,98,14.94
$GPRMC,172052.000,A,3842.3965,N,00908.1645,W,1.65,257.28,080216,,,A*79,38.7066078186,-9.1360750198,17:20:52,8/2/2016,30,9,2.99,25,14.94
$GPRMC,172053.000,A,3842.3963,N,00908.1650,W,1.65,253.82,080216,,,A*7E,38.7066040039,-9.1360826492,17:20:52,8/2/2016,31,9,7.66,57,14.94
$GPRMC,172054.000,A,3842.3961,N,00908.1655,W,1.58,251.65,080216,,,A*7B,38.7066001892,-9.1360912322,17:20:54,8/2/2016,30,2,5.35,41,14.94
$GPRMC,172055.000,A,3842.3959,N,00908.1660,W,1.57,250.28,080216,,,A*70,38.7066001892,-9.1360998153,17:20:55,8/2/2016,31,17,10.93,174,14.94
$GPRMC,172056.000,A,3842.3958,N,00908.1666,W,1.76,254.23,080216,,,A*78,38.7065963745,-9.1361103057,17:20:56,8/2/2016,31,9,8.98,67,14.94
$GPRMC,172057.000,A,3842.3959,N,00908.1672,W,1.73,260.90,080216,,,A*77,38.7066001892,-9.1361198425,17:20:56,8/2/2016,30,5,22.91,355,14.94
$GPRMC,172058.000,A,3842.3958,N,00908.1677,W,1.27,262.97,080216,,,A*78,38.7065963745,-9.1361284255,17:20:58,8/2/2016,30,7,21.71,177,14.94
$GPRMC,172059.000,A,3842.3958,N,00908.1681,W,1.14,269.49,080216,,,A*78,38.7065963745,-9.1361351013,17:20:59,8/2/2016,30,13,4.67,56,14.45
$GPRMC,172100.000,A,3842.3957,N,00908.1684,W,0.85,260.69,080216,,,A*7D,38.7065963745,-9.1361398696,17:21:0,8/2/2016,30,36,11.12,65,14.45
$GPRMC,172101.000,A,3842.3954,N,00908.1686,W,0.73,235.61,080216,,,A*7C,38.7065925598,-9.1361427307,17:21:0,8/2/2016,31,12,15.57,98,14.45
$GPRMC,172102.000,A,3842.3952,N,00908.1690,W,0.67,241.34,080216,,,A*78,38.7065887451,-9.1361503601,17:21:2,8/2/2016,30,10,14.79,65,14.45
$GPRMC,172103.000,A,3842.3949,N,00908.1692,W,0.92,213.01,080216,,,A*7A,38.7065849304,-9.1361532211,17:21:3,8/2/2016,30,1,3.29,34,14.45
$GPRMC,172104.000,A,3842.3950,N,00908.1695,W,0.82,244.05,080216,,,A*75,38.7065849304,-9.1361579895,17:21:4,8/2/2016,31,4,13.49,100,14.45
$GPRMC,172105.000,A,3842.3953,N,00908.1700,W,1.15,279.70,080216,,,A*79,38.7065887451,-9.1361665725,17:21:4,8/2/2016,31,20,20.68,128,14.45
$GPRMC,172106.000,A,3842.3954,N,00908.1704,W,1.33,292.45,080216,,,A*7E,38.7065925598,-9.1361732482,17:21:6,8/2/2016,32,6,3.18,35,14.45
$GPRMC,172107.000,A,3842.3957,N,00908.1708,W,1.31,310.04,080216,,,A*7C,38.7065963745,-9.1361799240,17:21:7,8/2/2016,31,0,10.61,104,14.45
$GPRMC,172108.000,A,3842.3958,N,00908.1710,W,1.09,307.56,080216,,,A*7F,38.7065963745,-9.1361837387,17:21:8,8/2/2016,32,71,15.00,140,14.45
$GPRMC,172109.000,A,3842.3959,N,00908.1715,W,1.17,303.96,080216,,,A*7D,38.7066001892,-9.1361913681,17:21:8,8/2/2016,34,13,52.03,201,14.45
$GPRMC,172110.000,A,3842.3961,N,00908.1718,W,1.16,312.85,080216,,,A*70,38.7066001892,-9.1361970901,17:21:10,8/2/2016,39,103,24.84,181,14.45
$GPRMC,172111.000,A,3842.3963,N,00908.1721,W,1.13,321.49,080216,,,A*7C,38.7066040039,-9.1362018585,17:21:11,8/2/2016,45,0,33.19,302,14.45
$GPRMC,172112.000,A,3842.3965,N,00908.1725,W,1.12,316.64,080216,,,A*77,38.7066078186,-9.1362085342,17:21:12,8/2/2016,41,0,6.14,68,14.45
$GPRMC,172113.000,A,3842.3967,N,00908.1724,W,1.00,350.05,080216,,,A*73,38.7066116333,-9.1362066268,17:21:12,8/2/2016,41,7,4.64,32,14.45
$GPRMC,172114.000,A,3842.3970,N,00908.1724,W,1.37,10.34,080216,,,A*43,38.7066154479,-9.1362066268,17:21:14,8/2/2016,36,1,4.94,34,14.45
$GPRMC,172115.000,A,3842.3972,N,00908.1721,W,1.31,26.07,080216,,,A*46,38.7066192626,-9.1362018585,17:21:15,8/2/2016,37,4,5.72,19,13.48
$GPRMC,172116.000,A,3842.3974,N,00908.1718,W,1.37,33.58,080216,,,A*41,38.7066230773,-9.1361970901,17:21:16,8/2/2016,36,8,6.28,25,14.45
$GPRMC,172117.000,A,3842.3977,N,00908.1715,W,1.63,35.49,080216,,,A*49,38.7066268920,-9.1361913681,17:21:16,8/2/2016,35,7,7.65,26,13.48
$GPRMC,172118.000,A,3842.3980,N,00908.1715,W,1.44,21.21,080216,,,A*40,38.7066307067,-9.1361913681,17:21:18,8/2/2016,34,21,12.77,39,14.45
$GPRMC,172119.000,A,3842.3988,N,00908.1715,W,1.85,5.46,080216,,,A*73,38.7066459655,-9.1361913681,17:21:19,8/2/2016,33,17,19.64,56,14.94
$GPRMC,172120.000,A,3842.3992,N,00908.1716,W,1.70,355.10,080216,,,A*7E,38.7066535949,-9.1361932754,17:21:20,8/2/2016,31,8,17.81,76,14.94
$GPRMC,172121.000,A,3842.3994,N,00908.1718,W,1.58,336.00,080216,,,A*79,38.7066574096,-9.1361970901,17:21:20,8/2/2016,31,28,28.28,119,14.45
$GPRMC,172122.000,A,3842.3995,N,00908.1720,W,1.18,326.05,080216,,,A*70,38.7066574096,-9.1361999511,17:21:22,8/2/2016,30,14,10.42,44,14.94
$GPRMC,172123.000,A,3842.3996,N,00908.1723,W,0.98,307.34,080216,,,A*79,38.7066612243,-9.1362047195,17:21:23,8/2/2016,30,2,5.01,19,14.94
$GPRMC,172124.000,A,3842.3997,N,00908.1728,W,1.24,289.81,080216,,,A*7B,38.7066612243,-9.1362133026,17:21:24,8/2/2016,31,15,19.06,185,14.94
$GPRMC,172125.000,A,3842.3996,N,00908.1732,W,1.14,260.88,080216,,,A*7D,38.7066612243,-9.1362199783,17:21:24,8/2/2016,30,74,9.13,109,14.45
$GPRMC,172126.000,A,3842.3994,N,00908.1734,W,0.99,229.43,080216,,,A*74,38.7066574096,-9.1362237930,17:21:26,8/2/2016,31,2,6.51,77,14.45
$GPRMC,172127.000,A,3842.3990,N,00908.1735,W,1.16,208.05,080216,,,A*77,38.7066497802,-9.1362257003,17:21:27,8/2/2016,31,3,1.49,11,14.45
$GPRMC,172128.000,A,3842.3986,N,00908.1738,W,1.33,201.85,080216,,,A*74,38.7066459655,-9.1362304687,17:21:28,8/2/2016,30,5,4.28,21,14.45
$GPRMC,172129.000,A,3842.3982,N,00908.1740,W,1.36,197.59,080216,,,A*76,38.7066383361,-9.1362333297,17:21:28,8/2/2016,31,3,1.60,12,14.94
$GPRMC,172130.000,A,3842.3978,N,00908.1739,W,1.28,172.58,080216,,,A*70,38.7066268920,-9.1362314224,17:21:30,8/2/2016,34,17,17.89,158,14.94
$GPRMC,172131.000,A,3842.3975,N,00908.1739,W,1.07,164.40,080216,,,A*7F,38.7066230773,-9.1362314224,17:21:31,8/2/2016,33,0,1.18,17,14.45
$GPRMC,172132.000,A,3842.3971,N,00908.1737,W,1.26,152.30,080216,,,A*77,38.7066192626,-9.1362285614,17:21:32,8/2/2016,33,0,1.16,10,14.45
$GPRMC,172133.000,A,3842.3968,N,00908.1735,W,1.25,146.63,080216,,,A*7C,38.7066116333,-9.1362257003,17:21:32,8/2/2016,32,3,5.44,64,14.45
$GPRMC,172134.000,A,3842.3964,N,00908.1734,W,1.16,156.00,080216,,,A*72,38.7066078186,-9.1362237930,17:21:34,8/2/2016,31,0,1.07,10,14.45
$GPRMC,172135.000,A,3842.3964,N,00908.1733,W,0.60,139.77,080216,,,A*7D,38.7066078186,-9.1362209320,17:21:35,8/2/2016,32,0,1.38,19,14.94
$GPRMC,172136.000,A,3842.3964,N,00908.1731,W,0.20,102.94,080216,,,A*7D,38.7066078186,-9.1362180709,17:21:36,8/2/2016,31,1,1.21,12,14.94
$GPRMC,172137.000,A,3842.3966,N,00908.1731,W,0.31,7.18,080216,,,A*7E,38.7066078186,-9.1362180709,17:21:36,8/2/2016,32,2,1.39,28,14.94
$GPRMC,172138.000,A,3842.3970,N,00908.1734,W,1.07,323.74,080216,,,A*78,38.7066154479,-9.1362237930,17:21:38,8/2/2016,32,8,3.38,19,14.94
$GPRMC,172139.000,A,3842.3975,N,00908.1738,W,1.51,326.45,080216,,,A*74,38.7066230773,-9.1362304687,17:21:39,8/2/2016,34,1,4.00,24,14.94
$GPRMC,172140.000,A,3842.3980,N,00908.1740,W,1.52,334.68,080216,,,A*70,38.7066307067,-9.1362333297,17:21:40,8/2/2016,33,7,7.93,45,14.94
$GPRMC,172141.000,A,3842.3985,N,00908.1741,W,1.61,342.30,080216,,,A*79,38.7066421508,-9.1362342834,17:21:40,8/2/2016,33,4,5.89,40,14.94
$GPRMC,172142.000,A,3842.3990,N,00908.1744,W,1.80,337.09,080216,,,A*7C,38.7066497802,-9.1362400054,17:21:42,8/2/2016,32,3,3.52,24,14.94
$GPRMC,172143.000,A,3842.3993,N,00908.1748,W,1.69,332.55,080216,,,A*79,38.7066574096,-9.1362466812,17:21:43,8/2/2016,32,3,1.87,20,14.94
$GPRMC,172144.000,A,3842.3998,N,00908.1750,W,1.71,337.05,080216,,,A*75,38.7066650390,-9.1362495422,17:21:44,8/2/2016,32,0,2.37,33,14.45
$GPRMC,172145.000,A,3842.4002,N,00908.1754,W,1.78,329.00,080216,,,A*7E,38.7066688537,-9.1362571716,17:21:44,8/2/2016,33,5,5.88,30,14.94
$GPRMC,172146.000,A,3842.4007,N,00908.1757,W,1.85,335.61,080216,,,A*73,38.7066764831,-9.1362619400,17:21:46,8/2/2016,33,4,7.28,39,14.45
$GPRMC,172147.000,A,3842.4011,N,00908.1759,W,1.79,349.94,080216,,,A*79,38.7066841125,-9.1362648010,17:21:47,8/2/2016,35,0,2.37,19,14.45
$GPRMC,172148.000,A,3842.4015,N,00908.1759,W,1.64,358.13,080216,,,A*71,38.7066917419,-9.1362648010,17:21:48,8/2/2016,35,9,3.58,31,14.45
$GPRMC,172149.000,A,3842.4017,N,00908.1757,W,1.59,27.37,080216,,,A*4F,38.7066917419,-9.1362619400,17:21:48,8/2/2016,35,0,7.04,58,14.45
$GPRMC,172150.000,A,3842.4018,N,00908.1754,W,1.53,46.61,080216,,,A*45,38.7066993713,-9.1362571716,17:21:50,8/2/2016,35,1,4.23,16,14.45
$GPRMC,172151.000,A,3842.4020,N,00908.1751,W,1.69,53.62,080216,,,A*44,38.7067031860,-9.1362514495,17:21:51,8/2/2016,36,10,7.10,30,14.45
$GPRMC,172152.000,A,3842.4022,N,00908.1745,W,2.04,60.21,080216,,,A*4F,38.7067031860,-9.1362419128,17:21:52,8/2/2016,38,29,14.41,65,14.94
$GPRMC,172153.000,A,3842.4024,N,00908.1740,W,1.93,56.16,080216,,,A*41,38.7067070007,-9.1362333297,17:21:52,8/2/2016,35,7,9.37,35,14.94
$GPRMC,172154.000,A,3842.4024,N,00908.1735,W,1.70,66.70,080216,,,A*4A,38.7067070007,-9.1362257003,17:21:54,8/2/2016,36,20,22.33,80,14.45
$GPRMC,172155.000,A,3842.4026,N,00908.1729,W,1.77,66.92,080216,,,A*4F,38.7067108154,-9.1362152099,17:21:55,8/2/2016,36,30,22.24,78,14.45
$GPRMC,172156.000,A,3842.4027,N,00908.1723,W,1.86,70.95,080216,,,A*49,38.7067108154,-9.1362047195,17:21:56,8/2/2016,35,36,34.66,123,14.45
$GPRMC,172157.000,A,3842.4027,N,00908.1717,W,1.86,76.80,080216,,,A*4D,38.7067108154,-9.1361951828,17:21:56,8/2/2016,34,16,39.40,123,14.94
$GPRMC,172158.000,A,3842.4026,N,00908.1709,W,2.08,81.97,080216,,,A*47,38.7067108154,-9.1361818313,17:21:58,8/2/2016,34,35,41.92,99,14.45
$GPRMC,172159.000,A,3842.4026,N,00908.1702,W,2.18,82.17,080216,,,A*47,38.7067108154,-9.1361703872,17:21:59,8/2/2016,36,53,46.35,104,14.45
$GPRMC,172200.000,A,3842.4025,N,00908.1695,W,1.94,85.14,080216,,,A*47,38.7067108154,-9.1361579895,17:22:0,8/2/2016,36,23,38.21,117,14.45
$GPRMC,172201.000,A,3842.4025,N,00908.1688,W,2.01,86.10,080216,,,A*42,38.7067108154,-9.1361474990,17:22:0,8/2/2016,36,62,43.29,112,14.45
$GPRMC,172202.000,A,3842.4025,N,00908.1681,W,2.06,85.40,080216,,,A*49,38.7067108154,-9.1361351013,17:22:2,8/2/2016,36,48,33.19,92,14.45
$GPRMC,172203.000,A,3842.4025,N,00908.1674,W,1.88,86.31,080216,,,A*42,38.7067108154,-9.1361236572,17:22:3,8/2/2016,36,41,26.22,126,14.45
$GPRMC,172204.000,A,3842.4026,N,00908.1667,W,2.05,80.38,080216,,,A*4D,38.7067108154,-9.1361112594,17:22:4,8/2/2016,36,21,34.87,98,14.45
$GPRMC,172205.000,A,3842.4027,N,00908.1661,W,1.94,78.40,080216,,,A*48,38.7067108154,-9.1361017227,17:22:4,8/2/2016,36,1,7.67,37,14.45
$GPRMC,172206.000,A,3842.4028,N,00908.1654,W,1.94,75.95,080216,,,A*47,38.7067146301,-9.1360902786,17:22:6,8/2/2016,36,0,1.97,24,14.45
$GPRMC,172207.000,A,3842.4029,N,00908.1647,W,1.88,77.77,080216,,,A*46,38.7067146301,-9.1360778808,17:22:7,8/2/2016,34,2,2.10,18,14.45
$GPRMC,172208.000,A,3842.4029,N,00908.1640,W,1.90,83.69,080216,,,A*43,38.7067146301,-9.1360664367,17:22:8,8/2/2016,35,1,2.76,37,14.45
$GPRMC,172209.000,A,3842.4030,N,00908.1634,W,1.81,81.96,080216,,,A*4B,38.7067184448,-9.1360569000,17:22:8,8/2/2016,36,0,2.53,18,14.45
$GPRMC,172210.000,A,3842.4029,N,00908.1627,W,1.88,87.69,080216,,,A*46,38.7067146301,-9.1360454559,17:22:10,8/2/2016,34,19,12.84,123,14.94
$GPRMC,172211.000,A,3842.4026,N,00908.1620,W,1.96,108.64,080216,,,A*7B,38.7067108154,-9.1360330581,17:22:11,8/2/2016,34,0,7.39,35,14.94
$GPRMC,172212.000,A,3842.4024,N,00908.1615,W,1.81,112.70,080216,,,A*74,38.7067070007,-9.1360254287,17:22:12,8/2/2016,33,6,1.15,20,14.45
$GPRMC,172213.000,A,3842.4023,N,00908.1609,W,1.85,113.64,080216,,,A*7F,38.7067070007,-9.1360149383,17:22:12,8/2/2016,35,9,6.37,48,14.45
$GPRMC,172214.000,A,3842.4022,N,00908.1603,W,1.80,108.40,080216,,,A*7A,38.7067031860,-9.1360044479,17:22:14,8/2/2016,35,75,32.88,196,14.45
$GPRMC,172215.000,A,3842.4021,N,00908.1598,W,1.71,111.55,080216,,,A*7B,38.7067031860,-9.1359968185,17:22:15,8/2/2016,35,4,17.03,137,14.45
$GPRMC,172216.000,A,3842.4021,N,00908.1593,W,1.65,106.26,080216,,,A*74,38.7067031860,-9.1359882354,17:22:16,8/2/2016,34,1,0.52,16,14.45
$GPRMC,172217.000,A,3842.4023,N,00908.1590,W,1.26,98.68,080216,,,A*4F,38.7067070007,-9.1359834671,17:22:16,8/2/2016,35,0,0.21,5,14.94
$GPRMC,172218.000,A,3842.4020,N,00908.1584,W,1.46,118.64,080216,,,A*75,38.7067031860,-9.1359729766,17:22:18,8/2/2016,36,0,0.48,8,14.45
$GPRMC,172219.000,A,3842.4019,N,00908.1579,W,1.44,109.57,080216,,,A*7E,38.7066993713,-9.1359653472,17:22:19,8/2/2016,36,0,4.00,23,14.45
$GPRMC,172220.000,A,3842.4019,N,00908.1575,W,1.34,100.56,080216,,,A*77,38.7066993713,-9.1359577178,17:22:20,8/2/2016,34,1,1.03,19,14.94
$GPRMC,172221.000,A,3842.4018,N,00908.1573,W,1.13,120.49,080216,,,A*78,38.7066993713,-9.1359548568,17:22:20,8/2/2016,33,0,0.87,16,14.45
$GPRMC,172222.000,A,3842.4017,N,00908.1570,W,1.10,143.36,080216,,,A*79,38.7066917419,-9.1359500885,17:22:22,8/2/2016,33,3,0.31,10,14.45
$GPRMC,172223.000,A,3842.4015,N,00908.1569,W,0.73,183.82,080216,,,A*75,38.7066917419,-9.1359491348,17:22:23,8/2/2016,33,0,0.90,15,14.45
$GPRMC,172224.000,A,3842.4015,N,00908.1568,W,0.52,208.35,080216,,,A*7C,38.7066917419,-9.1359462738,17:22:24,8/2/2016,34,0,0.73,10,14.45
$GPRMC,172421.487,A,3842.4288,N,00908.1709,W,2.79,341.13,080216,,,A*74,38.7071456909,-9.1361818313,17:24:21,0/0/200,34,3,18.26,126,14.45
$GPRMC,172422.487,A,3842.4296,N,00908.1707,W,2.69,333.69,080216,,,A*7F,38.7071609497,-9.1361789703,17:24:22,0/0/200,34,13,28.87,221,14.45
$GPRMC,172423.488,A,3842.4301,N,00908.1707,W,2.30,327.60,080216,,,A*7E,38.7071685791,-9.1361789703,17:24:23,0/0/200,34,34,19.49,69,14.45
$GPRMC,172424.487,A,3842.4305,N,00908.1704,W,2.27,333.66,080216,,,A*74,38.7071723937,-9.1361732482,17:24:24,0/0/200,35,15,15.86,111,14.45
$GPRMC,172425.488,A,3842.4311,N,00908.1704,W,2.23,342.45,080216,,,A*7C,38.7071876525,-9.1361732482,17:24:25,0/0/200,35,0,0.94,13,14.94
$GPRMC,172426.487,A,3842.4317,N,00908.1705,W,2.38,348.47,080216,,,A*75,38.7071952819,-9.1361742019,17:24:26,0/0/200,35,2,3.86,40,14.45
$GPRMC,172427.486,A,3842.4323,N,00908.1707,W,2.41,356.58,080216,,,A*7F,38.7072067260,-9.1361789703,17:24:27,0/0/200,34,0,0.59,8,14.45
$GPRMC,172428.486,A,3842.4330,N,00908.1707,W,2.96,351.57,080216,,,A*70,38.7072181701,-9.1361789703,17:24:28,0/0/200,34,0,1.16,18,14.45
$GPRMC,172429.486,A,3842.4337,N,00908.1709,W,2.72,346.82,080216,,,A*7C,38.7072257995,-9.1361818313,17:24:29,0/0/200,34,4,3.35,56,14.45
$GPRMC,172430.486,A,3842.4345,N,00908.1712,W,2.93,349.60,080216,,,A*77,38.7072410583,-9.1361865997,17:24:30,0/0/200,35,0,2.44,27,14.45
$GPRMC,172431.486,A,3842.4353,N,00908.1714,W,3.21,348.91,080216,,,A*70,38.7072563171,-9.1361894607,17:24:31,0/0/200,35,0,0.84,19,13.96
$GPRMC,172432.491,A,3842.4363,N,00908.1710,W,2.66,353.94,080216,,,A*7F,38.7072715759,-9.1361837387,17:24:32,0/0/200,35,10,6.60,38,14.45
$GPRMC,172434.000,A,3842.4374,N,00908.1713,W,2.64,345.73,080216,,,A*7C,38.7072906494,-9.1361885070,17:24:34,0/0/200,36,0,0.74,19,14.45
$GPRMC,172435.000,A,3842.4380,N,00908.1716,W,2.32,341.84,080216,,,A*7C,38.7072982788,-9.1361932754,17:24:35,0/0/200,35,3,9.00,71,14.94
$GPRMC,172436.000,A,3842.4388,N,00908.1717,W,2.84,351.73,080216,,,A*72,38.7073135375,-9.1361951828,17:24:36,0/0/200,36,0,1.55,28,14.45
$GPRMC,172437.000,A,3842.4394,N,00908.1717,W,2.47,1.38,080216,,,A*78,38.7073249816,-9.1361951828,17:24:36,0/0/200,35,0,0.43,10,14.45
$GPRMC,172438.000,A,3842.4403,N,00908.1717,W,2.62,355.09,080216,,,A*79,38.7073364257,-9.1361951828,17:24:38,0/0/200,35,0,0.54,10,14.45
$GPRMC,172439.000,A,3842.4411,N,00908.1719,W,2.74,353.83,080216,,,A*76,38.7073516845,-9.1361980438,17:24:39,0/0/200,36,0,4.14,45,14.94
