
$GPGGA,150117.094,,,,,0,00,,,M,,M,,*76,0.0000000000,0.0000000000,15:1:17,0/0/200,36,244,160.81,457,22.75,847.00,1,1
$GPRMC,150117.094,V,,,,,0.00,0.00,180516,,,N*48,0.0000000000,0.0000000000,15:1:17,18/5/2016,37,215,215.00,215,25.20,858.00,0,1
$GPGGA,150118.094,,,,,0,00,,,M,,M,,*79,0.0000000000,0.0000000000,15:1:18,18/5/2016,37,134,142.13,457,19.82,845.29,0,1
$GPRMC,150118.094,V,,,,,0.00,0.00,180516,,,N*47,0.0000000000,0.0000000000,15:1:18,18/5/2016,37,180,180.00,180,22.75,799.00,0,1
$GPRMC,150119.094,V,,,,,0.14,97.09,180516,,,N*74,0.0000000000,0.0000000000,15:1:19,18/5/2016,35,81,116.02,396,20.31,839.20,0,1
$GPGGA,150120.094,,,,,0,01,,,M,,M,,*73,0.0000000000,0.0000000000,15:1:20,18/5/2016,35,96,112.45,407,21.78,838.32,0,1
$GPRMC,150120.094,V,,,,,0.16,97.10,180516,,,N*74,0.0000000000,0.0000000000,15:1:20,18/5/2016,35,113,113.00,113,24.22,835.00,0,1
$GPRMC,150121.094,V,,,,,0.17,97.10,180516,,,N*74,0.0000000000,0.0000000000,15:1:21,18/5/2016,33,157,118.21,423,21.29,836.64,0,1
$GPRMC,150122.094,V,,,,,0.21,97.12,180516,,,N*70,0.0000000000,0.0000000000,15:1:22,18/5/2016,34,223,146.63,438,22.75,823.21,1,2
$GPRMC,150123.094,V,,,,,0.33,97.67,180516,,,N*70,0.0000000000,0.0000000000,15:1:23,18/5/2016,29,113,174.66,442,18.85,836.23,0,2
$GPGGA,150124.094,,,,,0,03,,,M,,M,,*75,0.0000000000,0.0000000000,15:1:24,18/5/2016,32,129,135.10,397,22.27,837.91,0,2
$GPRMC,150124.094,V,,,,,1.06,108.08,180516,,,N*4E,0.0000000000,0.0000000000,15:1:24,18/5/2016,33,175,175.00,175,25.68,823.00,0,2
$GPRMC,150125.094,V,,,,,1.26,101.36,180516,,,N*49,0.0000000000,0.0000000000,15:1:25,18/5/2016,32,70,127.26,402,21.78,838.71,0,2
$GPRMC,150126.569,A,5130.0401,N,00000.3086,E,0.94,2.03,180516,,,A*6D,51.5006675720,0.0051433000,15:1:26,18/5/2016,32,87,102.94,328,19.34,838.21,0,2
$GPRMC,150127.570,A,5130.0528,N,00000.2706,E,1.32,43.98,180516,,,A*5A,51.5008773803,0.0045100002,15:1:27,18/5/2016,31,185,95.65,417,19.82,838.00,0,2
$GPRMC,150128.511,A,5130.0681,N,00000.2704,E,1.17,49.20,180516,,,A*5E,51.5011329650,0.0045066003,15:1:28,18/5/2016,31,127,113.74,421,20.31,836.26,0,2
$GPRMC,150129.503,A,5130.0647,N,00000.2700,E,1.15,46.09,180516,,,A*54,51.5010833740,0.0045000000,15:1:29,18/5/2016,33,115,132.03,412,21.29,838.09,0,2
$GPRMC,150130.471,A,5130.0564,N,00000.2687,E,1.12,61.54,180516,,,A*5E,51.5009422302,0.0044783000,15:1:30,18/5/2016,33,95,109.90,355,19.82,835.58,0,2
$GPRMC,150131.460,A,5130.0541,N,00000.2675,E,1.17,54.83,180516,,,A*5C,51.5009040832,0.0044583005,15:1:31,18/5/2016,32,191,132.26,427,22.75,834.34,0,2
$GPGGA,150133.588,,,,,0,00,,,M,,M,,*78,51.5009040832,0.0044583005,15:1:33,18/5/2016,35,98,133.46,464,21.29,830.30,1,3
$GPRMC,150133.588,V,,,,,0.00,0.00,180516,,,N*46,51.5009040832,0.0044583005,15:1:33,18/5/2016,36,91,91.00,91,22.75,853.00,0,3
$GPRMC,150135.553,V,,,,,0.00,0.00,180516,,,N*46,51.5009040832,0.0044583005,15:1:35,18/5/2016,32,156,132.54,468,18.85,837.61,0,3
$GPRMC,150136.553,V,,,,,0.00,0.00,180516,,,N*45,51.5009040832,0.0044583005,15:1:36,18/5/2016,30,138,116.27,377,17.38,821.18,3,6
$GPGGA,150137.553,,,,,0,01,,,M,,M,,*7B,51.5009040832,0.0044583005,15:1:37,18/5/2016,32,57,93.80,409,19.82,839.57,0,6
$GPRMC,150137.553,V,,,,,0.13,46.00,180516,,,N*74,51.5009040832,0.0044583005,15:1:37,18/5/2016,33,70,70.00,70,21.29,839.00,0,6
$GPRMC,150138.553,V,,,,,0.14,46.00,180516,,,N*7C,51.5009040832,0.0044583005,15:1:38,18/5/2016,32,125,106.06,320,19.34,836.05,0,6
$GPRMC,150139.553,V,,,,,0.15,46.00,180516,,,N*7C,51.5009040832,0.0044583005,15:1:39,18/5/2016,32,45,102.60,384,19.34,834.69,0,6
$GPRMC,150141.315,V,,,,,0.00,0.00,180516,,,N*41,51.5009040832,0.0044583005,15:1:41,18/5/2016,34,39,108.37,492,17.87,826.05,1,7
$GPRMC,150143.062,V,,,,,0.00,0.00,180516,,,N*40,51.5009040832,0.0044583005,15:1:43,18/5/2016,33,91,111.44,473,19.34,832.60,0,7
$GPGGA,150144.063,,,,,0,02,,,M,,M,,*7A,51.5009040832,0.0044583005,15:1:44,18/5/2016,34,62,153.73,428,20.31,833.22,0,7
$GPRMC,150144.063,V,,,,,0.15,1.68,180516,,,N*4D,51.5009040832,0.0044583005,15:1:44,18/5/2016,34,92,92.00,92,22.27,823.00,0,7
$GPRMC,150145.063,V,,,,,0.40,8.51,180516,,,N*4F,51.5009040832,0.0044583005,15:1:45,18/5/2016,33,75,154.99,447,21.29,829.36,0,7
$GPGGA,150146.063,,,,,0,03,,,M,,M,,*79,51.5009040832,0.0044583005,15:1:46,18/5/2016,34,254,127.36,410,20.80,817.20,1,8
$GPRMC,150146.063,V,,,,,0.72,14.17,180516,,,N*72,51.5009040832,0.0044583005,15:1:46,18/5/2016,37,234,234.00,234,23.73,844.00,0,8
$GPGGA,150147.063,,,,,0,03,,,M,,M,,*78,51.5009040832,0.0044583005,15:1:47,18/5/2016,29,144,118.59,388,19.34,835.40,0,8
$GPRMC,150147.063,V,,,,,0.54,353.16,180516,,,N*46,51.5009040832,0.0044583005,15:1:47,18/5/2016,31,159,159.00,159,21.29,821.00,0,8
$GPGGA,150148.063,,,,,0,03,,,M,,M,,*77,51.5009040832,0.0044583005,15:1:48,18/5/2016,33,73,137.85,423,20.31,832.45,0,8
$GPRMC,150148.063,V,,,,,0.43,32.63,180516,,,N*79,51.5009040832,0.0044583005,15:1:48,18/5/2016,34,105,105.00,105,23.24,821.00,0,8
$GPRMC,150149.063,V,,,,,0.44,38.07,180516,,,N*77,51.5009040832,0.0044583005,15:1:49,18/5/2016,31,104,130.30,442,20.31,831.37,0,8
$GPRMC,150151.494,V,,,,,0.00,0.00,180516,,,N*4E,51.5009040832,0.0044583005,15:1:51,18/5/2016,35,271,140.14,480,20.80,827.59,1,9
$GPRMC,150152.494,V,,,,,0.00,0.00,180516,,,N*4D,51.5009040832,0.0044583005,15:1:52,18/5/2016,36,66,125.52,416,19.34,822.20,1,10
$GPRMC,150153.494,V,,,,,0.00,0.00,180516,,,N*4C,51.5009040832,0.0044583005,15:1:53,18/5/2016,34,79,101.92,362,20.31,831.33,0,10
$GPGGA,150154.494,,,,,0,00,,,M,,M,,*75,51.5009040832,0.0044583005,15:1:54,18/5/2016,33,210,125.70,469,19.34,829.70,0,10
$GPRMC,150154.494,V,,,,,0.00,0.00,180516,,,N*4B,51.5009040832,0.0044583005,15:1:54,18/5/2016,35,246,246.00,246,23.73,808.00,0,10
$GPRMC,150155.494,V,,,,,0.00,0.00,180516,,,N*4A,51.5009040832,0.0044583005,15:1:55,18/5/2016,34,95,132.82,442,18.36,830.57,0,10
$GPRMC,150156.494,V,,,,,0.00,0.00,180516,,,N*49,51.5009040832,0.0044583005,15:1:56,18/5/2016,36,117,111.36,366,20.31,827.14,0,10
$GPRMC,150157.494,V,,,,,0.02,92.52,180516,,,N*76,51.5009040832,0.0044583005,15:1:57,18/5/2016,30,83,109.22,434,19.82,826.22,0,10
$GPRMC,150158.494,V,,,,,0.03,210.95,180516,,,N*4B,51.5009040832,0.0044583005,15:1:58,18/5/2016,31,103,109.61,351,19.82,824.58,0,10
$GPGGA,150201.005,,,,,0,00,,,M,,M,,*7A,51.5009040832,0.0044583005,15:2:1,18/5/2016,38,108,108.32,458,21.29,823.13,0,10
$GPRMC,150201.005,V,,,,,0.00,0.00,180516,,,N*44,51.5009040832,0.0044583005,15:2:1,18/5/2016,39,132,132.00,132,24.71,806.00,0,10
$GPRMC,150202.005,V,,,,,0.00,0.00,180516,,,N*47,51.5009040832,0.0044583005,15:2:2,18/5/2016,35,57,129.85,373,20.31,818.38,0,10
$GPGGA,150203.005,,,,,0,00,,,M,,M,,*78,51.5009040832,0.0044583005,15:2:3,18/5/2016,36,101,108.97,456,18.36,806.64,2,12
$GPRMC,150203.005,V,,,,,0.00,0.00,180516,,,N*46,51.5009040832,0.0044583005,15:2:3,18/5/2016,39,123,123.00,123,20.80,820.00,0,12
$GPGGA,150204.005,,,,,0,00,,,M,,M,,*7F,51.5009040832,0.0044583005,15:2:4,18/5/2016,33,101,125.13,445,21.29,826.71,0,12
$GPRMC,150204.005,V,,,,,0.00,0.00,180516,,,N*41,51.5009040832,0.0044583005,15:2:4,18/5/2016,34,145,145.00,145,23.24,805.00,0,12
$GPRMC,150205.005,V,,,,,0.00,0.00,180516,,,N*40,51.5009040832,0.0044583005,15:2:5,18/5/2016,34,110,111.28,405,19.82,822.75,0,12
$GPRMC,150206.005,V,,,,,0.00,0.00,180516,,,N*43,51.5009040832,0.0044583005,15:2:6,18/5/2016,37,118,109.28,464,22.75,820.26,0,12
$GPRMC,150207.005,V,,,,,0.00,0.00,180516,,,N*42,51.5009040832,0.0044583005,15:2:7,18/5/2016,37,142,128.74,418,23.24,819.38,0,12
$GPRMC,150208.005,V,,,,,0.01,92.14,180516,,,N*72,51.5009040832,0.0044583005,15:2:8,18/5/2016,35,171,154.75,488,22.27,820.81,0,12
$GPGGA,150209.005,,,,,0,02,,,M,,M,,*70,51.5009040832,0.0044583005,15:2:9,18/5/2016,33,85,114.59,442,23.24,821.37,0,12
$GPRMC,150209.005,V,,,,,0.49,225.23,180516,,,N*45,51.5009040832,0.0044583005,15:2:9,18/5/2016,34,137,137.00,137,25.68,800.00,0,12
$GPGGA,150210.005,,,,,0,03,,,M,,M,,*79,51.5009040832,0.0044583005,15:2:10,18/5/2016,34,84,122.96,436,22.27,821.79,0,12
$GPRMC,150210.005,V,,,,,0.79,220.23,180516,,,N*4B,51.5009040832,0.0044583005,15:2:10,18/5/2016,34,89,89.00,89,24.71,824.00,0,12
$GPGGA,150212.337,,,,,0,00,,,M,,M,,*7A,51.5009040832,0.0044583005,15:2:12,18/5/2016,31,73,153.36,487,22.75,822.31,0,12
$GPRMC,150212.337,V,,,,,0.00,0.00,180516,,,N*44,51.5009040832,0.0044583005,15:2:12,18/5/2016,31,101,101.00,101,24.22,812.00,0,12
$GPRMC,150213.337,V,,,,,0.00,0.00,180516,,,N*45,51.5009040832,0.0044583005,15:2:13,18/5/2016,29,193,134.05,427,21.29,822.23,0,12
$GPGGA,150214.337,,,,,0,01,,,M,,M,,*7D,51.5009040832,0.0044583005,15:2:14,18/5/2016,28,158,175.99,455,13.48,823.49,0,12
$GPRMC,150214.337,V,,,,,0.01,271.91,180516,,,N*4F,51.5009040832,0.0044583005,15:2:14,18/5/2016,29,201,201.00,201,20.80,810.00,0,12
$GPRMC,150215.337,V,,,,,0.01,272.00,180516,,,N*45,51.5009040832,0.0044583005,15:2:15,18/5/2016,28,105,125.68,473,18.36,830.54,0,12
$GPRMC,150216.337,V,,,,,0.00,90.85,180516,,,N*74,51.5009040832,0.0044583005,15:2:16,18/5/2016,28,71,96.38,387,20.80,833.17,0,12