
$GPGGA,150002.930,,,,,0,00,,,M,,M,,*74,0.0000000000,0.0000000000,15:0:2,0/0/200,22,104,164.88,433,18.85,842.64,0,0
$GPRMC,150002.930,V,,,,,0.00,0.00,180516,,,N*4A,0.0000000000,0.0000000000,15:0:2,18/5/2016,23,153,153.00,153,23.73,795.00,0,0
$GPGGA,150003.930,,,,,0,03,,,M,,M,,*76,0.0000000000,0.0000000000,15:0:3,18/5/2016,24,104,118.49,440,19.34,847.26,0,0
$GPRMC,150003.930,V,,,,,0.30,204.68,180516,,,N*40,0.0000000000,0.0000000000,15:0:3,18/5/2016,25,153,153.00,153,21.29,815.00,0,0
$GPGGA,150004.901,,,,,0,06,,,M,,M,,*76,0.0000000000,0.0000000000,15:0:4,18/5/2016,25,64,124.24,403,20.31,846.75,0,0
$GPRMC,150004.901,V,,,,,1.42,105.63,180516,,,N*48,0.0000000000,0.0000000000,15:0:4,18/5/2016,26,95,95.00,95,22.75,839.00,0,0
$GPGGA,150005.916,,,,,0,05,,,M,,M,,*72,0.0000000000,0.0000000000,15:0:5,18/5/2016,24,59,156.73,434,20.31,842.28,0,0
$GPRMC,150005.916,V,,,,,1.16,97.59,180516,,,N*7D,0.0000000000,0.0000000000,15:0:5,18/5/2016,15,114,114.00,114,19.34,811.00,0,0
$GPRMC,150006.916,A,5130.0611,N,00000.2026,E,1.38,121.85,180516,,,A*6B,51.5010185241,0.0033766002,15:0:6,18/5/2016,23,150,169.45,438,18.85,844.39,0,0
$GPRMC,150007.917,A,5130.0606,N,00000.2053,E,1.58,139.58,180516,,,A*60,51.5010108947,0.0034216001,15:0:7,18/5/2016,23,134,148.53,399,18.85,845.81,0,0
$GPRMC,150008.917,A,5130.0605,N,00000.2064,E,1.44,131.91,180516,,,A*68,51.5010108947,0.0034400000,15:0:8,18/5/2016,23,361,142.90,443,18.85,846.33,0,0
$GPRMC,150009.919,A,5130.0603,N,00000.2082,E,1.30,146.01,180516,,,A*63,51.5009994506,0.0034700002,15:0:9,18/5/2016,23,92,142.81,463,17.87,846.05,0,0
$GPRMC,150010.918,A,5130.0591,N,00000.2102,E,1.45,142.52,180516,,,A*6B,51.5009841918,0.0035032999,15:0:10,18/5/2016,24,89,128.15,400,16.89,846.66,0,0
$GPRMC,150011.919,A,5130.0590,N,00000.2106,E,1.38,145.80,180516,,,A*6C,51.5009841918,0.0035099997,15:0:11,18/5/2016,24,224,157.51,448,17.38,845.58,0,0
$GPRMC,150012.921,A,5130.0585,N,00000.2117,E,1.73,148.00,180516,,,A*6A,51.5009765625,0.0035283002,15:0:12,18/5/2016,23,119,171.25,459,18.36,842.96,0,0
$GPRMC,150013.923,A,5130.0584,N,00000.2127,E,1.85,144.83,180516,,,A*65,51.5009765625,0.0035450005,15:0:13,18/5/2016,23,161,159.66,474,18.36,845.66,0,0
$GPRMC,150014.930,A,5130.0615,N,00000.2185,E,1.60,156.45,180516,,,A*61,51.5010261535,0.0036416001,15:0:14,18/5/2016,23,197,150.85,458,18.36,847.19,0,0
$GPRMC,150016.000,A,5130.0605,N,00000.2190,E,1.60,148.39,180516,,,A*68,51.5010108947,0.0036500000,15:0:16,18/5/2016,23,138,133.31,472,17.38,847.85,0,0
$GPRMC,150017.000,A,5130.0600,N,00000.2196,E,1.70,144.41,180516,,,A*68,51.5009994506,0.0036599998,15:0:16,18/5/2016,23,145,166.81,493,17.87,846.67,0,0
$GPRMC,150018.000,A,5130.0595,N,00000.2202,E,1.75,144.79,180516,,,A*68,51.5009918212,0.0036699998,15:0:18,18/5/2016,22,54,127.61,469,18.36,847.12,0,0
$GPRMC,150020.216,V,,,,,0.28,193.48,180516,,,N*48,51.5009918212,0.0036699998,15:0:20,18/5/2016,22,51,119.45,467,17.87,843.82,0,0
$GPRMC,150020.216,V,,,,,0.28,193.48,180516,,,N*48,51.5009918212,0.0036699998,15:0:20,18/5/2016,23,107,107.00,107,20.80,823.00,0,0
$GPGGA,150021.216,,,,,0,04,,,M,,M,,*7E,51.5009918212,0.0036699998,15:0:21,18/5/2016,24,107,108.94,457,18.36,843.78,0,0
$GPRMC,150021.216,V,,,,,0.92,73.12,180516,,,N*78,51.5009918212,0.0036699998,15:0:21,18/5/2016,24,156,156.00,156,22.75,806.00,0,0
$GPRMC,150022.216,A,5130.0553,N,00000.2183,E,0.76,115.45,180516,,,A*6D,51.5009193420,0.0036383004,15:0:22,18/5/2016,27,131,158.10,474,17.87,842.62,0,0
$GPRMC,150024.000,A,5130.0551,N,00000.2163,E,1.06,152.21,180516,,,A*65,51.5009193420,0.0036050004,15:0:24,18/5/2016,24,66,125.87,482,17.38,852.91,0,0
$GPRMC,150025.000,A,5130.0546,N,00000.2164,E,1.88,177.10,180516,,,A*66,51.5009117126,0.0036065998,15:0:24,18/5/2016,23,43,118.64,479,19.34,854.06,0,0
$GPRMC,150026.000,A,5130.0541,N,00000.2171,E,1.75,177.70,180516,,,A*62,51.5009040832,0.0036183001,15:0:26,18/5/2016,24,88,161.51,480,18.36,857.75,0,0
$GPRMC,150027.000,A,5130.0536,N,00000.2177,E,1.65,173.03,180516,,,A*64,51.5008964538,0.0036283001,15:0:27,18/5/2016,25,102,135.12,445,17.38,857.93,0,0
$GPRMC,150028.000,A,5130.0525,N,00000.2187,E,1.64,168.62,180516,,,A*6A,51.5008773803,0.0036449999,15:0:28,18/5/2016,24,91,110.84,387,18.36,857.71,0,0
$GPRMC,150029.000,A,5130.0517,N,00000.2197,E,1.51,160.47,180516,,,A*62,51.5008621215,0.0036616001,15:0:28,18/5/2016,23,86,125.31,379,17.87,857.55,0,0
$GPRMC,150030.000,A,5130.0510,N,00000.2209,E,1.70,154.50,180516,,,A*6B,51.5008468627,0.0036816000,15:0:30,18/5/2016,23,110,125.60,431,18.85,854.60,0,0
$GPRMC,150031.000,A,5130.0506,N,00000.2220,E,1.84,144.61,180516,,,A*6E,51.5008468627,0.0037000000,15:0:31,18/5/2016,23,77,128.76,435,19.82,856.83,0,0
$GPRMC,150032.000,A,5130.0501,N,00000.2236,E,2.17,138.26,180516,,,A*6C,51.5008392333,0.0037266001,15:0:32,18/5/2016,23,110,130.53,378,19.34,853.23,0,0
$GPRMC,150033.000,A,5130.0495,N,00000.2248,E,2.15,138.04,180516,,,A*6A,51.5008201599,0.0037466001,15:0:32,18/5/2016,23,89,120.92,427,18.85,859.58,0,0
$GPGGA,150035.198,,,,,0,00,,,M,,M,,*7A,51.5008201599,0.0037466001,15:0:35,18/5/2016,24,73,119.23,452,19.82,861.91,0,0
$GPRMC,150035.198,V,,,,,0.00,0.00,180516,,,N*44,51.5008201599,0.0037466001,15:0:35,18/5/2016,24,126,126.00,126,22.75,821.00,0,0
$GPRMC,150036.198,V,,,,,0.03,277.41,180516,,,N*43,51.5008201599,0.0037466001,15:0:36,18/5/2016,23,115,128.77,440,19.34,863.37,0,0
$GPGGA,150037.198,,,,,0,03,,,M,,M,,*7B,51.5008201599,0.0037466001,15:0:37,18/5/2016,24,218,129.80,388,19.34,864.39,0,0
$GPRMC,150037.198,V,,,,,0.12,91.30,180516,,,N*7E,51.5008201599,0.0037466001,15:0:37,18/5/2016,24,223,223.00,223,20.80,860.00,0,0
$GPGGA,150038.465,,,,,0,04,,,M,,M,,*74,51.5008201599,0.0037466001,15:0:38,18/5/2016,23,88,121.20,371,18.36,865.03,0,0
$GPRMC,150038.465,V,,,,,0.42,135.07,180516,,,N*48,51.5008201599,0.0037466001,15:0:38,18/5/2016,25,106,106.00,106,21.29,866.00,0,0
$GPRMC,150039.529,V,,,,,1.18,184.29,180516,,,N*48,51.5008201599,0.0037466001,15:0:39,18/5/2016,25,181,131.90,448,19.34,864.10,0,0
$GPRMC,150040.566,V,,,,,3.29,199.54,180516,,,N*4B,51.5008201599,0.0037466001,15:0:40,18/5/2016,25,51,109.70,403,19.34,865.33,0,0
$GPGGA,150041.553,,,,,0,05,,,M,,M,,*7F,51.5008201599,0.0037466001,15:0:41,18/5/2016,23,134,123.47,394,19.34,865.20,0,0
$GPRMC,150041.553,V,,,,,2.92,188.09,180516,,,N*45,51.5008201599,0.0037466001,15:0:41,18/5/2016,24,180,180.00,180,21.78,835.00,0,0
$GPRMC,150042.544,A,5130.0431,N,00000.2350,E,2.23,177.60,180516,,,A*63,51.5007171630,0.0039166002,15:0:42,18/5/2016,23,82,100.14,471,19.82,865.01,0,0
$GPRMC,150043.534,A,5130.0381,N,00000.2325,E,2.10,177.29,180516,,,A*66,51.5006332397,0.0038750000,15:0:43,18/5/2016,20,106,118.03,352,19.82,865.62,0,0