
$GPRMC,150233.868,V,,,,,0.00,0.00,180516,,,N*46,0.0000000000,0.0000000000,15:2:33,0/0/200,27,67,117.62,454,21.78,809.64,3,3
$GPGGA,150234.868,,,,,0,00,,,M,,M,,*7F,0.0000000000,0.0000000000,15:2:34,0/0/200,28,115,110.47,425,21.78,837.82,0,3
$GPRMC,150234.868,V,,,,,0.00,0.00,180516,,,N*41,0.0000000000,0.0000000000,15:2:34,18/5/2016,29,124,124.00,124,24.71,823.00,0,3
$GPRMC,150235.868,V,,,,,0.00,0.00,180516,,,N*40,0.0000000000,0.0000000000,15:2:35,18/5/2016,26,182,137.21,463,22.75,836.46,0,3
$GPGGA,150236.868,,,,,0,00,,,M,,M,,*7D,0.0000000000,0.0000000000,15:2:36,18/5/2016,25,185,191.42,486,24.22,833.87,0,3
$GPRMC,150236.868,V,,,,,0.00,0.00,180516,,,N*43,0.0000000000,0.0000000000,15:2:36,18/5/2016,27,208,208.00,208,26.17,808.00,0,3
$GPGGA,150237.868,,,,,0,00,,,M,,M,,*7C,0.0000000000,0.0000000000,15:2:37,18/5/2016,28,77,154.23,437,25.68,831.06,0,3
$GPRMC,150237.868,V,,,,,0.00,0.00,180516,,,N*42,0.0000000000,0.0000000000,15:2:37,18/5/2016,29,98,98.00,98,26.66,819.00,0,3
$GPGGA,150239.780,,,,,0,00,,,M,,M,,*7B,0.0000000000,0.0000000000,15:2:39,18/5/2016,28,84,107.47,488,20.31,846.93,0,3
$GPRMC,150239.780,V,,,,,0.00,0.00,180516,,,N*45,0.0000000000,0.0000000000,15:2:39,18/5/2016,29,105,105.00,105,23.73,837.00,0,3
$GPGGA,150240.780,,,,,0,00,,,M,,M,,*75,0.0000000000,0.0000000000,15:2:40,18/5/2016,26,56,127.49,399,20.80,819.31,1,4
$GPRMC,150240.780,V,,,,,0.00,0.00,180516,,,N*4B,0.0000000000,0.0000000000,15:2:40,18/5/2016,28,111,111.00,111,24.22,800.00,0,4
$GPGGA,150241.780,,,,,0,00,,,M,,M,,*74,0.0000000000,0.0000000000,15:2:41,18/5/2016,26,151,135.26,377,21.78,824.20,0,4
$GPRMC,150241.780,V,,,,,0.00,0.00,180516,,,N*4A,0.0000000000,0.0000000000,15:2:41,18/5/2016,27,162,162.00,162,24.22,852.00,0,4
$GPGGA,150242.780,,,,,0,00,,,M,,M,,*77,0.0000000000,0.0000000000,15:2:42,18/5/2016,26,120,127.97,387,22.27,829.18,0,4
$GPRMC,150242.780,V,,,,,0.00,0.00,180516,,,N*49,0.0000000000,0.0000000000,15:2:42,18/5/2016,28,167,167.00,167,26.66,815.00,0,4
$GPGGA,150243.780,,,,,0,00,,,M,,M,,*76,0.0000000000,0.0000000000,15:2:43,18/5/2016,27,102,120.90,397,23.24,827.20,0,4
$GPGGA,150245.499,,,,,0,00,,,M,,M,,*7B,0.0000000000,0.0000000000,15:2:45,18/5/2016,29,135,118.10,460,22.27,838.54,0,4
$GPRMC,150245.499,V,,,,,0.00,0.00,180516,,,N*45,0.0000000000,0.0000000000,15:2:45,18/5/2016,31,180,180.00,180,24.71,801.00,0,4
$GPGGA,150246.499,,,,,0,00,,,M,,M,,*78,0.0000000000,0.0000000000,15:2:46,18/5/2016,25,119,115.40,403,21.78,829.15,0,4
$GPRMC,150246.499,V,,,,,0.00,0.00,180516,,,N*46,0.0000000000,0.0000000000,15:2:46,18/5/2016,27,143,143.00,143,25.20,813.00,0,4
$GPRMC,150247.500,V,,,,,0.02,90.73,180516,,,N*79,0.0000000000,0.0000000000,15:2:47,18/5/2016,27,54,84.40,442,23.73,824.60,0,4
$GPRMC,150250.165,V,,,,,0.00,0.00,180516,,,N*47,0.0000000000,0.0000000000,15:2:50,18/5/2016,30,85,91.97,483,22.75,842.30,0,4
$GPGGA,150251.165,,,,,0,01,,,M,,M,,*79,0.0000000000,0.0000000000,15:2:51,18/5/2016,32,261,88.96,418,22.27,844.03,0,4
$GPRMC,150251.165,V,,,,,0.02,90.60,180516,,,N*7B,0.0000000000,0.0000000000,15:2:51,18/5/2016,33,272,272.00,272,24.71,834.00,0,4
$GPRMC,150252.165,V,,,,,0.16,213.71,180516,,,N*44,0.0000000000,0.0000000000,15:2:52,18/5/2016,31,60,124.78,397,21.78,846.50,0,4
$GPRMC,150253.165,V,,,,,0.17,213.88,180516,,,N*42,0.0000000000,0.0000000000,15:2:53,18/5/2016,34,36,82.80,267,20.80,820.39,1,5
$GPRMC,150254.165,V,,,,,0.37,37.30,180516,,,N*70,0.0000000000,0.0000000000,15:2:54,18/5/2016,28,97,50.92,371,21.78,827.88,0,5
$GPGGA,150255.414,,,,,0,04,,,M,,M,,*7B,0.0000000000,0.0000000000,15:2:55,18/5/2016,35,87,95.45,447,20.31,827.29,0,5
$GPRMC,150255.414,V,,,,,0.74,45.98,180516,,,N*72,0.0000000000,0.0000000000,15:2:55,18/5/2016,37,103,103.00,103,22.75,815.00,0,5
$GPGGA,150256.546,,,,,0,05,,,M,,M,,*7F,0.0000000000,0.0000000000,15:2:56,18/5/2016,33,42,71.09,466,19.34,829.78,0,5
$GPRMC,150256.546,V,,,,,1.57,64.34,180516,,,N*72,0.0000000000,0.0000000000,15:2:56,18/5/2016,35,99,99.00,99,22.27,810.00,0,5
$GPRMC,150257.546,A,5130.0828,N,00000.3171,E,1.13,63.08,180516,,,A*59,51.5013847351,0.0052850003,15:2:57,18/5/2016,34,109,99.42,433,19.82,821.83,1,6
$GPRMC,150258.544,A,5130.0837,N,00000.3171,E,1.24,74.87,180516,,,A*5F,51.5013923645,0.0052850003,15:2:58,18/5/2016,32,40,88.70,356,20.31,827.67,0,6
$GPRMC,150259.542,A,5130.0837,N,00000.3173,E,1.10,88.45,180516,,,A*50,51.5013923645,0.0052883005,15:2:59,18/5/2016,32,74,84.06,320,20.31,827.51,0,6
$GPRMC,150300.541,A,5130.0834,N,00000.3178,E,1.22,71.88,180516,,,A*50,51.5013923645,0.0052966003,15:3:0,18/5/2016,32,30,72.43,382,19.82,827.72,0,6
$GPRMC,150302.948,V,,,,,0.00,0.00,180516,,,N*46,51.5013923645,0.0052966003,15:3:2,18/5/2016,30,46,69.09,474,21.78,826.65,0,6
$GPGGA,150303.948,,,,,0,02,,,M,,M,,*7B,51.5013923645,0.0052966003,15:3:3,18/5/2016,31,91,91.21,363,21.78,825.25,0,6
$GPRMC,150303.948,V,,,,,0.74,37.06,180516,,,N*76,51.5013923645,0.0052966003,15:3:3,18/5/2016,33,142,142.00,142,23.73,804.00,0,6
$GPRMC,150304.948,V,,,,,1.04,36.92,180516,,,N*7B,51.5013923645,0.0052966003,15:3:4,18/5/2016,29,50,69.76,392,20.80,825.57,0,6
$GPRMC,150305.948,V,,,,,1.02,37.18,180516,,,N*7F,51.5013923645,0.0052966003,15:3:5,18/5/2016,31,81,60.15,344,22.27,824.62,0,6