$GPRMC,134505.000,A,5130.1211,N,00000.3210,E,0.41,18.60,240216,,,A*55,51.5020179748,0.0053500003,13:45:4,24/2/2016,39,0,1.50,17,12.99,0,36
$GPRMC,134506.000,A,5130.1211,N,00000.3211,E,0.23,24.14,240216,,,A*5F,51.5020179748,0.0053516001,13:45:6,24/2/2016,42,2,2.35,20,12.50,0,36
$GPRMC,134507.000,A,5130.1217,N,00000.3202,E,0.48,122.41,240216,,,A*60,51.5020256042,0.0053365998,13:45:7,24/2/2016,42,12,4.98,36,12.99,0,36
$GPRMC,134508.000,A,5130.1228,N,00000.3189,E,0.89,114.97,240216,,,A*60,51.5020408630,0.0053150005,13:45:8,24/2/2016,41,0,0.39,10,13.48,0,36
$GPRMC,134509.000,A,5130.1238,N,00000.3175,E,0.43,108.95,240216,,,A*6A,51.5020675659,0.0052916002,13:45:8,24/2/2016,43,0,1.67,12,13.48,0,36
$GPRMC,134510.000,A,5130.1242,N,00000.3165,E,0.07,221.72,240216,,,A*6F,51.5020675659,0.0052750005,13:45:10,24/2/2016,43,0,0.07,3,13.48,0,36
$GPRMC,134511.000,A,5130.1242,N,00000.3162,E,0.12,199.92,240216,,,A*63,51.5020675659,0.0052699999,13:45:11,24/2/2016,39,0,0.10,3,12.99,1,37
$GPRMC,134512.000,A,5130.1244,N,00000.3160,E,0.08,350.27,240216,,,A*66,51.5020751953,0.0052666001,13:45:12,24/2/2016,42,0,0.48,9,12.99,1,38
$GPRMC,134513.000,A,5130.1243,N,00000.3161,E,0.16,185.85,240216,,,A*6C,51.5020751953,0.0052683000,13:45:12,24/2/2016,44,6,7.86,53,12.99,1,39
$GPRMC,134514.000,A,5130.1244,N,00000.3159,E,0.21,224.50,240216,,,A*63,51.5020751953,0.0052649998,13:45:14,24/2/2016,40,0,5.16,25,12.50,1,40
$GPRMC,134515.000,A,5130.1245,N,00000.3159,E,0.19,249.28,240216,,,A*6C,51.5020751953,0.0052649998,13:45:15,24/2/2016,38,12,4.68,42,12.99,0,40
$GPRMC,134516.000,A,5130.1248,N,00000.3158,E,0.06,288.93,240216,,,A*60,51.5020828247,0.0052632999,13:45:16,24/2/2016,43,0,2.31,25,12.50,1,41
$GPRMC,134517.000,A,5130.1245,N,00000.3164,E,0.07,134.07,240216,,,A*6B,51.5020751953,0.0052733001,13:45:16,24/2/2016,39,0,5.31,21,12.01,0,41
$GPRMC,134518.000,A,5130.1238,N,00000.3172,E,0.08,230.05,240216,,,A*63,51.5020675659,0.0052866001,13:45:18,24/2/2016,39,5,3.12,17,12.50,0,41
$GPRMC,134519.000,A,5130.1223,N,00000.3187,E,0.08,266.18,240216,,,A*6D,51.5020332336,0.0053116006,13:45:19,24/2/2016,39,0,0.36,10,12.01,1,42
$GPRMC,134520.000,A,5130.1205,N,00000.3207,E,0.21,138.31,240216,,,A*60,51.5020103454,0.0053450002,13:45:20,24/2/2016,41,6,2.09,17,12.99,0,42
$GPRMC,134521.000,A,5130.1200,N,00000.3209,E,0.22,227.85,240216,,,A*6B,51.5020027160,0.0053483004,13:45:20,24/2/2016,39,1,0.48,7,12.50,1,43
$GPRMC,134522.000,A,5130.1195,N,00000.3213,E,0.32,204.97,240216,,,A*6F,51.5019950866,0.0053550000,13:45:22,24/2/2016,41,0,2.85,41,12.50,0,43
$GPRMC,134523.000,A,5130.1192,N,00000.3214,E,0.25,186.34,240216,,,A*68,51.5019874572,0.0053566002,13:45:23,24/2/2016,40,2,0.80,10,12.50,0,43
$GPRMC,134524.000,A,5130.1191,N,00000.3214,E,0.10,181.39,240216,,,A*60,51.5019874572,0.0053566002,13:45:24,24/2/2016,39,7,3.71,22,12.50,0,43
$GPRMC,134525.000,A,5130.1187,N,00000.3218,E,0.08,59.35,240216,,,A*5B,51.5019760131,0.0053632998,13:45:24,24/2/2016,40,0,5.02,24,12.01,0,43
$GPRMC,134526.000,A,5130.1181,N,00000.3221,E,0.13,32.98,240216,,,A*54,51.5019683837,0.0053682999,13:45:26,24/2/2016,41,0,0.40,7,12.99,0,43
$GPRMC,134527.000,A,5130.1178,N,00000.3219,E,0.37,308.62,240216,,,A*61,51.5019607543,0.0053649997,13:45:27,24/2/2016,39,7,1.76,13,12.50,0,43
$GPRMC,134528.000,A,5130.1179,N,00000.3215,E,0.51,321.60,240216,,,A*6A,51.5019607543,0.0053583002,13:45:28,24/2/2016,40,0,1.89,18,12.50,0,43
$GPRMC,134529.000,A,5130.1174,N,00000.3217,E,0.44,321.87,240216,,,A*69,51.5019531250,0.0053615999,13:45:28,24/2/2016,40,6,6.16,49,12.50,0,43
$GPRMC,134530.000,A,5130.1174,N,00000.3218,E,0.47,352.20,240216,,,A*64,51.5019531250,0.0053632998,13:45:30,24/2/2016,38,0,2.67,23,12.01,0,43
$GPRMC,134531.000,A,5130.1168,N,00000.3225,E,0.24,6.27,240216,,,A*66,51.5019454956,0.0053750000,13:45:31,24/2/2016,40,0,5.28,50,12.50,0,43
$GPRMC,134532.000,A,5130.1170,N,00000.3222,E,0.13,275.67,240216,,,A*6D,51.5019531250,0.0053699998,13:45:32,24/2/2016,40,13,2.68,26,12.01,0,43
$GPRMC,134533.000,A,5130.1172,N,00000.3220,E,0.21,270.28,240216,,,A*63,51.5019531250,0.0053666000,13:45:32,24/2/2016,40,0,0.32,11,12.01,0,43
$GPRMC,134534.000,A,5130.1177,N,00000.3214,E,0.19,233.14,240216,,,A*65,51.5019607543,0.0053566002,13:45:34,24/2/2016,40,12,2.75,29,12.50,0,43
$GPRMC,134535.000,A,5130.1183,N,00000.3205,E,0.19,207.44,240216,,,A*6D,51.5019683837,0.0053416004,13:45:35,24/2/2016,40,5,0.63,11,12.50,0,43
$GPRMC,134536.000,A,5130.1190,N,00000.3196,E,0.10,287.98,240216,,,A*65,51.5019874572,0.0053266000,13:45:36,24/2/2016,40,1,0.13,4,12.50,1,44
$GPRMC,134537.000,A,5130.1200,N,00000.3185,E,0.14,339.40,240216,,,A*69,51.5020027160,0.0053083000,13:45:36,24/2/2016,40,0,0.22,7,12.99,1,45
$GPRMC,134538.000,A,5130.1204,N,00000.3179,E,0.10,312.60,240216,,,A*6E,51.5020103454,0.0052982997,13:45:38,24/2/2016,40,14,1.68,21,12.99,1,46
$GPRMC,134539.000,A,5130.1203,N,00000.3179,E,0.03,290.50,240216,,,A*62,51.5020027160,0.0052982997,13:45:39,24/2/2016,42,1,0.32,12,12.99,1,47
$GPRMC,134540.000,A,5130.1202,N,00000.3179,E,0.13,294.57,240216,,,A*6F,51.5020027160,0.0052982997,13:45:40,24/2/2016,38,0,0.14,3,12.99,1,48
$GPRMC,134541.000,A,5130.1199,N,00000.3180,E,0.17,219.22,240216,,,A*6A,51.5020027160,0.0053000001,13:45:40,24/2/2016,39,0,1.53,23,12.50,2,50
$GPRMC,134542.000,A,5130.1195,N,00000.3181,E,0.16,213.90,240216,,,A*66,51.5019950866,0.0053015999,13:45:42,24/2/2016,41,0,0.03,2,12.50,0,50
$GPRMC,134543.000,A,5130.1193,N,00000.3182,E,0.20,180.04,240216,,,A*63,51.5019874572,0.0053033008,13:45:43,24/2/2016,40,4,4.28,35,12.99,0,50
$GPRMC,134544.000,A,5130.1190,N,00000.3187,E,0.36,134.56,240216,,,A*6D,51.5019874572,0.0053116006,13:45:44,24/2/2016,40,0,5.87,29,12.99,0,50
$GPRMC,134545.000,A,5130.1188,N,00000.3189,E,0.24,136.86,240216,,,A*67,51.5019760131,0.0053150005,13:45:44,24/2/2016,39,19,4.89,33,12.99,0,50
$GPRMC,134546.000,A,5130.1186,N,00000.3190,E,0.14,149.86,240216,,,A*69,51.5019760131,0.0053166003,13:45:46,24/2/2016,39,4,7.93,35,12.99,0,50
$GPRMC,134547.000,A,5130.1184,N,00000.3192,E,0.17,122.67,240216,,,A*69,51.5019683837,0.0053200001,13:45:47,24/2/2016,39,5,1.55,16,12.50,0,50
$GPRMC,134548.000,A,5130.1181,N,00000.3195,E,0.06,116.09,240216,,,A*6B,51.5019683837,0.0053250002,13:45:48,24/2/2016,40,0,0.50,7,12.50,0,50
$GPRMC,134549.000,A,5130.1179,N,00000.3197,E,0.05,18.75,240216,,,A*58,51.5019607543,0.0053282999,13:45:48,24/2/2016,40,1,2.28,17,12.50,0,50
$GPRMC,134550.000,A,5130.1176,N,00000.3200,E,0.10,191.21,240216,,,A*67,51.5019607543,0.0053333001,13:45:50,24/2/2016,42,1,3.29,28,12.99,0,50
$GPRMC,134551.000,A,5130.1174,N,00000.3204,E,0.25,124.32,240216,,,A*6A,51.5019531250,0.0053400001,13:45:51,24/2/2016,40,0,0.46,18,12.50,0,50
$GPRMC,134552.000,A,5130.1170,N,00000.3209,E,0.39,116.15,240216,,,A*69,51.5019531250,0.0053483004,13:45:52,24/2/2016,41,0,0.32,7,12.50,0,50
$GPRMC,134553.000,A,5130.1167,N,00000.3212,E,0.27,137.16,240216,,,A*6B,51.5019454956,0.0053533005,13:45:52,24/2/2016,40,0,0.20,7,12.50,0,50
$GPRMC,134554.000,A,5130.1166,N,00000.3213,E,0.15,125.92,240216,,,A*62,51.5019454956,0.0053550000,13:45:54,24/2/2016,40,0,1.43,12,12.99,0,50
$GPRMC,134555.000,A,5130.1166,N,00000.3213,E,0.05,210.85,240216,,,A*61,51.5019454956,0.0053550000,13:45:55,24/2/2016,42,0,0.02,2,12.50,0,50
$GPRMC,134556.000,A,5130.1166,N,00000.3213,E,0.10,219.49,240216,,,A*6F,51.5019454956,0.0053550000,13:45:56,24/2/2016,40,0,0.08,4,12.50,0,50
$GPRMC,134557.000,A,5130.1165,N,00000.3213,E,0.07,33.51,240216,,,A*58,51.5019454956,0.0053550000,13:45:56,24/2/2016,41,0,0.36,11,12.99,0,50
$GPRMC,134558.000,A,5130.1165,N,00000.3213,E,0.10,303.54,240216,,,A*64,51.5019454956,0.0053550000,13:45:58,24/2/2016,40,0,1.38,12,12.99,0,50
$GPRMC,134559.000,A,5130.1166,N,00000.3213,E,0.08,265.33,240216,,,A*6F,51.5019454956,0.0053550000,13:45:59,24/2/2016,40,0,0.00,1,13.48,0,50
$GPRMC,134600.000,A,5130.1166,N,00000.3212,E,0.21,277.22,240216,,,A*69,51.5019454956,0.0053533005,13:46:0,24/2/2016,40,0,0.75,15,13.48,0,50
$GPRMC,134601.000,A,5130.1166,N,00000.3211,E,0.23,260.59,240216,,,A*63,51.5019454956,0.0053516001,13:46:0,24/2/2016,40,0,4.62,26,12.99,0,50
$GPRMC,134602.000,A,5130.1166,N,00000.3210,E,0.20,300.62,240216,,,A*6D,51.5019454956,0.0053500003,13:46:2,24/2/2016,39,0,0.11,4,12.99,0,50
$GPRMC,134603.000,A,5130.1166,N,00000.3209,E,0.12,324.84,240216,,,A*6B,51.5019454956,0.0053483004,13:46:3,24/2/2016,41,3,5.97,38,12.99,0,50
$GPRMC,134604.000,A,5130.1166,N,00000.3209,E,0.16,306.87,240216,,,A*6B,51.5019454956,0.0053483004,13:46:4,24/2/2016,40,0,0.29,6,12.99,0,50
$GPRMC,134605.000,A,5130.1166,N,00000.3209,E,0.36,303.97,240216,,,A*6C,51.5019454956,0.0053483004,13:46:4,24/2/2016,40,0,0.95,8,12.99,0,50
$GPRMC,134606.000,A,5130.1167,N,00000.3207,E,0.41,341.15,240216,,,A*6C,51.5019454956,0.0053450002,13:46:6,24/2/2016,39,3,0.22,4,12.99,0,50
$GPRMC,134607.000,A,5130.1168,N,00000.3207,E,0.24,351.18,240216,,,A*6D,51.5019454956,0.0053450002,13:46:7,24/2/2016,40,0,0.07,3,12.99,0,50
$GPRMC,134608.000,A,5130.1164,N,00000.3211,E,0.06,36.85,240216,,,A*5F,51.5019378662,0.0053516001,13:46:8,24/2/2016,40,0,0.00,0,12.99,0,50
$GPRMC,134609.000,A,5130.1162,N,00000.3213,E,0.13,255.61,240216,,,A*63,51.5019378662,0.0053550000,13:46:8,24/2/2016,39,1,2.73,23,13.48,0,50
$GPRMC,134610.000,A,5130.1159,N,00000.3218,E,0.28,155.56,240216,,,A*67,51.5019302368,0.0053632998,13:46:10,24/2/2016,39,0,1.67,28,12.99,0,50
$GPRMC,134611.000,A,5130.1151,N,00000.3230,E,0.56,130.77,240216,,,A*6D,51.5019187927,0.0053833003,13:46:11,24/2/2016,42,0,0.69,12,12.99,0,50
$GPRMC,134612.000,A,5130.1151,N,00000.3229,E,0.44,130.68,240216,,,A*6B,51.5019187927,0.0053815994,13:46:12,24/2/2016,39,9,1.81,28,12.50,1,51
$GPRMC,134613.000,A,5130.1148,N,00000.3229,E,0.42,178.97,240216,,,A*68,51.5019111633,0.0053815994,13:46:12,24/2/2016,45,0,0.47,11,12.50,1,52
$GPRMC,134614.000,A,5130.1152,N,00000.3232,E,0.78,31.13,240216,,,A*57,51.5019187927,0.0053866004,13:46:14,24/2/2016,47,1,0.07,5,12.01,0,52
$GPRMC,134615.000,A,5130.1147,N,00000.3239,E,0.55,6.48,240216,,,A*6C,51.5019111633,0.0053983001,13:46:15,24/2/2016,44,0,0.07,3,12.50,0,52
$GPRMC,134616.000,A,5130.1143,N,00000.3247,E,1.02,37.91,240216,,,A*57,51.5019035339,0.0054116005,13:46:16,24/2/2016,44,3,0.16,6,12.50,0,52
$GPRMC,134617.000,A,5130.1145,N,00000.3257,E,1.71,23.10,240216,,,A*59,51.5019035339,0.0054282999,13:46:16,24/2/2016,45,0,0.01,2,12.01,0,52
$GPRMC,134618.000,A,5130.1150,N,00000.3269,E,2.12,30.16,240216,,,A*5D,51.5019187927,0.0054483003,13:46:18,24/2/2016,40,0,0.16,6,11.52,0,52
$GPRMC,134619.000,A,5130.1149,N,00000.3284,E,2.07,48.38,240216,,,A*50,51.5019111633,0.0054732999,13:46:19,24/2/2016,50,0,0.18,10,11.52,0,52
$GPRMC,134620.000,A,5130.1149,N,00000.3295,E,2.01,37.97,240216,,,A*51,51.5019111633,0.0054916000,13:46:20,24/2/2016,48,0,0.25,8,11.04,0,52
$GPRMC,134621.000,A,5130.1151,N,00000.3306,E,2.10,33.33,240216,,,A*58,51.5019187927,0.0055100007,13:46:20,24/2/2016,45,0,0.36,7,11.04,0,52
$GPRMC,134622.000,A,5130.1149,N,00000.3316,E,1.73,34.03,240216,,,A*51,51.5019111633,0.0055266003,13:46:22,24/2/2016,39,0,0.32,7,10.55,0,52
$GPRMC,134623.000,A,5130.1150,N,00000.3324,E,1.83,39.33,240216,,,A*58,51.5019187927,0.0055399999,13:46:23,24/2/2016,37,6,0.72,15,10.55,0,52
$GPRMC,134624.000,A,5130.1152,N,00000.3332,E,1.88,42.93,240216,,,A*57,51.5019187927,0.0055532999,13:46:24,24/2/2016,35,6,6.72,33,9.57,0,52
$GPRMC,134625.000,A,5130.1155,N,00000.3338,E,1.83,38.44,240216,,,A*57,51.5019302368,0.0055633001,13:46:24,24/2/2016,39,15,16.91,63,10.06,0,52
$GPRMC,134626.000,A,5130.1157,N,00000.3346,E,1.91,42.87,240216,,,A*5E,51.5019302368,0.0055766000,13:46:26,24/2/2016,40,2,5.78,32,9.57,0,52
$GPRMC,134627.000,A,5130.1163,N,00000.3351,E,2.18,35.71,240216,,,A*55,51.5019378662,0.0055850005,13:46:27,24/2/2016,41,1,1.08,12,9.08,0,52
$GPRMC,134628.000,A,5130.1168,N,00000.3356,E,2.22,29.88,240216,,,A*54,51.5019454956,0.0055933003,13:46:28,24/2/2016,40,0,2.53,17,8.59,0,52
$GPRMC,134629.000,A,5130.1175,N,00000.3360,E,2.35,22.38,240216,,,A*5A,51.5019607543,0.0055999999,13:46:28,24/2/2016,41,2,3.64,24,9.08,0,52
$GPRMC,134630.000,A,5130.1177,N,00000.3368,E,2.05,32.63,240216,,,A*54,51.5019607543,0.0056133003,13:46:30,24/2/2016,41,1,2.79,31,9.08,0,52
$GPRMC,134631.000,A,5130.1181,N,00000.3375,E,1.98,29.10,240216,,,A*59,51.5019683837,0.0056250000,13:46:31,24/2/2016,40,27,5.87,50,6.64,0,52
$GPRMC,134632.000,A,5130.1186,N,00000.3380,E,2.19,30.49,240216,,,A*59,51.5019760131,0.0056332998,13:46:32,24/2/2016,41,5,8.39,42,6.15,0,52
$GPRMC,134633.000,A,5130.1193,N,00000.3384,E,2.15,24.97,240216,,,A*52,51.5019874572,0.0056400003,13:46:32,24/2/2016,41,4,14.78,123,7.13,0,52
$GPRMC,134634.000,A,5130.1199,N,00000.3388,E,2.11,28.76,240216,,,A*54,51.5020027160,0.0056466007,13:46:34,24/2/2016,42,11,9.65,40,4.20,0,52
$GPRMC,134635.000,A,5130.1206,N,00000.3392,E,2.31,25.17,240216,,,A*53,51.5020103454,0.0056533002,13:46:35,24/2/2016,42,4,17.47,123,5.18,0,52
$GPRMC,134636.000,A,5130.1213,N,00000.3399,E,2.92,22.01,240216,,,A*56,51.5020179748,0.0056649999,13:46:36,24/2/2016,39,0,5.12,38,7.13,0,52
$GPRMC,134637.000,A,5130.1221,N,00000.3404,E,2.91,357.45,240216,,,A*67,51.5020332336,0.0056732997,13:46:36,24/2/2016,39,22,18.96,88,6.64,0,52
$GPRMC,134638.000,A,5130.1228,N,00000.3407,E,3.13,7.81,240216,,,A*67,51.5020408630,0.0056783003,13:46:38,24/2/2016,40,4,10.66,53,4.69,0,52
$GPRMC,134639.000,A,5130.1236,N,00000.3412,E,2.96,11.69,240216,,,A*50,51.5020599365,0.0056866002,13:46:39,24/2/2016,40,11,8.47,59,6.64,0,52
$GPRMC,134640.000,A,5130.1243,N,00000.3417,E,2.45,41.28,240216,,,A*57,51.5020751953,0.0056950001,13:46:40,24/2/2016,39,1,23.43,110,7.13,0,52
$GPRMC,134641.000,A,5130.1248,N,00000.3425,E,2.35,13.98,240216,,,A*57,51.5020828247,0.0057082996,13:46:40,24/2/2016,39,19,6.82,31,7.13,0,52
$GPRMC,134642.000,A,5130.1252,N,00000.3435,E,2.37,43.22,240216,,,A*58,51.5020828247,0.0057250003,13:46:42,24/2/2016,39,0,3.93,27,7.13,0,52
$GPRMC,134643.000,A,5130.1264,N,00000.3445,E,2.44,4.80,240216,,,A*64,51.5021095275,0.0057416005,13:46:43,24/2/2016,39,18,7.09,59,7.62,0,52
$GPRMC,134644.000,A,5130.1271,N,00000.3454,E,2.15,48.29,240216,,,A*58,51.5021171569,0.0057565999,13:46:44,24/2/2016,38,5,8.90,48,7.13,0,52
$GPRMC,134645.000,A,5130.1277,N,00000.3462,E,2.00,31.14,240216,,,A*5E,51.5021324157,0.0057700004,13:46:44,24/2/2016,37,0,5.38,42,7.13,0,52
$GPRMC,134646.000,A,5130.1285,N,00000.3471,E,3.11,27.60,240216,,,A*57,51.5021400451,0.0057850003,13:46:46,24/2/2016,39,7,1.63,39,7.13,0,52
$GPRMC,134647.000,A,5130.1294,N,00000.3481,E,3.18,22.94,240216,,,A*5E,51.5021553039,0.0058016004,13:46:47,24/2/2016,34,14,6.37,56,7.62,0,52
$GPRMC,134648.000,A,5130.1303,N,00000.3490,E,2.22,36.88,240216,,,A*5E,51.5021743774,0.0058166003,13:46:48,24/2/2016,33,38,29.92,104,7.62,0,52
$GPRMC,134649.000,A,5130.1312,N,00000.3494,E,2.37,65.73,240216,,,A*5D,51.5021896362,0.0058232998,13:46:48,24/2/2016,30,29,41.08,175,7.13,0,52
$GPRMC,134650.000,A,5130.1323,N,00000.3494,E,1.97,77.40,240216,,,A*5D,51.5022048950,0.0058232998,13:46:50,24/2/2016,26,13,22.07,117,7.62,0,52
$GPRMC,134651.000,A,5130.1326,N,00000.3502,E,1.79,63.82,240216,,,A*5C,51.5022125244,0.0058366003,13:46:51,24/2/2016,25,6,11.06,55,6.64,0,52
$GPRMC,134652.000,A,5130.1332,N,00000.3511,E,2.31,73.77,240216,,,A*5C,51.5022201538,0.0058516001,13:46:52,24/2/2016,25,7,10.24,53,7.13,0,52
$GPRMC,134653.000,A,5130.1339,N,00000.3515,E,2.08,0.96,240216,,,A*63,51.5022315979,0.0058583002,13:46:52,24/2/2016,25,7,6.99,38,7.13,0,52
$GPRMC,134654.000,A,5130.1345,N,00000.3516,E,2.34,357.39,240216,,,A*67,51.5022392272,0.0058600001,13:46:54,24/2/2016,25,28,4.39,31,6.15,0,52
$GPRMC,134655.000,A,5130.1354,N,00000.3514,E,2.86,336.02,240216,,,A*62,51.5022544860,0.0058566002,13:46:55,24/2/2016,25,9,4.91,37,7.62,0,52
$GPRMC,134656.000,A,5130.1363,N,00000.3512,E,2.93,348.70,240216,,,A*6B,51.5022697448,0.0058533005,13:46:56,24/2/2016,25,2,8.23,53,6.64,0,52
$GPRMC,134657.000,A,5130.1371,N,00000.3512,E,2.73,350.60,240216,,,A*6F,51.5022850036,0.0058533005,13:46:56,24/2/2016,25,1,4.63,30,7.62,0,52
$GPRMC,134658.000,A,5130.1379,N,00000.3515,E,3.09,347.63,240216,,,A*66,51.5022964477,0.0058583002,13:46:58,24/2/2016,26,0,2.55,20,7.62,0,52
$GPRMC,134659.000,A,5130.1386,N,00000.3512,E,2.94,324.45,240216,,,A*64,51.5023117065,0.0058533005,13:46:59,24/2/2016,29,0,2.72,25,7.62,0,52
$GPRMC,134700.000,A,5130.1394,N,00000.3511,E,3.65,331.60,240216,,,A*65,51.5023193359,0.0058516001,13:47:0,24/2/2016,30,1,1.90,15,7.13,0,52
$GPRMC,134701.000,A,5130.1401,N,00000.3517,E,3.03,355.33,240216,,,A*6D,51.5023345947,0.0058616008,13:47:0,24/2/2016,38,0,0.63,9,4.20,0,52
$GPRMC,134702.000,A,5130.1407,N,00000.3517,E,2.47,8.15,240216,,,A*66,51.5023422241,0.0058616008,13:47:2,24/2/2016,39,0,0.51,8,4.69,0,52
$GPRMC,134703.000,A,5130.1412,N,00000.3521,E,2.46,13.75,240216,,,A*5B,51.5023536682,0.0058683004,13:47:3,24/2/2016,34,1,0.70,7,7.62,0,52
$GPRMC,134704.000,A,5130.1420,N,00000.3524,E,3.55,1.13,240216,,,A*68,51.5023689270,0.0058732995,13:47:4,24/2/2016,29,0,0.40,8,8.11,0,52
$GPRMC,134705.000,A,5130.1427,N,00000.3529,E,3.16,9.35,240216,,,A*68,51.5023765563,0.0058816003,13:47:4,24/2/2016,31,0,1.16,14,7.62,0,52
$GPRMC,134706.000,A,5130.1435,N,00000.3533,E,2.94,24.04,240216,,,A*55,51.5023918151,0.0058882999,13:47:6,24/2/2016,33,2,0.97,12,8.11,0,52
$GPRMC,134707.000,A,5130.1442,N,00000.3538,E,2.77,18.16,240216,,,A*5E,51.5023994445,0.0058965997,13:47:7,24/2/2016,33,0,0.46,11,7.62,0,52
$GPRMC,134708.000,A,5130.1450,N,00000.3542,E,2.73,11.53,240216,,,A*53,51.5024185180,0.0059033002,13:47:8,24/2/2016,36,1,0.47,8,7.62,0,52
$GPRMC,134709.000,A,5130.1459,N,00000.3544,E,2.82,11.66,240216,,,A*55,51.5024337768,0.0059066004,13:47:8,24/2/2016,41,0,5.70,49,8.11,0,52
$GPRMC,134710.000,A,5130.1465,N,00000.3545,E,1.75,58.06,240216,,,A*53,51.5024414062,0.0059082994,13:47:10,24/2/2016,36,10,5.42,30,8.11,0,52
$GPRMC,134711.000,A,5130.1473,N,00000.3546,E,2.24,22.90,240216,,,A*53,51.5024566650,0.0059100003,13:47:11,24/2/2016,36,5,5.01,28,8.11,0,52
$GPRMC,134712.000,A,5130.1480,N,00000.3545,E,2.39,8.37,240216,,,A*66,51.5024642944,0.0059082994,13:47:12,24/2/2016,32,0,1.76,12,7.62,0,52
$GPRMC,134713.000,A,5130.1489,N,00000.3548,E,2.41,40.57,240216,,,A*56,51.5024833679,0.0059133005,13:47:12,24/2/2016,31,0,1.90,16,8.11,0,52
$GPRMC,134714.000,A,5130.1496,N,00000.3557,E,2.89,5.50,240216,,,A*63,51.5024909973,0.0059283008,13:47:14,24/2/2016,32,0,2.01,20,8.11,0,52
$GPRMC,134715.000,A,5130.1503,N,00000.3560,E,2.64,4.20,240216,,,A*6E,51.5025062561,0.0059333000,13:47:15,24/2/2016,33,0,1.71,17,7.62,0,52
$GPRMC,134716.000,A,5130.1510,N,00000.3562,E,1.93,34.69,240216,,,A*58,51.5025138854,0.0059365997,13:47:16,24/2/2016,34,0,1.57,14,7.13,0,52
$GPRMC,134717.000,A,5130.1518,N,00000.3565,E,2.40,21.51,240216,,,A*54,51.5025291442,0.0059416003,13:47:16,24/2/2016,34,3,3.82,18,8.11,0,52
$GPRMC,134718.000,A,5130.1530,N,00000.3561,E,3.87,359.02,240216,,,A*65,51.5025482177,0.0059350004,13:47:18,24/2/2016,32,0,1.48,15,7.62,0,52
$GPRMC,134719.000,A,5130.1535,N,00000.3566,E,1.99,4.06,240216,,,A*64,51.5025558471,0.0059433002,13:47:19,24/2/2016,34,17,5.05,28,7.62,0,52
$GPRMC,134720.000,A,5130.1541,N,00000.3568,E,2.84,351.82,240216,,,A*63,51.5025711059,0.0059466004,13:47:20,24/2/2016,32,3,1.78,17,7.62,0,52
$GPRMC,134721.000,A,5130.1546,N,00000.3572,E,2.50,7.96,240216,,,A*62,51.5025787353,0.0059532999,13:47:20,24/2/2016,34,0,1.92,17,7.62,0,52
$GPRMC,134722.000,A,5130.1550,N,00000.3577,E,2.13,37.21,240216,,,A*5B,51.5025787353,0.0059616003,13:47:22,24/2/2016,37,5,1.37,19,7.62,0,52
$GPRMC,134723.000,A,5130.1557,N,00000.3582,E,2.79,27.28,240216,,,A*53,51.5025978088,0.0059700007,13:47:23,24/2/2016,35,6,1.64,20,7.13,0,52
$GPRMC,134724.000,A,5130.1562,N,00000.3588,E,2.05,29.15,240216,,,A*53,51.5026054382,0.0059800004,13:47:24,24/2/2016,35,0,0.49,7,7.62,0,52
$GPRMC,134725.000,A,5130.1569,N,00000.3591,E,2.84,26.19,240216,,,A*5B,51.5026130676,0.0059850001,13:47:24,24/2/2016,34,0,0.84,10,7.62,0,52
$GPRMC,134726.000,A,5130.1575,N,00000.3600,E,2.28,23.96,240216,,,A*5A,51.5026283264,0.0060000000,13:47:26,24/2/2016,35,2,1.43,14,7.62,0,52
$GPRMC,134727.000,A,5130.1582,N,00000.3606,E,2.96,12.04,240216,,,A*59,51.5026359558,0.0060100007,13:47:27,24/2/2016,36,0,1.47,11,7.62,0,52
$GPRMC,134728.000,A,5130.1588,N,00000.3609,E,2.42,1.96,240216,,,A*63,51.5026435852,0.0060150003,13:47:28,24/2/2016,28,4,1.43,14,7.62,0,52
$GPRMC,134729.000,A,5130.1595,N,00000.3611,E,2.37,11.11,240216,,,A*5B,51.5026626586,0.0060183000,13:47:28,24/2/2016,27,0,0.65,11,7.62,0,52
$GPRMC,134730.000,A,5130.1601,N,00000.3613,E,2.33,28.11,240216,,,A*51,51.5026702880,0.0060215997,13:47:30,24/2/2016,32,3,1.24,9,7.13,0,52
$GPRMC,134731.000,A,5130.1607,N,00000.3613,E,2.14,338.62,240216,,,A*65,51.5026779174,0.0060215997,13:47:31,24/2/2016,29,0,0.81,9,7.62,0,52
$GPRMC,134732.000,A,5130.1614,N,00000.3615,E,2.65,9.37,240216,,,A*65,51.5026931762,0.0060250005,13:47:32,24/2/2016,25,2,1.74,14,7.62,0,52
$GPRMC,134733.000,A,5130.1627,N,00000.3611,E,3.07,11.82,240216,,,A*52,51.5027084350,0.0060183000,13:47:32,24/2/2016,29,0,1.23,13,7.62,0,52
$GPRMC,134734.000,A,5130.1636,N,00000.3612,E,2.51,23.97,240216,,,A*51,51.5027275085,0.0060199999,13:47:34,24/2/2016,27,1,1.02,16,7.62,0,52
$GPRMC,134735.000,A,5130.1645,N,00000.3614,E,3.33,2.64,240216,,,A*68,51.5027427673,0.0060233001,13:47:35,24/2/2016,27,0,1.66,17,7.62,0,52
$GPRMC,134736.000,A,5130.1654,N,00000.3614,E,2.97,6.37,240216,,,A*66,51.5027580261,0.0060233001,13:47:36,24/2/2016,30,0,0.42,10,7.62,0,52
$GPRMC,134737.000,A,5130.1661,N,00000.3616,E,2.24,19.16,240216,,,A*56,51.5027656555,0.0060266008,13:47:36,24/2/2016,30,3,0.79,10,7.62,0,52
$GPRMC,134738.000,A,5130.1669,N,00000.3616,E,3.41,5.71,240216,,,A*6F,51.5027847290,0.0060266008,13:47:38,24/2/2016,28,1,0.57,11,7.62,0,52
$GPRMC,134739.000,A,5130.1678,N,00000.3617,E,2.58,4.47,240216,,,A*62,51.5027999877,0.0060282998,13:47:39,24/2/2016,28,1,1.11,16,7.62,0,52
$GPRMC,134740.000,A,5130.1686,N,00000.3616,E,2.90,12.48,240216,,,A*50,51.5028076171,0.0060266008,13:47:40,24/2/2016,28,3,2.82,21,7.62,0,52
$GPRMC,134741.000,A,5130.1693,N,00000.3619,E,2.56,17.06,240216,,,A*5F,51.5028228759,0.0060315999,13:47:40,24/2/2016,30,0,3.12,18,7.13,0,52
$GPRMC,134742.000,A,5130.1700,N,00000.3622,E,2.66,15.90,240216,,,A*51,51.5028305053,0.0060366001,13:47:42,24/2/2016,29,0,0.76,14,7.62,0,52
$GPRMC,134743.000,A,5130.1708,N,00000.3620,E,2.75,356.33,240216,,,A*65,51.5028495788,0.0060333008,13:47:43,24/2/2016,29,0,0.72,12,7.62,0,52
$GPRMC,134744.000,A,5130.1716,N,00000.3617,E,2.61,354.06,240216,,,A*68,51.5028572082,0.0060282998,13:47:44,24/2/2016,29,6,1.90,18,7.62,0,52
$GPRMC,134745.000,A,5130.1725,N,00000.3612,E,2.49,4.80,240216,,,A*6E,51.5028724670,0.0060199999,13:47:44,24/2/2016,28,5,2.23,24,7.62,0,52
$GPRMC,134746.000,A,5130.1732,N,00000.3611,E,2.45,0.86,240216,,,A*66,51.5028877258,0.0060183000,13:47:46,24/2/2016,27,7,3.31,20,7.62,0,52
$GPRMC,134747.000,A,5130.1740,N,00000.3611,E,2.49,13.27,240216,,,A*57,51.5028953552,0.0060183000,13:47:47,24/2/2016,26,0,2.36,17,7.62,0,52
$GPRMC,134748.000,A,5130.1747,N,00000.3612,E,2.50,28.61,240216,,,A*5E,51.5029144287,0.0060199999,13:47:48,24/2/2016,28,16,5.45,23,7.62,0,52
$GPRMC,134749.000,A,5130.1757,N,00000.3611,E,3.36,20.69,240216,,,A*5C,51.5029296875,0.0060183000,13:47:48,24/2/2016,27,2,3.26,23,7.62,0,52
$GPRMC,134750.000,A,5130.1765,N,00000.3615,E,2.73,353.94,240216,,,A*64,51.5029373168,0.0060250005,13:47:50,24/2/2016,27,0,2.40,15,7.13,0,52
$GPRMC,134751.000,A,5130.1771,N,00000.3616,E,2.58,5.79,240216,,,A*69,51.5029525756,0.0060266008,13:47:51,24/2/2016,28,1,1.46,17,7.13,0,52
$GPRMC,134752.000,A,5130.1779,N,00000.3616,E,3.06,356.73,240216,,,A*67,51.5029640197,0.0060266008,13:47:52,24/2/2016,28,18,3.91,30,7.13,0,52
$GPRMC,134753.000,A,5130.1787,N,00000.3614,E,2.66,4.83,240216,,,A*69,51.5029792785,0.0060233001,13:47:52,24/2/2016,26,6,2.28,17,7.13,0,52
$GPRMC,134754.000,A,5130.1793,N,00000.3615,E,2.62,358.72,240216,,,A*6A,51.5029869079,0.0060250005,13:47:54,24/2/2016,28,0,3.95,25,7.13,0,52
$GPRMC,134755.000,A,5130.1800,N,00000.3615,E,1.95,21.56,240216,,,A*5E,51.5030021667,0.0060250005,13:47:55,24/2/2016,28,10,1.32,13,7.13,0,52
$GPRMC,134756.000,A,5130.1806,N,00000.3614,E,2.18,8.04,240216,,,A*60,51.5030097961,0.0060233001,13:47:56,24/2/2016,28,1,1.99,14,7.13,0,52
$GPRMC,134757.000,A,5130.1815,N,00000.3614,E,2.65,0.90,240216,,,A*6C,51.5030288696,0.0060233001,13:47:56,24/2/2016,28,0,2.32,13,7.13,0,52
$GPRMC,134758.000,A,5130.1824,N,00000.3611,E,3.15,357.49,240216,,,A*67,51.5030441284,0.0060183000,13:47:58,24/2/2016,29,4,2.82,17,6.15,0,52
$GPRMC,134759.000,A,5130.1830,N,00000.3611,E,2.07,5.03,240216,,,A*6B,51.5030517578,0.0060183000,13:47:59,24/2/2016,27,0,3.96,20,5.66,0,52
$GPRMC,134800.000,A,5130.1837,N,00000.3610,E,2.69,352.07,240216,,,A*63,51.5030593872,0.0060166001,13:48:0,24/2/2016,29,3,1.80,14,7.62,0,52
$GPRMC,134801.000,A,5130.1844,N,00000.3612,E,2.77,8.67,240216,,,A*61,51.5030746459,0.0060199999,13:48:0,24/2/2016,30,0,1.89,17,7.13,0,52
$GPRMC,134802.000,A,5130.1847,N,00000.3617,E,1.90,26.12,240216,,,A*50,51.5030746459,0.0060282998,13:48:2,24/2/2016,32,4,2.91,15,7.13,0,52
$GPRMC,134803.000,A,5130.1852,N,00000.3622,E,2.40,27.58,240216,,,A*52,51.5030860900,0.0060366001,13:48:3,24/2/2016,32,0,1.54,16,6.64,0,52
$GPRMC,134804.000,A,5130.1857,N,00000.3628,E,2.60,48.75,240216,,,A*5E,51.5030937194,0.0060466003,13:48:4,24/2/2016,28,0,4.25,26,7.13,0,52
$GPRMC,134805.000,A,5130.1867,N,00000.3621,E,2.76,37.73,240216,,,A*5C,51.5031089782,0.0060349998,13:48:4,24/2/2016,27,1,3.32,18,7.13,0,52
$GPRMC,134806.000,A,5130.1873,N,00000.3629,E,2.89,45.91,240216,,,A*5B,51.5031242370,0.0060483002,13:48:6,24/2/2016,27,0,4.32,24,7.13,0,52
$GPRMC,134807.000,A,5130.1878,N,00000.3640,E,3.06,39.34,240216,,,A*5C,51.5031318664,0.0060665998,13:48:7,24/2/2016,28,0,0.69,10,7.13,0,52
$GPRMC,134808.000,A,5130.1883,N,00000.3651,E,3.03,42.41,240216,,,A*5C,51.5031394958,0.0060850005,13:48:8,24/2/2016,31,3,1.85,14,7.13,0,52
$GPRMC,134809.000,A,5130.1886,N,00000.3664,E,2.50,50.38,240216,,,A*54,51.5031394958,0.0061066002,13:48:8,24/2/2016,30,8,1.60,16,7.13,0,52
$GPRMC,134810.000,A,5130.1890,N,00000.3673,E,2.75,58.78,240216,,,A*56,51.5031509399,0.0061216001,13:48:10,24/2/2016,29,3,2.50,15,7.13,0,52
$GPRMC,134811.000,A,5130.1893,N,00000.3682,E,2.27,75.94,240216,,,A*50,51.5031585693,0.0061366004,13:48:11,24/2/2016,28,4,3.23,23,7.13,0,52
$GPRMC,134812.000,A,5130.1896,N,00000.3690,E,2.38,46.65,240216,,,A*55,51.5031585693,0.0061500000,13:48:12,24/2/2016,26,2,2.82,22,7.13,0,52
$GPRMC,134813.000,A,5130.1899,N,00000.3696,E,1.86,63.91,240216,,,A*57,51.5031661987,0.0061600008,13:48:12,24/2/2016,29,0,2.20,18,7.13,0,52
$GPRMC,134814.000,A,5130.1903,N,00000.3703,E,2.80,51.53,240216,,,A*55,51.5031738281,0.0061715993,13:48:14,24/2/2016,27,1,0.75,13,7.13,0,52
$GPRMC,134815.000,A,5130.1905,N,00000.3715,E,2.43,63.04,240216,,,A*59,51.5031738281,0.0061916007,13:48:15,24/2/2016,26,1,1.64,17,7.13,0,52
$GPRMC,134816.000,A,5130.1908,N,00000.3723,E,2.46,66.67,240216,,,A*57,51.5031814575,0.0062049999,13:48:16,24/2/2016,27,0,3.60,25,7.13,0,52
$GPRMC,134817.000,A,5130.1911,N,00000.3733,E,2.66,67.15,240216,,,A*59,51.5031814575,0.0062216000,13:48:16,24/2/2016,27,0,0.69,11,7.13,0,52
$GPRMC,134818.000,A,5130.1914,N,00000.3745,E,3.03,71.02,240216,,,A*51,51.5031890869,0.0062416005,13:48:18,24/2/2016,23,0,5.42,19,7.13,0,52
$GPRMC,134819.000,A,5130.1913,N,00000.3757,E,2.68,100.86,240216,,,A*63,51.5031890869,0.0062616004,13:48:19,24/2/2016,22,8,3.81,17,7.13,0,52
$GPRMC,134820.000,A,5130.1910,N,00000.3763,E,2.74,125.95,240216,,,A*65,51.5031814575,0.0062716002,13:48:20,24/2/2016,20,0,2.91,16,7.13,0,52
$GPRMC,134821.000,A,5130.1906,N,00000.3772,E,2.57,128.92,240216,,,A*68,51.5031738281,0.0062866001,13:48:20,24/2/2016,20,6,5.15,47,7.13,0,52
$GPRMC,134822.000,A,5130.1902,N,00000.3780,E,2.71,132.87,240216,,,A*69,51.5031738281,0.0063000011,13:48:22,24/2/2016,19,3,3.03,19,7.13,0,52
$GPRMC,134823.000,A,5130.1896,N,00000.3788,E,3.09,138.54,240216,,,A*66,51.5031585693,0.0063133001,13:48:23,24/2/2016,19,4,7.28,29,6.64,0,52
$GPRMC,134824.000,A,5130.1891,N,00000.3797,E,3.07,127.75,240216,,,A*6B,51.5031509399,0.0063283004,13:48:24,24/2/2016,19,37,14.48,48,6.64,0,52
$GPRMC,134825.000,A,5130.1884,N,00000.3803,E,3.65,122.07,240216,,,A*68,51.5031394958,0.0063382997,13:48:24,24/2/2016,19,14,11.48,36,6.64,0,52
$GPRMC,134826.000,A,5130.1880,N,00000.3814,E,2.99,129.92,240216,,,A*6C,51.5031318664,0.0063565998,13:48:26,24/2/2016,19,16,4.49,29,6.15,0,52
$GPRMC,134827.000,A,5130.1875,N,00000.3820,E,2.28,136.46,240216,,,A*6D,51.5031242370,0.0063666000,13:48:27,24/2/2016,18,0,4.28,20,6.64,0,52
$GPRMC,134828.000,A,5130.1869,N,00000.3826,E,2.53,140.16,240216,,,A*61,51.5031166076,0.0063766002,13:48:28,24/2/2016,19,5,8.56,40,6.64,0,52
$GPRMC,134829.000,A,5130.1862,N,00000.3834,E,2.82,139.82,240216,,,A*67,51.5031013488,0.0063899998,13:48:28,24/2/2016,18,4,3.94,15,5.66,0,52
$GPRMC,134830.000,A,5130.1856,N,00000.3841,E,2.96,135.37,240216,,,A*6D,51.5030937194,0.0064015998,13:48:30,24/2/2016,18,1,3.26,19,6.64,0,52
$GPRMC,134831.000,A,5130.1851,N,00000.3847,E,2.48,115.82,240216,,,A*62,51.5030860900,0.0064116001,13:48:31,24/2/2016,18,10,7.99,33,5.66,0,52
$GPRMC,134832.000,A,5130.1846,N,00000.3857,E,3.06,127.65,240216,,,A*65,51.5030746459,0.0064283008,13:48:32,24/2/2016,18,3,4.48,20,4.20,0,52
$GPRMC,134833.000,A,5130.1843,N,00000.3866,E,2.18,105.01,240216,,,A*6F,51.5030670166,0.0064433002,13:48:32,24/2/2016,20,5,5.76,28,6.15,0,52
$GPRMC,134834.000,A,5130.1841,N,00000.3875,E,2.83,105.54,240216,,,A*6A,51.5030670166,0.0064583005,13:48:34,24/2/2016,19,3,7.89,28,6.64,0,52
$GPRMC,134835.000,A,5130.1839,N,00000.3887,E,2.73,86.69,240216,,,A*52,51.5030670166,0.0064783005,13:48:35,24/2/2016,21,0,5.08,30,6.64,0,52
$GPRMC,134836.000,A,5130.1842,N,00000.3898,E,2.48,62.61,240216,,,A*59,51.5030670166,0.0064966001,13:48:36,24/2/2016,22,1,4.28,40,6.64,0,52
$GPRMC,134837.000,A,5130.1847,N,00000.3907,E,2.82,53.40,240216,,,A*5D,51.5030746459,0.0065116000,13:48:36,24/2/2016,21,5,3.14,17,6.15,0,52
$GPRMC,134838.000,A,5130.1852,N,00000.3915,E,2.58,54.19,240216,,,A*59,51.5030860900,0.0065250010,13:48:38,24/2/2016,24,0,2.15,14,6.64,0,52
$GPRMC,134839.000,A,5130.1858,N,00000.3921,E,2.68,19.95,240216,,,A*5B,51.5031013488,0.0065350003,13:48:39,24/2/2016,23,1,2.14,13,6.15,0,52
$GPRMC,134840.000,A,5130.1865,N,00000.3922,E,2.53,356.81,240216,,,A*6D,51.5031089782,0.0065366001,13:48:40,24/2/2016,23,3,1.78,12,6.64,0,52
$GPRMC,134841.000,A,5130.1872,N,00000.3921,E,2.02,0.61,240216,,,A*63,51.5031166076,0.0065350003,13:48:40,24/2/2016,23,5,3.68,34,6.64,0,52
$GPRMC,134842.000,A,5130.1879,N,00000.3920,E,2.04,356.01,240216,,,A*6A,51.5031318664,0.0065333008,13:48:42,24/2/2016,24,6,1.99,14,6.64,0,52
$GPRMC,134843.000,A,5130.1882,N,00000.3921,E,0.55,143.95,240216,,,A*63,51.5031318664,0.0065350003,13:48:43,24/2/2016,23,15,5.14,21,6.64,0,52
$GPRMC,134844.000,A,5130.1883,N,00000.3920,E,0.34,162.36,240216,,,A*69,51.5031394958,0.0065333008,13:48:44,24/2/2016,25,8,8.12,26,6.64,0,52
$GPRMC,134845.000,A,5130.1887,N,00000.3914,E,0.41,237.91,240216,,,A*67,51.5031394958,0.0065233001,13:48:44,24/2/2016,24,0,4.15,35,6.64,0,52
$GPRMC,134846.000,A,5130.1892,N,00000.3910,E,0.68,327.53,240216,,,A*61,51.5031509399,0.0065165996,13:48:46,24/2/2016,24,0,4.81,21,6.64,0,52
$GPRMC,134847.000,A,5130.1900,N,00000.3905,E,1.51,333.93,240216,,,A*6C,51.5031661987,0.0065082998,13:48:47,24/2/2016,24,2,2.12,12,6.64,0,52
$GPRMC,134848.000,A,5130.1907,N,00000.3899,E,2.14,331.99,240216,,,A*6A,51.5031814575,0.0064983005,13:48:48,24/2/2016,24,0,2.20,17,6.64,0,52
$GPRMC,134849.000,A,5130.1914,N,00000.3892,E,2.67,327.74,240216,,,A*62,51.5031890869,0.0064866008,13:48:48,24/2/2016,23,3,3.08,16,6.64,0,52
$GPRMC,134850.000,A,5130.1920,N,00000.3886,E,2.33,322.95,240216,,,A*63,51.5031967163,0.0064766001,13:48:50,24/2/2016,23,1,3.07,20,6.64,0,52
$GPRMC,134851.000,A,5130.1926,N,00000.3879,E,2.23,330.58,240216,,,A*67,51.5032081604,0.0064650006,13:48:51,24/2/2016,23,1,0.98,9,6.64,0,52
$GPRMC,134852.000,A,5130.1932,N,00000.3873,E,2.56,326.52,240216,,,A*64,51.5032234191,0.0064549994,13:48:52,24/2/2016,23,9,1.35,14,6.15,0,52
$GPRMC,134853.000,A,5130.1938,N,00000.3866,E,2.36,319.65,240216,,,A*65,51.5032310485,0.0064433002,13:48:52,24/2/2016,23,6,2.88,23,6.64,0,52
$GPRMC,134854.000,A,5130.1944,N,00000.3859,E,2.44,324.80,240216,,,A*65,51.5032386779,0.0064316005,13:48:54,24/2/2016,24,0,2.94,18,6.64,0,52
$GPRMC,134855.000,A,5130.1950,N,00000.3853,E,2.28,329.02,240216,,,A*66,51.5032463073,0.0064216003,13:48:55,24/2/2016,24,4,8.55,44,6.15,0,52
$GPRMC,134856.000,A,5130.1956,N,00000.3848,E,2.47,330.19,240216,,,A*62,51.5032615661,0.0064133000,13:48:56,24/2/2016,23,1,5.13,23,6.64,0,52
$GPRMC,134857.000,A,5130.1962,N,00000.3843,E,2.56,333.15,240216,,,A*60,51.5032730102,0.0064050006,13:48:56,24/2/2016,23,7,4.18,18,6.64,0,52
$GPRMC,134858.000,A,5130.1969,N,00000.3838,E,2.35,336.41,240216,,,A*69,51.5032806396,0.0063965997,13:48:58,24/2/2016,23,3,4.00,23,6.15,0,52
$GPRMC,134859.000,A,5130.1975,N,00000.3832,E,2.62,333.71,240216,,,A*6B,51.5032882690,0.0063866004,13:48:59,24/2/2016,24,1,3.88,48,6.64,0,52
$GPRMC,134900.000,A,5130.1985,N,00000.3827,E,2.63,329.29,240216,,,A*6A,51.5033111572,0.0063782997,13:49:0,24/2/2016,24,0,3.25,19,6.64,0,52
$GPRMC,134901.000,A,5130.1991,N,00000.3821,E,2.72,327.81,240216,,,A*64,51.5033187866,0.0063683004,13:49:0,24/2/2016,24,4,5.70,44,6.64,0,52
$GPRMC,134902.000,A,5130.1999,N,00000.3814,E,2.99,329.95,240216,,,A*67,51.5033302307,0.0063565998,13:49:2,24/2/2016,23,20,9.16,78,6.64,0,52
$GPRMC,134903.000,A,5130.2006,N,00000.3808,E,2.94,331.43,240216,,,A*68,51.5033454895,0.0063466000,13:49:3,24/2/2016,24,45,10.60,51,6.64,0,52
$GPRMC,134904.000,A,5130.2014,N,00000.3802,E,2.81,332.49,240216,,,A*6B,51.5033531188,0.0063366003,13:49:4,24/2/2016,24,0,11.54,58,6.15,0,52
$GPRMC,134905.000,A,5130.2021,N,00000.3796,E,2.93,320.70,240216,,,A*64,51.5033683776,0.0063266000,13:49:4,24/2/2016,25,1,4.90,30,6.15,0,52
$GPRMC,134906.000,A,5130.2028,N,00000.3787,E,2.98,322.77,240216,,,A*60,51.5033760070,0.0063116006,13:49:6,24/2/2016,24,5,7.01,49,6.64,0,52
$GPRMC,134907.000,A,5130.2035,N,00000.3779,E,2.97,323.68,240216,,,A*6C,51.5033950805,0.0062983007,13:49:7,24/2/2016,23,4,2.35,16,6.15,0,52
$GPRMC,134908.000,A,5130.2043,N,00000.3771,E,3.36,325.13,240216,,,A*6A,51.5034027099,0.0062849998,13:49:8,24/2/2016,23,1,2.58,25,6.15,0,52
$GPRMC,134909.000,A,5130.2050,N,00000.3764,E,3.22,330.45,240216,,,A*6F,51.5034179687,0.0062733001,13:49:8,24/2/2016,23,15,2.49,19,6.15,0,52
$GPRMC,134910.000,A,5130.2058,N,00000.3757,E,2.92,330.09,240216,,,A*6D,51.5034255981,0.0062616004,13:49:10,24/2/2016,21,16,12.84,40,6.15,0,52
$GPRMC,134911.000,A,5130.2066,N,00000.3750,E,2.53,324.59,240216,,,A*6B,51.5034408569,0.0062500000,13:49:11,24/2/2016,21,2,3.12,20,5.66,0,52
$GPRMC,134912.000,A,5130.2072,N,00000.3743,E,3.04,324.92,240216,,,A*6B,51.5034523010,0.0062383003,13:49:12,24/2/2016,24,1,2.21,15,5.66,0,52
$GPRMC,134913.000,A,5130.2079,N,00000.3736,E,2.69,322.99,240216,,,A*64,51.5034675598,0.0062265996,13:49:12,24/2/2016,21,0,4.50,41,5.66,0,52
$GPRMC,134914.000,A,5130.2086,N,00000.3729,E,2.67,326.37,240216,,,A*63,51.5034751892,0.0062150001,13:49:14,24/2/2016,21,7,2.56,30,6.15,0,52
$GPRMC,134915.000,A,5130.2093,N,00000.3722,E,2.72,327.64,240216,,,A*6E,51.5034904479,0.0062033004,13:49:15,24/2/2016,20,14,9.77,64,6.15,0,52
$GPRMC,134916.000,A,5130.2100,N,00000.3715,E,2.79,324.91,240216,,,A*60,51.5034980773,0.0061916007,13:49:16,24/2/2016,20,2,2.23,29,6.15,0,52
$GPRMC,134917.000,A,5130.2106,N,00000.3708,E,2.81,324.21,240216,,,A*67,51.5035057067,0.0061800003,13:49:16,24/2/2016,20,24,6.55,53,6.15,0,52
$GPRMC,134918.000,A,5130.2112,N,00000.3701,E,2.67,325.58,240216,,,A*63,51.5035247802,0.0061683006,13:49:18,24/2/2016,20,4,6.80,82,6.15,0,52
$GPRMC,134919.000,A,5130.2117,N,00000.3694,E,2.67,328.14,240216,,,A*6F,51.5035324096,0.0061565999,13:49:19,24/2/2016,20,7,10.66,100,6.15,0,52
$GPRMC,134920.000,A,5130.2123,N,00000.3687,E,2.73,323.94,240216,,,A*66,51.5035400390,0.0061450004,13:49:20,24/2/2016,20,23,14.73,113,6.15,0,52
$GPRMC,134921.000,A,5130.2129,N,00000.3679,E,2.72,320.85,240216,,,A*6E,51.5035476684,0.0061316003,13:49:20,24/2/2016,18,4,8.09,50,6.15,0,52
$GPRMC,134922.000,A,5130.2135,N,00000.3671,E,2.74,320.74,240216,,,A*60,51.5035552978,0.0061182999,13:49:22,24/2/2016,20,0,6.47,42,6.15,0,52
$GPRMC,134923.000,A,5130.2142,N,00000.3663,E,2.81,323.47,240216,,,A*6B,51.5035743713,0.0061050004,13:49:23,24/2/2016,19,0,13.44,57,6.15,0,52
$GPRMC,134924.000,A,5130.2148,N,00000.3655,E,2.75,321.36,240216,,,A*6C,51.5035820007,0.0060915999,13:49:24,24/2/2016,21,4,7.65,62,6.15,0,52
$GPRMC,134925.000,A,5130.2155,N,00000.3647,E,2.75,326.47,240216,,,A*63,51.5035896301,0.0060783004,13:49:24,24/2/2016,18,7,8.40,58,6.15,0,52
$GPRMC,134926.000,A,5130.2162,N,00000.3640,E,2.77,326.13,240216,,,A*60,51.5036048889,0.0060665998,13:49:26,24/2/2016,19,23,18.27,87,6.15,0,52
$GPRMC,134927.000,A,5130.2168,N,00000.3634,E,2.50,329.19,240216,,,A*68,51.5036125183,0.0060566000,13:49:27,24/2/2016,22,31,18.25,83,6.15,0,52
$GPRMC,134928.000,A,5130.2174,N,00000.3628,E,2.49,325.17,240216,,,A*6D,51.5036201477,0.0060466003,13:49:28,24/2/2016,22,2,12.89,80,6.15,0,52
$GPRMC,134929.000,A,5130.2180,N,00000.3621,E,2.78,324.56,240216,,,A*68,51.5036277770,0.0060349998,13:49:28,24/2/2016,23,20,12.45,57,6.15,0,52
$GPRMC,134930.000,A,5130.2186,N,00000.3615,E,2.46,328.80,240216,,,A*6B,51.5036468505,0.0060250005,13:49:30,24/2/2016,23,10,9.61,46,6.15,0,52
$GPRMC,134931.000,A,5130.2192,N,00000.3609,E,2.63,323.04,240216,,,A*62,51.5036544799,0.0060150003,13:49:31,24/2/2016,24,31,11.89,45,6.15,0,52
$GPRMC,134932.000,A,5130.2197,N,00000.3603,E,2.29,314.69,240216,,,A*6F,51.5036621093,0.0060050001,13:49:32,24/2/2016,25,27,26.22,189,6.15,0,52
$GPRMC,134933.000,A,5130.2201,N,00000.3597,E,2.68,325.46,240216,,,A*66,51.5036697387,0.0059949998,13:49:32,24/2/2016,26,5,7.96,39,6.15,0,52
$GPRMC,134934.000,A,5130.2208,N,00000.3590,E,3.49,322.22,240216,,,A*68,51.5036773681,0.0059833002,13:49:34,24/2/2016,25,2,7.88,57,6.15,0,52
$GPRMC,134935.000,A,5130.2214,N,00000.3583,E,3.30,326.63,240216,,,A*69,51.5036849975,0.0059715995,13:49:35,24/2/2016,25,18,6.66,39,6.15,0,52
$GPRMC,134936.000,A,5130.2221,N,00000.3575,E,2.63,328.83,240216,,,A*62,51.5037040710,0.0059583001,13:49:36,24/2/2016,24,14,12.60,86,6.15,0,52
$GPRMC,134937.000,A,5130.2227,N,00000.3568,E,2.78,326.65,240216,,,A*65,51.5037117004,0.0059466004,13:49:36,24/2/2016,24,10,11.36,52,5.66,0,52
$GPRMC,134938.000,A,5130.2233,N,00000.3561,E,2.67,323.61,240216,,,A*69,51.5037193298,0.0059350004,13:49:38,24/2/2016,25,0,1.53,21,5.66,0,52
$GPRMC,134939.000,A,5130.2238,N,00000.3554,E,2.88,323.91,240216,,,A*6B,51.5037269592,0.0059233002,13:49:39,24/2/2016,24,0,2.60,22,6.15,0,52
$GPRMC,134940.000,A,5130.2244,N,00000.3547,E,2.82,326.56,240216,,,A*68,51.5037422180,0.0059116001,13:49:40,24/2/2016,25,0,3.49,42,6.15,0,52
$GPRMC,134941.000,A,5130.2250,N,00000.3539,E,2.77,324.04,240216,,,A*6A,51.5037498474,0.0058983001,13:49:40,24/2/2016,25,12,4.26,39,6.15,0,52
$GPRMC,134942.000,A,5130.2256,N,00000.3532,E,2.65,325.19,240216,,,A*6A,51.5037612915,0.0058866000,13:49:42,24/2/2016,25,14,2.22,21,6.15,0,52
$GPRMC,134943.000,A,5130.2261,N,00000.3525,E,2.49,321.04,240216,,,A*6F,51.5037689208,0.0058750004,13:49:43,24/2/2016,25,5,6.88,76,6.15,0,52
$GPRMC,134944.000,A,5130.2266,N,00000.3517,E,2.71,318.42,240216,,,A*6D,51.5037765502,0.0058616008,13:49:44,24/2/2016,26,0,2.56,24,6.15,0,52
$GPRMC,134945.000,A,5130.2271,N,00000.3509,E,2.92,324.58,240216,,,A*6C,51.5037841796,0.0058482999,13:49:44,24/2/2016,24,0,3.26,24,6.15,0,52
$GPRMC,134946.000,A,5130.2277,N,00000.3502,E,2.82,329.40,240216,,,A*67,51.5037918090,0.0058366003,13:49:46,24/2/2016,26,10,2.36,17,6.15,0,52
$GPRMC,134947.000,A,5130.2284,N,00000.3496,E,2.78,328.01,240216,,,A*67,51.5038070678,0.0058266000,13:49:47,24/2/2016,26,3,5.63,55,6.15,0,52
$GPRMC,134948.000,A,5130.2290,N,00000.3490,E,2.68,327.41,240216,,,A*61,51.5038185119,0.0058166003,13:49:48,24/2/2016,25,0,1.49,13,6.15,0,52
$GPRMC,134949.000,A,5130.2296,N,00000.3483,E,2.71,325.16,240216,,,A*6C,51.5038261413,0.0058050003,13:49:48,24/2/2016,26,1,3.61,30,6.15,0,52
$GPRMC,134950.000,A,5130.2303,N,00000.3475,E,2.90,321.49,240216,,,A*61,51.5038414001,0.0057915997,13:49:50,24/2/2016,27,0,5.41,29,6.15,0,52
$GPRMC,134951.000,A,5130.2309,N,00000.3467,E,2.72,320.47,240216,,,A*6A,51.5038490295,0.0057783002,13:49:51,24/2/2016,26,0,5.51,28,5.66,0,52
$GPRMC,134952.000,A,5130.2316,N,00000.3460,E,2.21,326.02,240216,,,A*61,51.5038566589,0.0057666006,13:49:52,24/2/2016,27,7,3.47,26,5.66,0,52
$GPRMC,134953.000,A,5130.2322,N,00000.3454,E,2.68,328.58,240216,,,A*6C,51.5038719177,0.0057565999,13:49:52,24/2/2016,27,9,5.86,35,5.66,0,52
$GPRMC,134954.000,A,5130.2326,N,00000.3448,E,2.69,321.64,240216,,,A*65,51.5038719177,0.0057466001,13:49:54,24/2/2016,25,22,10.54,58,5.66,0,52
$GPRMC,134955.000,A,5130.2331,N,00000.3440,E,2.58,319.49,240216,,,A*6C,51.5038833618,0.0057333002,13:49:55,24/2/2016,25,8,18.52,106,5.66,0,52
$GPRMC,134956.000,A,5130.2334,N,00000.3432,E,2.88,326.68,240216,,,A*6D,51.5038909912,0.0057200002,13:49:56,24/2/2016,25,17,3.57,26,5.66,0,52
$GPRMC,134957.000,A,5130.2338,N,00000.3424,E,3.05,315.84,240216,,,A*61,51.5038986206,0.0057066006,13:49:56,24/2/2016,25,20,10.67,42,5.66,0,52
$GPRMC,134958.000,A,5130.2340,N,00000.3416,E,2.95,320.41,240216,,,A*67,51.5038986206,0.0056932997,13:49:58,24/2/2016,24,6,9.62,43,5.66,0,52
$GPRMC,134959.000,A,5130.2344,N,00000.3408,E,2.91,321.55,240216,,,A*6D,51.5039062500,0.0056800003,13:49:59,24/2/2016,25,14,9.81,39,5.66,0,52
$GPRMC,135000.000,A,5130.2349,N,00000.3401,E,2.78,328.30,240216,,,A*60,51.5039138793,0.0056683006,13:50:0,24/2/2016,26,5,3.95,23,5.66,0,52
$GPRMC,135001.000,A,5130.2354,N,00000.3393,E,2.88,322.58,240216,,,A*6A,51.5039215087,0.0056550002,13:50:0,24/2/2016,26,0,6.17,43,5.66,0,52
$GPRMC,135002.000,A,5130.2359,N,00000.3385,E,2.80,321.16,240216,,,A*62,51.5039291381,0.0056415996,13:50:2,24/2/2016,25,0,6.94,35,5.66,0,52
$GPRMC,135003.000,A,5130.2363,N,00000.3378,E,2.50,329.57,240216,,,A*68,51.5039405822,0.0056300010,13:50:3,24/2/2016,24,8,4.21,39,5.66,0,52
$GPRMC,135004.000,A,5130.2367,N,00000.3374,E,2.58,327.93,240216,,,A*69,51.5039482116,0.0056233000,13:50:4,24/2/2016,24,16,7.57,50,5.66,0,52
$GPRMC,135005.000,A,5130.2373,N,00000.3368,E,2.61,327.80,240216,,,A*68,51.5039558410,0.0056133003,13:50:4,24/2/2016,24,0,7.01,37,5.66,0,52
$GPRMC,135006.000,A,5130.2378,N,00000.3361,E,2.92,322.84,240216,,,A*64,51.5039634704,0.0056016006,13:50:6,24/2/2016,24,19,3.78,27,6.15,0,52
$GPRMC,135007.000,A,5130.2384,N,00000.3352,E,2.96,316.26,240216,,,A*6D,51.5039710998,0.0055866003,13:50:7,24/2/2016,25,2,5.88,38,5.66,0,52
$GPRMC,135008.000,A,5130.2389,N,00000.3343,E,2.79,324.04,240216,,,A*6F,51.5039787292,0.0055715999,13:50:8,24/2/2016,24,2,2.65,18,5.66,0,52
$GPRMC,135009.000,A,5130.2395,N,00000.3337,E,2.64,328.94,240216,,,A*69,51.5039863586,0.0055615997,13:50:8,24/2/2016,24,1,5.12,32,5.66,0,52
$GPRMC,135010.000,A,5130.2401,N,00000.3330,E,2.70,325.03,240216,,,A*6A,51.5040054321,0.0055500001,13:50:10,24/2/2016,24,0,1.34,17,5.66,0,52
$GPRMC,135011.000,A,5130.2406,N,00000.3323,E,2.56,328.53,240216,,,A*62,51.5040130615,0.0055383005,13:50:11,24/2/2016,24,0,3.25,30,5.66,0,52
$GPRMC,135012.000,A,5130.2412,N,00000.3317,E,2.77,323.02,240216,,,A*6F,51.5040206909,0.0055283002,13:50:12,24/2/2016,24,0,1.49,20,5.66,0,52
$GPRMC,135013.000,A,5130.2417,N,00000.3309,E,2.77,320.04,240216,,,A*61,51.5040283203,0.0055150003,13:50:12,24/2/2016,24,3,1.24,13,5.66,0,52
$GPRMC,135014.000,A,5130.2423,N,00000.3301,E,2.75,326.71,240216,,,A*6F,51.5040359497,0.0055015997,13:50:14,24/2/2016,24,6,1.15,11,5.66,0,52
$GPRMC,135015.000,A,5130.2429,N,00000.3294,E,2.65,321.86,240216,,,A*67,51.5040435791,0.0054899997,13:50:15,24/2/2016,24,0,1.64,20,6.15,0,52
$GPRMC,135016.000,A,5130.2435,N,00000.3287,E,2.66,318.81,240216,,,A*65,51.5040626525,0.0054783000,13:50:16,24/2/2016,24,0,3.39,34,5.66,0,52
$GPRMC,135017.000,A,5130.2440,N,00000.3280,E,2.63,319.18,240216,,,A*65,51.5040702819,0.0054666004,13:50:16,24/2/2016,24,1,5.16,52,5.66,0,52
$GPRMC,135018.000,A,5130.2446,N,00000.3273,E,2.64,321.68,240216,,,A*6B,51.5040779113,0.0054550004,13:50:18,24/2/2016,24,0,1.00,16,5.66,0,52
$GPRMC,135019.000,A,5130.2452,N,00000.3266,E,2.58,321.80,240216,,,A*62,51.5040855407,0.0054433002,13:50:19,24/2/2016,24,1,1.38,21,5.66,0,52
$GPRMC,135020.000,A,5130.2457,N,00000.3259,E,2.57,319.60,240216,,,A*6B,51.5040931701,0.0054316000,13:50:20,24/2/2016,24,1,2.64,24,5.66,0,52
$GPRMC,135021.000,A,5130.2463,N,00000.3251,E,2.63,320.81,240216,,,A*67,51.5041007995,0.0054183001,13:50:20,24/2/2016,25,3,2.11,21,5.66,0,52
$GPRMC,135022.000,A,5130.2469,N,00000.3244,E,2.72,323.13,240216,,,A*62,51.5041160583,0.0054065999,13:50:22,24/2/2016,25,0,0.30,7,5.66,0,52
$GPRMC,135023.000,A,5130.2474,N,00000.3237,E,2.77,321.83,240216,,,A*65,51.5041275024,0.0053950004,13:50:23,24/2/2016,24,0,1.82,35,5.66,0,52
$GPRMC,135024.000,A,5130.2480,N,00000.3229,E,2.85,316.77,240216,,,A*64,51.5041351318,0.0053815994,13:50:24,24/2/2016,25,0,4.41,27,5.66,0,52
$GPRMC,135025.000,A,5130.2485,N,00000.3222,E,2.64,319.36,240216,,,A*6E,51.5041427612,0.0053699998,13:50:24,24/2/2016,25,0,1.41,31,5.66,0,52
$GPRMC,135026.000,A,5130.2491,N,00000.3213,E,2.98,316.26,240216,,,A*67,51.5041503906,0.0053550000,13:50:26,24/2/2016,25,0,0.38,20,5.66,0,52
$GPRMC,135027.000,A,5130.2497,N,00000.3204,E,2.89,310.39,240216,,,A*6E,51.5041580200,0.0053400001,13:50:27,24/2/2016,24,0,0.18,5,5.66,0,52
$GPRMC,135028.000,A,5130.2502,N,00000.3195,E,2.84,316.53,240216,,,A*60,51.5041656494,0.0053250002,13:50:28,24/2/2016,24,0,0.30,7,5.66,0,52
$GPRMC,135029.000,A,5130.2507,N,00000.3187,E,2.85,317.38,240216,,,A*6A,51.5041732788,0.0053116006,13:50:28,24/2/2016,24,0,0.57,19,5.66,0,52
$GPRMC,135030.000,A,5130.2513,N,00000.3178,E,2.73,313.84,240216,,,A*6D,51.5041923522,0.0052966003,13:50:30,24/2/2016,24,0,0.35,12,5.66,0,52
$GPRMC,135031.000,A,5130.2518,N,00000.3171,E,2.79,326.13,240216,,,A*6C,51.5041999816,0.0052850003,13:50:31,24/2/2016,24,0,0.04,3,5.66,0,52
$GPRMC,135032.000,A,5130.2524,N,00000.3163,E,2.83,319.59,240216,,,A*64,51.5042076110,0.0052716007,13:50:32,24/2/2016,24,0,0.49,10,5.66,0,52
$GPRMC,135033.000,A,5130.2530,N,00000.3155,E,2.76,318.39,240216,,,A*68,51.5042152404,0.0052583003,13:50:32,24/2/2016,24,0,0.17,4,5.66,0,52
$GPRMC,135034.000,A,5130.2535,N,00000.3147,E,2.76,313.39,240216,,,A*62,51.5042228698,0.0052449998,13:50:34,24/2/2016,24,0,0.16,8,5.66,0,52
$GPRMC,135035.000,A,5130.2541,N,00000.3139,E,2.77,315.26,240216,,,A*60,51.5042304992,0.0052315998,13:50:35,24/2/2016,23,0,2.68,23,5.66,0,52
$GPRMC,135036.000,A,5130.2547,N,00000.3130,E,2.93,316.51,240216,,,A*65,51.5042495727,0.0052165994,13:50:36,24/2/2016,24,0,0.19,4,5.66,0,52
$GPRMC,135037.000,A,5130.2553,N,00000.3121,E,2.97,316.10,240216,,,A*60,51.5042572021,0.0052016000,13:50:36,24/2/2016,26,0,0.65,12,5.66,0,52
$GPRMC,135038.000,A,5130.2559,N,00000.3112,E,2.95,318.80,240216,,,A*60,51.5042648315,0.0051866002,13:50:38,24/2/2016,27,4,0.22,6,5.66,0,52
$GPRMC,135039.000,A,5130.2565,N,00000.3103,E,2.96,320.55,240216,,,A*6E,51.5042724609,0.0051715998,13:50:39,24/2/2016,24,0,0.38,10,5.66,0,52
$GPRMC,135040.000,A,5130.2572,N,00000.3094,E,3.10,319.82,240216,,,A*66,51.5042877197,0.0051565999,13:50:40,24/2/2016,24,0,0.37,6,5.66,0,52
$GPRMC,135041.000,A,5130.2578,N,00000.3086,E,2.61,320.59,240216,,,A*65,51.5042953491,0.0051433000,13:50:40,24/2/2016,25,0,0.88,16,5.66,0,52
$GPRMC,135042.000,A,5130.2584,N,00000.3077,E,2.82,315.00,240216,,,A*6C,51.5043067932,0.0051283001,13:50:42,24/2/2016,26,0,0.23,4,5.66,0,52
$GPRMC,135043.000,A,5130.2589,N,00000.3069,E,2.98,319.45,240216,,,A*69,51.5043144226,0.0051150007,13:50:43,24/2/2016,25,0,0.40,9,5.66,0,52
$GPRMC,135044.000,A,5130.2595,N,00000.3060,E,2.79,317.51,240216,,,A*6E,51.5043220520,0.0051000003,13:50:44,24/2/2016,25,3,2.60,16,5.66,0,52
$GPRMC,135045.000,A,5130.2601,N,00000.3053,E,2.70,311.67,240216,,,A*6B,51.5043373107,0.0050883002,13:50:44,24/2/2016,26,1,4.46,25,5.66,0,52
$GPRMC,135046.000,A,5130.2606,N,00000.3044,E,2.86,313.71,240216,,,A*65,51.5043449401,0.0050732998,13:50:46,24/2/2016,26,0,1.33,12,5.66,0,52
$GPRMC,135047.000,A,5130.2611,N,00000.3036,E,2.76,313.35,240216,,,A*68,51.5043525695,0.0050600004,13:50:47,24/2/2016,27,0,0.43,5,5.66,0,52
$GPRMC,135048.000,A,5130.2617,N,00000.3027,E,2.81,315.05,240216,,,A*6C,51.5043601989,0.0050450000,13:50:48,24/2/2016,28,0,2.06,32,5.66,0,52
$GPRMC,135049.000,A,5130.2623,N,00000.3019,E,2.90,327.27,240216,,,A*66,51.5043716430,0.0050315999,13:50:48,24/2/2016,26,7,1.49,11,5.66,0,52
$GPRMC,135050.000,A,5130.2630,N,00000.3013,E,2.43,320.49,240216,,,A*67,51.5043869018,0.0050216007,13:50:50,24/2/2016,27,1,0.98,17,5.66,0,52
$GPRMC,135051.000,A,5130.2635,N,00000.3006,E,2.45,320.36,240216,,,A*69,51.5043945312,0.0050100002,13:50:51,24/2/2016,26,8,2.37,14,5.66,0,52
$GPRMC,135052.000,A,5130.2641,N,00000.3000,E,3.02,325.68,240216,,,A*63,51.5044021606,0.0050000004,13:50:52,24/2/2016,26,0,0.21,8,5.66,0,52
$GPRMC,135053.000,A,5130.2648,N,00000.2993,E,2.85,319.90,240216,,,A*6F,51.5044097900,0.0049883003,13:50:52,24/2/2016,26,3,3.65,20,5.66,0,52
$GPRMC,135054.000,A,5130.2654,N,00000.2985,E,2.19,326.54,240216,,,A*63,51.5044288635,0.0049749999,13:50:54,24/2/2016,26,0,0.70,12,5.66,0,52
$GPRMC,135055.000,A,5130.2659,N,00000.2978,E,2.73,317.92,240216,,,A*69,51.5044364929,0.0049633002,13:50:55,24/2/2016,24,0,0.40,5,5.66,0,52
$GPRMC,135056.000,A,5130.2665,N,00000.2969,E,2.95,320.90,240216,,,A*6B,51.5044441223,0.0049483003,13:50:56,24/2/2016,24,9,0.23,9,5.66,0,52
$GPRMC,135057.000,A,5130.2671,N,00000.2961,E,2.87,316.30,240216,,,A*6B,51.5044517517,0.0049350004,13:50:56,24/2/2016,24,0,1.77,27,5.66,0,52
$GPRMC,135058.000,A,5130.2677,N,00000.2951,E,2.85,308.84,240216,,,A*63,51.5044593811,0.0049182996,13:50:58,24/2/2016,24,0,1.44,18,5.66,0,52
$GPRMC,135059.000,A,5130.2683,N,00000.2942,E,3.04,321.04,240216,,,A*60,51.5044670104,0.0049033002,13:50:59,24/2/2016,24,0,0.07,4,5.66,0,52
$GPRMC,135100.000,A,5130.2690,N,00000.2932,E,3.22,323.39,240216,,,A*60,51.5044822692,0.0048866004,13:51:0,24/2/2016,24,1,0.10,4,5.66,0,52
$GPRMC,135101.000,A,5130.2696,N,00000.2923,E,2.93,321.47,240216,,,A*67,51.5044937133,0.0048716001,13:51:0,24/2/2016,24,0,0.31,9,5.66,0,52
$GPRMC,135102.000,A,5130.2702,N,00000.2914,E,2.90,318.71,240216,,,A*60,51.5045013427,0.0048566007,13:51:2,24/2/2016,26,6,0.35,10,5.66,0,52
$GPRMC,135103.000,A,5130.2708,N,00000.2906,E,2.73,311.37,240216,,,A*6E,51.5045166015,0.0048433003,13:51:3,24/2/2016,28,0,1.15,10,5.66,0,52
$GPRMC,135104.000,A,5130.2713,N,00000.2896,E,2.91,310.02,240216,,,A*60,51.5045242309,0.0048266000,13:51:4,24/2/2016,25,0,0.08,4,5.66,0,52
$GPRMC,135105.000,A,5130.2717,N,00000.2885,E,2.77,306.27,240216,,,A*6F,51.5045242309,0.0048083000,13:51:4,24/2/2016,25,2,0.24,8,5.66,0,52
$GPRMC,135106.000,A,5130.2722,N,00000.2875,E,2.78,308.77,240216,,,A*61,51.5045318603,0.0047916002,13:51:6,24/2/2016,24,0,0.39,7,5.66,0,52
$GPRMC,135107.000,A,5130.2727,N,00000.2865,E,2.76,304.56,240216,,,A*65,51.5045394897,0.0047750000,13:51:7,24/2/2016,24,0,0.17,6,5.66,0,52
$GPRMC,135108.000,A,5130.2732,N,00000.2854,E,2.79,305.40,240216,,,A*65,51.5045585632,0.0047565999,13:51:8,24/2/2016,24,0,0.20,8,5.66,0,52
$GPRMC,135109.000,A,5130.2736,N,00000.2844,E,2.78,302.33,240216,,,A*63,51.5045585632,0.0047400002,13:51:8,24/2/2016,24,0,0.16,6,5.66,0,52
$GPRMC,135110.000,A,5130.2741,N,00000.2833,E,2.83,304.13,240216,,,A*6B,51.5045661926,0.0047216000,13:51:10,24/2/2016,24,0,0.11,4,5.66,0,52
$GPRMC,135111.000,A,5130.2745,N,00000.2824,E,2.42,305.86,240216,,,A*68,51.5045738220,0.0047066001,13:51:11,24/2/2016,24,7,1.66,22,5.66,0,52
$GPRMC,135112.000,A,5130.2749,N,00000.2815,E,2.27,301.57,240216,,,A*6E,51.5045814514,0.0046916003,13:51:12,24/2/2016,23,1,0.40,9,5.66,0,52
$GPRMC,135113.000,A,5130.2752,N,00000.2805,E,2.42,299.76,240216,,,A*64,51.5045890808,0.0046750006,13:51:12,24/2/2016,23,1,4.50,34,5.66,0,52
$GPRMC,135114.000,A,5130.2756,N,00000.2795,E,2.54,307.61,240216,,,A*66,51.5045890808,0.0046582999,13:51:14,24/2/2016,23,0,1.12,10,5.66,0,52
$GPRMC,135115.000,A,5130.2760,N,00000.2785,E,2.44,301.71,240216,,,A*65,51.5045967102,0.0046416001,13:51:15,24/2/2016,23,0,0.33,9,5.66,0,52
$GPRMC,135116.000,A,5130.2764,N,00000.2774,E,2.52,301.27,240216,,,A*68,51.5046043395,0.0046233005,13:51:16,24/2/2016,23,0,0.64,10,5.66,0,52
$GPRMC,135117.000,A,5130.2768,N,00000.2763,E,2.55,304.60,240216,,,A*62,51.5046157836,0.0046050004,13:51:16,24/2/2016,23,0,0.07,3,5.66,0,52
$GPRMC,135118.000,A,5130.2772,N,00000.2753,E,2.73,305.63,240216,,,A*63,51.5046234130,0.0045882997,13:51:18,24/2/2016,24,0,1.98,16,5.66,0,52
$GPRMC,135119.000,A,5130.2776,N,00000.2743,E,2.59,306.32,240216,,,A*68,51.5046310424,0.0045716004,13:51:19,24/2/2016,23,0,0.76,26,5.66,0,52
$GPRMC,135120.000,A,5130.2780,N,00000.2733,E,2.70,301.77,240216,,,A*61,51.5046310424,0.0045550003,13:51:20,24/2/2016,24,1,0.68,10,5.66,0,52
$GPRMC,135121.000,A,5130.2784,N,00000.2724,E,2.58,305.39,240216,,,A*66,51.5046386718,0.0045400004,13:51:20,24/2/2016,23,2,1.28,14,5.66,0,52
$GPRMC,135122.000,A,5130.2788,N,00000.2715,E,2.76,306.65,240216,,,A*6D,51.5046463012,0.0045250000,13:51:22,24/2/2016,23,7,7.17,45,5.66,0,52
$GPRMC,135123.000,A,5130.2793,N,00000.2705,E,2.81,306.20,240216,,,A*6E,51.5046539306,0.0045083003,13:51:23,24/2/2016,24,8,3.99,33,5.18,0,52
$GPRMC,135124.000,A,5130.2798,N,00000.2695,E,2.79,308.71,240216,,,A*67,51.5046615600,0.0044916005,13:51:24,24/2/2016,24,13,5.59,28,5.66,0,52
$GPRMC,135125.000,A,5130.2803,N,00000.2685,E,2.88,304.67,240216,,,A*6F,51.5046730041,0.0044749999,13:51:24,24/2/2016,23,2,1.86,14,5.66,0,52
$GPRMC,135126.000,A,5130.2807,N,00000.2674,E,2.82,303.07,240216,,,A*6D,51.5046806335,0.0044566001,13:51:26,24/2/2016,24,0,0.22,8,5.66,0,52
$GPRMC,135127.000,A,5130.2811,N,00000.2664,E,2.78,303.43,240216,,,A*6F,51.5046882629,0.0044400005,13:51:27,24/2/2016,23,0,0.13,4,5.66,0,52
$GPRMC,135128.000,A,5130.2816,N,00000.2653,E,2.73,311.68,240216,,,A*62,51.5046958923,0.0044216003,13:51:28,24/2/2016,24,6,4.83,23,5.66,0,52
$GPRMC,135129.000,A,5130.2821,N,00000.2644,E,2.62,307.95,240216,,,A*64,51.5047035217,0.0044066004,13:51:28,24/2/2016,23,2,1.71,12,5.66,0,52
$GPRMC,135130.000,A,5130.2825,N,00000.2634,E,2.69,304.69,240216,,,A*64,51.5047111511,0.0043900008,13:51:30,24/2/2016,23,1,4.24,29,5.66,0,52
$GPRMC,135131.000,A,5130.2829,N,00000.2623,E,2.67,302.88,240216,,,A*68,51.5047111511,0.0043716001,13:51:31,24/2/2016,23,6,5.15,26,5.66,0,52
$GPRMC,135132.000,A,5130.2833,N,00000.2613,E,2.71,299.58,240216,,,A*6A,51.5047187805,0.0043550000,13:51:32,24/2/2016,24,1,1.23,15,5.66,0,52
$GPRMC,135133.000,A,5130.2837,N,00000.2603,E,2.60,299.26,240216,,,A*67,51.5047264099,0.0043383002,13:51:32,24/2/2016,24,4,1.98,22,5.66,0,52
$GPRMC,135134.000,A,5130.2842,N,00000.2593,E,2.72,309.53,240216,,,A*61,51.5047378540,0.0043215994,13:51:34,24/2/2016,24,0,3.59,22,5.66,0,52
$GPRMC,135135.000,A,5130.2847,N,00000.2583,E,2.82,309.02,240216,,,A*6F,51.5047454833,0.0043049998,13:51:35,24/2/2016,24,0,2.39,16,5.66,0,52
$GPRMC,135136.000,A,5130.2852,N,00000.2573,E,2.94,310.09,240216,,,A*63,51.5047531127,0.0042883005,13:51:36,24/2/2016,23,16,2.49,29,5.66,0,52
$GPRMC,135137.000,A,5130.2857,N,00000.2563,E,3.03,310.94,240216,,,A*6D,51.5047607421,0.0042715997,13:51:36,24/2/2016,23,9,3.22,32,5.66,0,52
$GPRMC,135138.000,A,5130.2862,N,00000.2552,E,2.82,299.01,240216,,,A*62,51.5047683715,0.0042532997,13:51:38,24/2/2016,23,2,1.31,17,5.66,0,52
$GPRMC,135139.000,A,5130.2866,N,00000.2541,E,2.81,299.31,240216,,,A*65,51.5047760009,0.0042349996,13:51:39,24/2/2016,23,6,1.96,16,5.66,0,52
$GPRMC,135140.000,A,5130.2869,N,00000.2529,E,2.80,297.12,240216,,,A*64,51.5047836303,0.0042150001,13:51:40,24/2/2016,23,1,2.09,22,5.66,0,52
$GPRMC,135141.000,A,5130.2873,N,00000.2517,E,2.85,302.43,240216,,,A*6F,51.5047836303,0.0041950001,13:51:40,24/2/2016,24,0,1.99,24,5.66,0,52
$GPRMC,135142.000,A,5130.2877,N,00000.2507,E,2.63,302.03,240216,,,A*65,51.5047950744,0.0041783003,13:51:42,24/2/2016,23,0,0.70,11,5.66,0,52
$GPRMC,135143.000,A,5130.2881,N,00000.2496,E,2.75,298.25,240216,,,A*65,51.5048027038,0.0041599998,13:51:43,24/2/2016,23,0,0.66,12,5.66,0,52
$GPRMC,135144.000,A,5130.2885,N,00000.2486,E,2.58,295.49,240216,,,A*6F,51.5048103332,0.0041433000,13:51:44,24/2/2016,23,0,0.82,9,5.66,0,52
$GPRMC,135145.000,A,5130.2888,N,00000.2476,E,2.45,295.08,240216,,,A*65,51.5048103332,0.0041266002,13:51:44,24/2/2016,24,0,0.31,11,5.66,0,52
$GPRMC,135146.000,A,5130.2890,N,00000.2465,E,2.67,287.64,240216,,,A*64,51.5048179626,0.0041083002,13:51:46,24/2/2016,23,0,0.08,4,5.66,0,52
$GPRMC,135147.000,A,5130.2893,N,00000.2454,E,2.95,288.21,240216,,,A*67,51.5048179626,0.0040900001,13:51:47,24/2/2016,22,1,0.48,8,5.66,0,52
$GPRMC,135148.000,A,5130.2895,N,00000.2442,E,2.75,286.42,240216,,,A*6C,51.5048255920,0.0040700001,13:51:48,24/2/2016,22,0,0.26,6,5.66,0,52
$GPRMC,135149.000,A,5130.2898,N,00000.2431,E,2.63,288.48,240216,,,A*67,51.5048332214,0.0040515999,13:51:48,24/2/2016,23,4,0.89,10,5.66,0,52
$GPRMC,135150.000,A,5130.2899,N,00000.2421,E,2.50,282.46,240216,,,A*6B,51.5048332214,0.0040350003,13:51:50,24/2/2016,23,0,0.32,7,5.66,0,52
$GPRMC,135151.000,A,5130.2901,N,00000.2409,E,3.15,285.97,240216,,,A*6B,51.5048332214,0.0040150003,13:51:51,24/2/2016,23,3,2.62,18,5.66,0,52
$GPRMC,135152.000,A,5130.2903,N,00000.2397,E,2.64,282.97,240216,,,A*6A,51.5048408508,0.0039949998,13:51:52,24/2/2016,23,1,3.46,27,5.66,0,52
$GPRMC,135153.000,A,5130.2904,N,00000.2386,E,2.69,283.73,240216,,,A*6A,51.5048408508,0.0039766001,13:51:52,24/2/2016,23,7,4.24,23,5.66,0,52
$GPRMC,135154.000,A,5130.2906,N,00000.2375,E,2.36,283.61,240216,,,A*6A,51.5048408508,0.0039583001,13:51:54,24/2/2016,23,5,2.05,19,5.66,0,52
$GPRMC,135155.000,A,5130.2907,N,00000.2364,E,2.79,284.69,240216,,,A*6E,51.5048408508,0.0039400005,13:51:55,24/2/2016,22,1,2.92,24,5.66,0,52
$GPRMC,135156.000,A,5130.2909,N,00000.2353,E,2.51,285.88,240216,,,A*63,51.5048484802,0.0039215998,13:51:56,24/2/2016,22,6,5.49,37,5.66,0,52
$GPRMC,135157.000,A,5130.2910,N,00000.2343,E,2.54,282.76,240216,,,A*68,51.5048484802,0.0039049997,13:51:56,24/2/2016,23,1,3.12,26,5.66,0,52
$GPRMC,135158.000,A,5130.2911,N,00000.2332,E,2.62,280.53,240216,,,A*60,51.5048484802,0.0038865997,13:51:58,24/2/2016,22,16,1.76,30,5.66,0,52
$GPRMC,135159.000,A,5130.2912,N,00000.2321,E,2.69,287.15,240216,,,A*6E,51.5048484802,0.0038682999,13:51:59,24/2/2016,22,3,4.32,22,5.66,0,52
$GPRMC,135200.000,A,5130.2914,N,00000.2310,E,2.60,282.19,240216,,,A*65,51.5048599243,0.0038500003,13:52:0,24/2/2016,22,0,4.92,39,5.66,0,52
$GPRMC,135201.000,A,5130.2915,N,00000.2299,E,2.74,278.02,240216,,,A*6F,51.5048599243,0.0038315999,13:52:0,24/2/2016,23,4,1.85,16,5.66,0,52
$GPRMC,135202.000,A,5130.2917,N,00000.2287,E,2.70,286.77,240216,,,A*66,51.5048599243,0.0038116002,13:52:2,24/2/2016,23,0,0.33,6,5.66,0,52
$GPRMC,135203.000,A,5130.2919,N,00000.2276,E,2.64,287.15,240216,,,A*67,51.5048675537,0.0037932996,13:52:3,24/2/2016,22,0,1.57,20,5.66,0,52
$GPRMC,135204.000,A,5130.2921,N,00000.2265,E,2.58,283.56,240216,,,A*65,51.5048675537,0.0037750003,13:52:4,24/2/2016,22,0,3.79,25,5.66,0,52
$GPRMC,135205.000,A,5130.2923,N,00000.2253,E,2.75,281.39,240216,,,A*67,51.5048751831,0.0037550001,13:52:4,24/2/2016,22,0,1.06,28,5.66,0,52
$GPRMC,135206.000,A,5130.2924,N,00000.2242,E,2.79,284.12,240216,,,A*63,51.5048751831,0.0037365999,13:52:6,24/2/2016,22,6,8.04,55,5.66,0,52
$GPRMC,135207.000,A,5130.2926,N,00000.2230,E,2.72,284.83,240216,,,A*66,51.5048751831,0.0037165999,13:52:7,24/2/2016,22,0,3.17,31,5.66,0,52
$GPRMC,135208.000,A,5130.2927,N,00000.2219,E,2.68,281.54,240216,,,A*67,51.5048751831,0.0036983001,13:52:8,24/2/2016,22,1,4.31,30,5.66,0,52
$GPRMC,135209.000,A,5130.2929,N,00000.2207,E,2.75,284.35,240216,,,A*69,51.5048828125,0.0036783003,13:52:8,24/2/2016,22,0,0.99,19,5.66,0,52
$GPRMC,135210.000,A,5130.2930,N,00000.2195,E,2.63,281.43,240216,,,A*62,51.5048828125,0.0036582999,13:52:10,24/2/2016,22,0,1.90,27,5.66,0,52
$GPRMC,135211.000,A,5130.2931,N,00000.2184,E,2.64,281.01,240216,,,A*63,51.5048828125,0.0036400003,13:52:11,24/2/2016,22,0,1.11,22,5.66,0,52
$GPRMC,135212.000,A,5130.2932,N,00000.2173,E,2.28,283.95,240216,,,A*6C,51.5048828125,0.0036216001,13:52:12,24/2/2016,23,4,0.65,20,5.66,0,52
$GPRMC,135213.000,A,5130.2935,N,00000.2172,E,2.93,41.41,240216,,,A*5E,51.5048904418,0.0036200001,13:52:12,24/2/2016,23,29,7.52,57,5.66,0,52
