$GPRMC,123515.000,A,5130.1413,N,00000.3493,E,1.06,351.86,220616,,,A*6D,51.5023536682,0.0058215999,12:35:15,22/6/2016,15,10,16.47,322,24.22,513.95,0,0
$GPRMC,123516.000,A,5130.1408,N,00000.3499,E,0.93,359.93,220616,,,A*6F,51.5023422241,0.0058315997,12:35:16,22/6/2016,15,7,15.92,317,24.71,513.93,0,0
$GPRMC,123517.000,A,5130.1411,N,00000.3499,E,0.91,358.40,220616,,,A*6B,51.5023536682,0.0058315997,12:35:17,22/6/2016,16,3,15.94,284,24.71,514.64,0,0
$GPRMC,123518.000,A,5130.1415,N,00000.3498,E,0.91,354.32,220616,,,A*68,51.5023612976,0.0058300008,12:35:18,22/6/2016,16,10,15.48,323,24.22,514.14,0,0
$GPRMC,123519.000,A,5130.1418,N,00000.3495,E,0.98,348.82,220616,,,A*66,51.5023612976,0.0058249998,12:35:19,22/6/2016,15,14,16.85,310,24.71,514.44,0,0
$GPRMC,123520.000,A,5130.1420,N,00000.3494,E,1.00,346.83,220616,,,A*69,51.5023689270,0.0058232998,12:35:20,22/6/2016,14,13,17.18,318,24.71,515.02,0,0
$GPRMC,123521.000,A,5130.1423,N,00000.3495,E,1.08,346.83,220616,,,A*62,51.5023689270,0.0058249998,12:35:21,22/6/2016,15,16,21.59,292,24.22,514.65,0,0
$GPRMC,123522.000,A,5130.1421,N,00000.3496,E,1.02,349.68,220616,,,A*60,51.5023689270,0.0058266000,12:35:22,22/6/2016,15,3,20.89,340,25.20,512.48,0,0
$GPRMC,123523.000,A,5130.1427,N,00000.3497,E,1.10,353.60,220616,,,A*66,51.5023765563,0.0058282999,12:35:23,22/6/2016,14,9,16.73,329,25.20,515.62,0,0
$GPRMC,123524.000,A,5130.1422,N,00000.3496,E,1.11,354.12,220616,,,A*66,51.5023689270,0.0058266000,12:35:24,22/6/2016,14,7,14.74,292,24.22,532.00,1,1
$GPRMC,123525.000,A,5130.1409,N,00000.3495,E,0.81,357.34,220616,,,A*62,51.5023536682,0.0058249998,12:35:25,22/6/2016,14,15,15.66,332,24.71,513.28,0,1
$GPRMC,123526.000,A,5130.1394,N,00000.3491,E,0.58,351.46,220616,,,A*61,51.5023193359,0.0058183002,12:35:26,22/6/2016,14,11,17.32,327,24.71,514.47,0,1
$GPRMC,123527.000,A,5130.1379,N,00000.3489,E,0.44,353.36,220616,,,A*62,51.5022964477,0.0058150000,12:35:27,22/6/2016,14,4,16.13,315,24.22,514.37,0,1
$GPRMC,123528.000,A,5130.1367,N,00000.3486,E,0.29,337.05,220616,,,A*64,51.5022773742,0.0058099994,12:35:28,22/6/2016,14,12,16.80,287,24.71,514.37,0,1
$GPRMC,123529.000,A,5130.1365,N,00000.3483,E,0.26,298.59,220616,,,A*60,51.5022773742,0.0058050003,12:35:29,22/6/2016,14,14,18.73,390,24.71,517.28,0,1
$GPRMC,123530.000,A,5130.1369,N,00000.3481,E,0.25,276.33,220616,,,A*69,51.5022773742,0.0058016004,12:35:30,22/6/2016,14,36,18.77,383,24.71,515.74,0,1
$GPRMC,123531.000,A,5130.1370,N,00000.3481,E,0.23,259.53,220616,,,A*6D,51.5022850036,0.0058016004,12:35:31,22/6/2016,14,3,16.14,295,24.22,514.25,0,1
$GPRMC,123532.000,A,5130.1369,N,00000.3480,E,0.25,240.94,220616,,,A*62,51.5022773742,0.0058000001,12:35:32,22/6/2016,14,4,16.10,325,24.71,514.16,0,1
$GPRMC,123533.000,A,5130.1365,N,00000.3480,E,0.22,235.00,220616,,,A*67,51.5022773742,0.0058000001,12:35:33,22/6/2016,15,27,16.39,322,24.71,515.11,0,1
$GPRMC,123534.000,A,5130.1361,N,00000.3476,E,0.33,244.80,220616,,,A*63,51.5022697448,0.0057933001,12:35:34,22/6/2016,15,5,17.25,285,25.20,513.80,0,1
$GPRMC,123535.000,A,5130.1357,N,00000.3474,E,0.26,241.60,220616,,,A*6A,51.5022621154,0.0057900004,12:35:35,22/6/2016,15,14,17.01,351,24.71,516.07,0,1
$GPRMC,123536.000,A,5130.1356,N,00000.3474,E,0.18,243.36,220616,,,A*64,51.5022621154,0.0057900004,12:35:36,22/6/2016,15,14,16.16,322,24.71,515.15,0,1
$GPRMC,123537.000,A,5130.1358,N,00000.3472,E,0.18,263.86,220616,,,A*64,51.5022621154,0.0057866001,12:35:37,22/6/2016,16,9,14.84,327,24.71,515.58,0,1
$GPRMC,123538.000,A,5130.1363,N,00000.3469,E,0.31,311.20,220616,,,A*6A,51.5022697448,0.0057816004,12:35:38,22/6/2016,15,6,17.32,296,24.22,512.92,0,1
$GPRMC,123539.000,A,5130.1368,N,00000.3470,E,0.46,351.99,220616,,,A*6E,51.5022773742,0.0057833003,12:35:39,22/6/2016,15,11,14.53,313,24.71,514.84,0,1
$GPRMC,123540.000,A,5130.1366,N,00000.3477,E,0.61,36.00,220616,,,A*5E,51.5022773742,0.0057950000,12:35:40,22/6/2016,14,98,14.89,320,25.20,513.12,0,1
$GPRMC,123541.000,A,5130.1369,N,00000.3479,E,0.75,40.10,220616,,,A*5B,51.5022773742,0.0057983007,12:35:41,22/6/2016,14,2,16.01,295,24.71,514.67,0,1
$GPRMC,123542.000,A,5130.1378,N,00000.3478,E,0.87,36.17,220616,,,A*52,51.5022964477,0.0057966003,12:35:42,22/6/2016,13,10,15.92,318,24.71,514.47,0,1
$GPRMC,123543.000,A,5130.1384,N,00000.3476,E,0.95,24.81,220616,,,A*51,51.5023040771,0.0057933001,12:35:43,22/6/2016,13,15,15.99,322,24.71,515.61,0,1
$GPRMC,123544.000,A,5130.1388,N,00000.3475,E,1.05,19.04,220616,,,A*52,51.5023117065,0.0057915997,12:35:44,22/6/2016,14,12,17.30,321,25.20,513.86,0,1
$GPRMC,123545.000,A,5130.1393,N,00000.3475,E,1.12,14.61,220616,,,A*51,51.5023193359,0.0057915997,12:35:45,22/6/2016,15,27,22.05,393,24.71,518.54,0,1
$GPRMC,123546.000,A,5130.1398,N,00000.3475,E,1.19,11.31,220616,,,A*52,51.5023269653,0.0057915997,12:35:46,22/6/2016,14,13,18.29,319,24.71,514.61,0,1
$GPRMC,123547.000,A,5130.1404,N,00000.3478,E,1.29,14.05,220616,,,A*5D,51.5023422241,0.0057966003,12:35:47,22/6/2016,14,9,17.54,319,24.71,514.28,0,1
$GPRMC,123548.000,A,5130.1411,N,00000.3483,E,1.45,19.39,220616,,,A*5A,51.5023536682,0.0058050003,12:35:48,22/6/2016,14,18,17.12,295,24.71,515.81,0,1
$GPRMC,123549.000,A,5130.1419,N,00000.3488,E,1.56,22.23,220616,,,A*59,51.5023689270,0.0058133001,12:35:49,22/6/2016,14,14,16.45,313,25.20,512.12,0,1
$GPRMC,123550.000,A,5130.1426,N,00000.3493,E,1.65,24.79,220616,,,A*5E,51.5023765563,0.0058215999,12:35:50,22/6/2016,15,25,16.64,329,24.71,515.48,0,1
$GPRMC,123551.000,A,5130.1435,N,00000.3497,E,1.75,24.47,220616,,,A*55,51.5023918151,0.0058282999,12:35:51,22/6/2016,15,11,17.14,312,24.71,512.87,0,1
$GPRMC,123552.000,A,5130.1446,N,00000.3503,E,1.90,26.09,220616,,,A*5D,51.5024070739,0.0058382997,12:35:52,22/6/2016,14,16,16.70,288,25.20,514.07,0,1
$GPRMC,123553.000,A,5130.1459,N,00000.3505,E,2.00,20.98,220616,,,A*50,51.5024337768,0.0058416004,12:35:53,22/6/2016,15,38,19.43,318,25.20,515.30,0,1
$GPRMC,123554.000,A,5130.1467,N,00000.3505,E,2.04,16.46,220616,,,A*58,51.5024414062,0.0058416004,12:35:54,22/6/2016,14,13,15.59,331,25.20,515.00,0,1
$GPRMC,123555.000,A,5130.1476,N,00000.3507,E,2.10,14.19,220616,,,A*56,51.5024566650,0.0058450007,12:35:55,22/6/2016,14,19,17.30,296,24.71,514.04,0,1
$GPRMC,123556.000,A,5130.1481,N,00000.3510,E,2.03,12.59,220616,,,A*5B,51.5024642944,0.0058500003,12:35:56,22/6/2016,14,10,17.76,311,25.20,512.98,0,1
$GPRMC,123557.000,A,5130.1487,N,00000.3515,E,2.01,16.90,220616,,,A*5A,51.5024833679,0.0058583002,12:35:57,22/6/2016,14,21,18.55,317,25.20,516.30,0,1
$GPRMC,123558.000,A,5130.1493,N,00000.3517,E,2.01,17.63,220616,,,A*5F,51.5024909973,0.0058616008,12:35:58,22/6/2016,14,7,17.18,294,24.71,515.12,0,1
$GPRMC,123559.000,A,5130.1507,N,00000.3518,E,2.13,14.43,220616,,,A*5F,51.5025138854,0.0058632998,12:35:59,22/6/2016,14,15,18.82,327,24.71,513.87,0,1
$GPRMC,123600.000,A,5130.1515,N,00000.3525,E,2.18,17.00,220616,,,A*52,51.5025215148,0.0058750004,12:36:0,22/6/2016,14,14,19.13,334,24.71,516.97,0,1
$GPRMC,123601.000,A,5130.1525,N,00000.3528,E,2.23,16.29,220616,,,A*5F,51.5025405883,0.0058800001,12:36:1,22/6/2016,14,15,17.57,329,25.20,513.34,0,1
$GPRMC,123602.000,A,5130.1515,N,00000.3532,E,2.26,14.71,220616,,,A*5E,51.5025215148,0.0058866000,12:36:2,22/6/2016,14,13,18.89,292,26.17,514.07,0,1
$GPRMC,123603.000,A,5130.1523,N,00000.3538,E,2.38,12.87,220616,,,A*50,51.5025405883,0.0058965997,12:36:3,22/6/2016,14,36,41.19,306,25.68,519.67,0,1
$GPRMC,123604.000,A,5130.1535,N,00000.3542,E,3.29,1.57,220616,,,A*63,51.5025558471,0.0059033002,12:36:4,22/6/2016,14,55,41.54,332,26.17,514.16,0,1
$GPRMC,123605.000,A,5130.1550,N,00000.3543,E,4.49,351.70,220616,,,A*62,51.5025787353,0.0059050006,12:36:5,22/6/2016,14,47,46.13,297,26.66,514.69,0,1
$GPRMC,123606.000,A,5130.1565,N,00000.3550,E,4.86,4.98,220616,,,A*63,51.5026130676,0.0059166007,12:36:6,22/6/2016,14,33,33.54,317,25.68,519.41,0,1
$GPRMC,123607.000,A,5130.1572,N,00000.3551,E,3.81,10.64,220616,,,A*53,51.5026206970,0.0059183001,12:36:7,22/6/2016,14,42,40.51,313,26.17,515.52,0,1
$GPRMC,123608.000,A,5130.1578,N,00000.3553,E,2.97,10.12,220616,,,A*53,51.5026283264,0.0059216003,12:36:8,22/6/2016,14,38,38.99,294,26.17,514.59,0,1
$GPRMC,123609.000,A,5130.1581,N,00000.3555,E,2.39,14.22,220616,,,A*51,51.5026359558,0.0059250001,12:36:9,22/6/2016,14,40,35.33,296,26.17,516.33,0,1
$GPRMC,123610.000,A,5130.1586,N,00000.3556,E,2.28,356.78,220616,,,A*67,51.5026435852,0.0059265999,12:36:10,22/6/2016,14,45,39.79,352,26.17,514.56,0,1
$GPRMC,123611.000,A,5130.1589,N,00000.3556,E,1.71,7.01,220616,,,A*6F,51.5026435852,0.0059265999,12:36:11,22/6/2016,14,37,36.30,347,26.17,515.72,0,1
$GPRMC,123612.000,A,5130.1589,N,00000.3555,E,1.11,2.50,220616,,,A*68,51.5026435852,0.0059250001,12:36:12,22/6/2016,14,42,39.13,301,25.68,515.79,0,1
$GPRMC,123613.000,A,5130.1588,N,00000.3555,E,0.37,30.56,220616,,,A*5A,51.5026435852,0.0059250001,12:36:13,22/6/2016,14,37,35.77,331,26.17,516.26,0,1
$GPRMC,123614.000,A,5130.1594,N,00000.3557,E,1.10,337.32,220616,,,A*60,51.5026512145,0.0059283008,12:36:14,22/6/2016,14,50,34.02,336,26.17,518.01,0,1
$GPRMC,123615.000,A,5130.1597,N,00000.3555,E,0.78,26.56,220616,,,A*5E,51.5026626586,0.0059250001,12:36:15,22/6/2016,14,53,39.94,294,25.68,516.96,0,1
$GPRMC,123616.000,A,5130.1599,N,00000.3557,E,0.79,19.38,220616,,,A*54,51.5026626586,0.0059283008,12:36:16,22/6/2016,14,45,39.04,300,26.17,512.79,0,1
$GPRMC,123617.000,A,5130.1601,N,00000.3558,E,1.38,346.35,220616,,,A*68,51.5026702880,0.0059299998,12:36:17,22/6/2016,14,31,36.05,321,26.17,514.96,0,1
$GPRMC,123618.000,A,5130.1605,N,00000.3557,E,1.14,0.36,220616,,,A*60,51.5026779174,0.0059283008,12:36:18,22/6/2016,14,38,38.75,328,26.17,516.92,0,1
$GPRMC,123619.000,A,5130.1608,N,00000.3557,E,1.23,19.69,220616,,,A*5A,51.5026779174,0.0059283008,12:36:19,22/6/2016,14,43,36.79,312,25.68,515.29,0,1
$GPRMC,123620.000,A,5130.1611,N,00000.3558,E,1.50,17.26,220616,,,A*56,51.5026855468,0.0059299998,12:36:20,22/6/2016,14,41,39.49,348,26.17,514.57,0,1
$GPRMC,123621.000,A,5130.1615,N,00000.3560,E,1.81,14.16,220616,,,A*54,51.5026931762,0.0059333000,12:36:21,22/6/2016,14,41,50.10,344,26.17,513.34,0,1
$GPRMC,123622.000,A,5130.1620,N,00000.3562,E,1.64,5.22,220616,,,A*6F,51.5027008056,0.0059365997,12:36:22,22/6/2016,14,27,39.43,348,26.17,516.82,0,1
$GPRMC,123623.000,A,5130.1625,N,00000.3563,E,1.28,342.96,220616,,,A*6D,51.5027084350,0.0059383001,12:36:23,22/6/2016,14,40,37.07,274,25.68,517.66,0,1
$GPRMC,123624.000,A,5130.1628,N,00000.3561,E,1.03,20.59,220616,,,A*58,51.5027084350,0.0059350004,12:36:24,22/6/2016,14,39,38.58,342,26.17,513.01,0,1
$GPRMC,123625.000,A,5130.1631,N,00000.3563,E,1.66,337.88,220616,,,A*69,51.5027198791,0.0059383001,12:36:25,22/6/2016,14,53,41.43,452,26.66,516.48,0,1
$GPRMC,123626.000,A,5130.1635,N,00000.3560,E,1.82,339.62,220616,,,A*6D,51.5027275085,0.0059333000,12:36:26,22/6/2016,14,44,38.97,362,26.17,517.55,0,1
$GPRMC,123627.000,A,5130.1640,N,00000.3558,E,2.27,347.99,220616,,,A*64,51.5027351379,0.0059299998,12:36:27,22/6/2016,14,35,39.31,331,26.17,518.91,0,1
$GPRMC,123628.000,A,5130.1648,N,00000.3559,E,2.43,6.02,220616,,,A*64,51.5027503967,0.0059316005,12:36:28,22/6/2016,14,28,37.69,349,26.66,514.49,0,1
$GPRMC,123629.000,A,5130.1658,N,00000.3561,E,2.65,1.05,220616,,,A*6B,51.5027656555,0.0059350004,12:36:29,22/6/2016,14,43,39.98,312,26.66,512.78,0,1
$GPRMC,123630.000,A,5130.1663,N,00000.3559,E,2.28,0.56,220616,,,A*6E,51.5027732849,0.0059316005,12:36:30,22/6/2016,14,45,38.42,334,26.17,518.00,0,1
$GPRMC,123631.000,A,5130.1668,N,00000.3560,E,1.85,11.81,220616,,,A*50,51.5027847290,0.0059333000,12:36:31,22/6/2016,14,44,37.52,338,26.17,516.31,0,1
$GPRMC,123632.000,A,5130.1674,N,00000.3563,E,1.49,14.74,220616,,,A*52,51.5027923583,0.0059383001,12:36:32,22/6/2016,14,28,36.22,338,26.17,514.45,0,1
$GPRMC,123633.000,A,5130.1682,N,00000.3562,E,1.66,346.21,220616,,,A*62,51.5027999877,0.0059365997,12:36:33,22/6/2016,14,41,41.23,278,26.17,520.92,0,1
$GPRMC,123634.000,A,5130.1690,N,00000.3560,E,1.74,340.66,220616,,,A*62,51.5028152465,0.0059333000,12:36:34,22/6/2016,14,37,39.55,334,26.17,516.80,0,1
$GPRMC,123635.000,A,5130.1697,N,00000.3561,E,1.32,353.82,220616,,,A*6F,51.5028305053,0.0059350004,12:36:35,22/6/2016,14,44,37.54,327,26.66,512.89,0,1
$GPRMC,123636.000,A,5130.1698,N,00000.3563,E,1.06,38.56,220616,,,A*51,51.5028305053,0.0059383001,12:36:36,22/6/2016,14,35,42.65,318,26.66,517.97,2,3
$GPRMC,123637.000,A,5130.1702,N,00000.3567,E,1.41,66.54,220616,,,A*5C,51.5028419494,0.0059450001,12:36:37,22/6/2016,13,29,40.22,361,26.66,516.53,1,4
$GPRMC,123638.000,A,5130.1704,N,00000.3573,E,1.73,77.86,220616,,,A*5E,51.5028419494,0.0059549999,12:36:38,22/6/2016,13,62,38.59,341,26.17,517.58,0,4
$GPRMC,123639.000,A,5130.1705,N,00000.3581,E,1.81,84.46,220616,,,A*5E,51.5028419494,0.0059682998,12:36:39,22/6/2016,14,48,41.31,351,26.17,515.98,0,4
$GPRMC,123640.000,A,5130.1708,N,00000.3586,E,0.93,71.19,220616,,,A*58,51.5028495788,0.0059766006,12:36:40,22/6/2016,13,37,38.94,302,26.66,516.28,0,4
$GPRMC,123641.000,A,5130.1710,N,00000.3591,E,1.05,80.40,220616,,,A*5A,51.5028495788,0.0059850001,12:36:41,22/6/2016,14,41,40.71,352,25.68,515.85,0,4
$GPRMC,123642.000,A,5130.1713,N,00000.3594,E,0.53,62.28,220616,,,A*5F,51.5028572082,0.0059899997,12:36:42,22/6/2016,15,42,40.99,336,26.17,512.73,0,4
$GPRMC,123643.000,A,5130.1713,N,00000.3600,E,1.00,105.90,220616,,,A*64,51.5028572082,0.0060000000,12:36:43,22/6/2016,15,39,40.04,282,26.66,516.30,0,4
$GPRMC,123644.000,A,5130.1776,N,00000.3625,E,1.68,135.87,220616,,,A*6C,51.5029640197,0.0060416007,12:36:44,22/6/2016,16,36,40.76,332,27.15,513.10,0,4
$GPRMC,123645.000,A,5130.1775,N,00000.3632,E,1.98,143.69,220616,,,A*66,51.5029640197,0.0060532999,12:36:45,22/6/2016,15,47,45.13,337,26.66,515.54,0,4
$GPRMC,123646.000,A,5130.1768,N,00000.3637,E,2.15,154.27,220616,,,A*66,51.5029449462,0.0060616006,12:36:46,22/6/2016,16,51,45.58,306,26.66,513.30,1,5
$GPRMC,123647.000,A,5130.1796,N,00000.3652,E,2.33,149.42,220616,,,A*6E,51.5029945373,0.0060866003,12:36:47,22/6/2016,16,35,40.94,294,26.66,517.63,0,5
$GPRMC,123648.000,A,5130.1829,N,00000.3671,E,2.88,156.07,220616,,,A*64,51.5030517578,0.0061182999,12:36:48,22/6/2016,16,33,42.98,325,26.66,515.66,0,5
$GPRMC,123649.000,A,5130.1820,N,00000.3678,E,3.34,156.41,220616,,,A*61,51.5030364990,0.0061300001,12:36:49,22/6/2016,15,51,37.68,297,26.66,514.12,0,5
$GPRMC,123650.000,A,5130.1811,N,00000.3686,E,3.54,155.80,220616,,,A*62,51.5030174255,0.0061433005,12:36:50,22/6/2016,13,26,39.57,309,26.66,514.61,0,5
$GPRMC,123651.000,A,5130.1802,N,00000.3694,E,3.41,155.68,220616,,,A*60,51.5030021667,0.0061565999,12:36:51,22/6/2016,14,31,37.65,370,26.17,514.29,0,5
$GPRMC,123652.000,A,5130.1786,N,00000.3704,E,3.84,162.51,220616,,,A*6F,51.5029792785,0.0061733002,12:36:52,22/6/2016,14,32,42.90,336,26.66,516.84,0,5
$GPRMC,123653.000,A,5130.1781,N,00000.3712,E,3.26,147.08,220616,,,A*6D,51.5029716491,0.0061865997,12:36:53,22/6/2016,14,44,43.09,314,26.17,516.21,0,5
$GPRMC,123654.000,A,5130.1778,N,00000.3719,E,2.40,128.39,220616,,,A*6D,51.5029640197,0.0061983003,12:36:54,22/6/2016,14,47,40.21,337,26.17,516.57,0,5
$GPRMC,123655.000,A,5130.1775,N,00000.3728,E,1.94,106.25,220616,,,A*68,51.5029640197,0.0062133002,12:36:55,22/6/2016,14,28,38.61,268,26.66,516.59,0,5
$GPRMC,123656.000,A,5130.1770,N,00000.3738,E,1.83,110.53,220616,,,A*6F,51.5029449462,0.0062300004,12:36:56,22/6/2016,15,41,41.89,317,26.17,515.47,0,5
$GPRMC,123657.000,A,5130.1784,N,00000.3756,E,2.10,129.59,220616,,,A*64,51.5029716491,0.0062600002,12:36:57,22/6/2016,14,35,42.03,308,26.66,514.37,0,5
$GPRMC,123658.000,A,5130.1820,N,00000.3779,E,2.61,147.15,220616,,,A*61,51.5030364990,0.0062983007,12:36:58,22/6/2016,14,42,30.78,295,26.66,516.72,0,5
$GPRMC,123659.000,A,5130.1825,N,00000.3794,E,2.80,133.38,220616,,,A*65,51.5030441284,0.0063233003,12:36:59,22/6/2016,15,41,37.28,316,26.17,515.73,0,5
$GPRMC,123700.000,A,5130.1824,N,00000.3806,E,2.40,132.15,220616,,,A*6F,51.5030441284,0.0063432998,12:37:0,22/6/2016,15,47,38.61,322,26.17,514.27,0,5
$GPRMC,123701.000,A,5130.1825,N,00000.3819,E,1.92,111.26,220616,,,A*6C,51.5030441284,0.0063650007,12:37:1,22/6/2016,15,49,36.86,316,26.17,514.55,0,5
$GPRMC,123702.000,A,5130.1825,N,00000.3828,E,1.37,108.77,220616,,,A*6E,51.5030441284,0.0063800001,12:37:2,22/6/2016,15,34,38.81,325,26.66,514.57,0,5
$GPRMC,123703.000,A,5130.1825,N,00000.3833,E,1.13,82.62,220616,,,A*54,51.5030441284,0.0063882999,12:37:3,22/6/2016,15,39,37.53,348,26.66,514.95,0,5
$GPRMC,123704.000,A,5130.1827,N,00000.3840,E,1.35,70.84,220616,,,A*54,51.5030441284,0.0063999996,12:37:4,22/6/2016,15,43,39.50,306,26.66,513.88,0,5
$GPRMC,123705.000,A,5130.1825,N,00000.3848,E,1.06,39.07,220616,,,A*59,51.5030441284,0.0064133000,12:37:5,22/6/2016,15,50,37.24,346,26.17,517.18,0,5
$GPRMC,123706.000,A,5130.1824,N,00000.3855,E,1.39,69.52,220616,,,A*5E,51.5030441284,0.0064249997,12:37:6,22/6/2016,15,35,40.69,342,26.66,515.06,0,5
$GPRMC,123707.000,A,5130.1824,N,00000.3864,E,1.56,77.89,220616,,,A*5D,51.5030441284,0.0064400005,12:37:7,22/6/2016,15,26,38.29,304,26.66,513.21,0,5
$GPRMC,123708.000,A,5130.1824,N,00000.3877,E,2.43,87.15,220616,,,A*5D,51.5030441284,0.0064616003,12:37:8,22/6/2016,15,58,37.48,326,26.66,519.05,0,5
$GPRMC,123709.000,A,5130.1822,N,00000.3887,E,1.66,88.61,220616,,,A*5D,51.5030364990,0.0064783005,12:37:9,22/6/2016,15,37,38.68,338,26.66,517.52,0,5
$GPRMC,123710.000,A,5130.1820,N,00000.3895,E,1.44,92.81,220616,,,A*51,51.5030364990,0.0064916009,12:37:10,22/6/2016,16,24,42.74,335,27.15,517.36,0,5
$GPRMC,123711.000,A,5130.1818,N,00000.3903,E,1.72,96.51,220616,,,A*59,51.5030288696,0.0065050001,12:37:11,22/6/2016,16,21,33.50,321,26.66,510.84,0,5
$GPRMC,123712.000,A,5130.1815,N,00000.3911,E,1.61,102.42,220616,,,A*68,51.5030288696,0.0065182995,12:37:12,22/6/2016,15,35,39.00,325,26.66,517.31,0,5
$GPRMC,123713.000,A,5130.1812,N,00000.3918,E,1.62,109.90,220616,,,A*60,51.5030174255,0.0065299997,12:37:13,22/6/2016,15,48,37.52,337,27.15,515.42,0,5
$GPRMC,123714.000,A,5130.1810,N,00000.3926,E,1.92,105.44,220616,,,A*62,51.5030174255,0.0065433001,12:37:14,22/6/2016,14,42,41.71,304,27.15,458.57,1,6
$GPRMC,123715.000,A,5130.1807,N,00000.3936,E,1.97,108.54,220616,,,A*6D,51.5030097961,0.0065600004,12:37:15,22/6/2016,15,45,40.71,333,27.15,514.23,0,6
$GPRMC,123716.000,A,5130.1803,N,00000.3945,E,1.98,114.34,220616,,,A*6A,51.5030021667,0.0065750002,12:37:16,22/6/2016,15,38,43.23,325,26.66,518.74,0,6
$GPRMC,123717.000,A,5130.1797,N,00000.3953,E,2.00,124.08,220616,,,A*60,51.5029945373,0.0065883007,12:37:17,22/6/2016,15,44,41.94,312,26.66,514.65,0,6
$GPRMC,123718.000,A,5130.1794,N,00000.3960,E,1.88,124.79,220616,,,A*69,51.5029869079,0.0066000008,12:37:18,22/6/2016,15,30,38.69,321,27.15,512.13,0,6
$GPRMC,123719.000,A,5130.1794,N,00000.3966,E,2.00,114.94,220616,,,A*6D,51.5029869079,0.0066100001,12:37:19,22/6/2016,14,36,42.09,332,26.66,514.74,0,6
$GPRMC,123720.000,A,5130.1792,N,00000.3972,E,2.07,115.10,220616,,,A*6E,51.5029869079,0.0066200008,12:37:20,22/6/2016,14,40,39.69,356,26.66,516.69,0,6
$GPRMC,123721.000,A,5130.1788,N,00000.3978,E,2.20,114.77,220616,,,A*6B,51.5029792785,0.0066300005,12:37:21,22/6/2016,15,43,37.38,403,27.64,517.61,0,6
$GPRMC,123722.000,A,5130.1788,N,00000.3985,E,1.82,113.97,220616,,,A*68,51.5029792785,0.0066415996,12:37:22,22/6/2016,15,27,39.33,357,27.15,514.33,0,6
$GPRMC,123723.000,A,5130.1784,N,00000.3994,E,2.40,113.08,220616,,,A*6E,51.5029716491,0.0066565999,12:37:23,22/6/2016,15,34,37.76,342,26.66,516.01,0,6
$GPRMC,123724.000,A,5130.1791,N,00000.4001,E,1.51,103.00,220616,,,A*65,51.5029869079,0.0066683001,12:37:24,22/6/2016,14,36,44.59,309,26.66,518.21,0,6
$GPRMC,123725.000,A,5130.1786,N,00000.4008,E,1.91,107.89,220616,,,A*62,51.5029792785,0.0066799998,12:37:25,22/6/2016,14,32,39.61,342,27.15,512.88,0,6
$GPRMC,123726.000,A,5130.1795,N,00000.4013,E,1.31,91.29,220616,,,A*57,51.5029945373,0.0066882996,12:37:26,22/6/2016,14,35,43.33,401,27.15,517.45,0,6
$GPRMC,123727.000,A,5130.1816,N,00000.4017,E,1.45,46.09,220616,,,A*5D,51.5030288696,0.0066950011,12:37:27,22/6/2016,14,40,43.72,339,27.15,518.76,0,6
$GPRMC,123728.000,A,5130.1815,N,00000.4018,E,1.41,47.22,220616,,,A*52,51.5030288696,0.0066965999,12:37:28,22/6/2016,14,49,41.59,299,27.64,515.87,0,6
$GPRMC,123729.000,A,5130.1824,N,00000.4026,E,2.08,54.52,220616,,,A*57,51.5030441284,0.0067100000,12:37:29,22/6/2016,15,34,42.48,329,27.64,516.24,0,6
$GPRMC,123730.000,A,5130.1833,N,00000.4035,E,2.29,52.98,220616,,,A*58,51.5030517578,0.0067250003,12:37:30,22/6/2016,14,41,39.98,314,26.66,514.87,0,6
$GPRMC,123731.000,A,5130.1853,N,00000.4049,E,3.15,49.63,220616,,,A*54,51.5030860900,0.0067483005,12:37:31,22/6/2016,15,38,40.52,295,26.66,514.03,0,6
$GPRMC,123732.000,A,5130.1865,N,00000.4062,E,3.38,48.51,220616,,,A*54,51.5031089782,0.0067700004,12:37:32,22/6/2016,15,46,42.71,313,27.15,515.88,0,6
$GPRMC,123733.000,A,5130.1876,N,00000.4072,E,3.05,39.76,220616,,,A*5B,51.5031242370,0.0067866001,12:37:33,22/6/2016,14,43,38.53,342,26.66,514.36,0,6
$GPRMC,123734.000,A,5130.1891,N,00000.4079,E,3.07,33.09,220616,,,A*5E,51.5031509399,0.0067983002,12:37:34,22/6/2016,14,33,40.96,319,27.15,514.39,0,6
$GPRMC,123735.000,A,5130.1880,N,00000.4084,E,2.60,46.51,220616,,,A*52,51.5031318664,0.0068066000,12:37:35,22/6/2016,14,36,41.54,317,27.15,514.30,0,6
$GPRMC,123736.000,A,5130.1887,N,00000.4091,E,2.40,44.48,220616,,,A*5A,51.5031394958,0.0068183002,12:37:36,22/6/2016,14,29,41.75,337,26.66,519.15,0,6
$GPRMC,123737.000,V,,,,,2.99,49.35,220616,,,N*76,51.5031394958,0.0068183002,12:37:37,22/6/2016,14,39,41.28,314,27.15,515.35,0,6
$GPRMC,123738.000,V,,,,,3.54,57.07,220616,,,N*77,51.5031394958,0.0068183002,12:37:38,22/6/2016,14,72,38.97,330,27.15,514.19,0,6
$GPRMC,123739.000,V,,,,,3.61,21.42,220616,,,N*70,51.5031394958,0.0068183002,12:37:39,22/6/2016,14,60,44.98,343,26.66,516.08,0,6
$GPRMC,123740.000,V,,,,,3.47,20.67,220616,,,N*7C,51.5031394958,0.0068183002,12:37:40,22/6/2016,13,39,41.95,354,26.66,516.41,0,6
$GPRMC,123741.000,V,,,,,2.37,23.00,220616,,,N*79,51.5031394958,0.0068183002,12:37:41,22/6/2016,14,30,46.75,318,27.15,515.57,0,6
$GPRMC,123742.000,V,,,,,1.66,37.21,220616,,,N*7B,51.5031394958,0.0068183002,12:37:42,22/6/2016,14,59,44.63,317,27.15,514.02,0,6
$GPRMC,123743.000,V,,,,,1.16,66.60,220616,,,N*7C,51.5031394958,0.0068183002,12:37:43,22/6/2016,14,63,39.13,347,27.15,518.51,0,6
$GPRMC,123744.000,V,,,,,1.89,76.65,220616,,,N*79,51.5031394958,0.0068183002,12:37:44,22/6/2016,15,48,40.74,336,27.15,517.62,0,6
$GPRMC,123745.000,V,,,,,1.63,94.38,220616,,,N*78,51.5031394958,0.0068183002,12:37:45,22/6/2016,15,42,41.37,342,26.66,512.10,0,6
$GPRMC,123746.000,V,,,,,0.71,150.21,220616,,,N*48,51.5031394958,0.0068183002,12:37:46,22/6/2016,15,59,38.54,313,26.66,514.20,0,6
$GPRMC,123747.000,V,,,,,1.59,159.31,220616,,,N*4A,51.5031394958,0.0068183002,12:37:47,22/6/2016,14,52,40.12,351,26.66,512.32,0,6
$GPRMC,123748.000,V,,,,,2.40,153.28,220616,,,N*4C,51.5031394958,0.0068183002,12:37:48,22/6/2016,14,48,38.47,339,26.17,513.74,0,6
$GPRMC,123749.000,V,,,,,2.90,159.97,220616,,,N*4E,51.5031394958,0.0068183002,12:37:49,22/6/2016,15,64,41.06,351,27.15,515.82,0,6
$GPRMC,123750.000,V,,,,,3.43,166.88,220616,,,N*4B,51.5031394958,0.0068183002,12:37:50,22/6/2016,14,37,39.75,301,27.15,514.23,0,6
$GPRMC,123751.000,V,,,,,3.79,167.19,220616,,,N*4A,51.5031394958,0.0068183002,12:37:51,22/6/2016,14,69,44.11,328,27.15,518.39,0,6
$GPRMC,123752.000,V,,,,,3.23,168.38,220616,,,N*4A,51.5031394958,0.0068183002,12:37:52,22/6/2016,14,36,43.73,343,26.66,512.72,0,6
$GPRMC,123753.000,V,,,,,3.28,167.49,220616,,,N*49,51.5031394958,0.0068183002,12:37:53,22/6/2016,14,43,39.54,339,26.66,516.51,0,6
$GPRMC,123754.000,V,,,,,2.41,157.21,220616,,,N*4D,51.5031394958,0.0068183002,12:37:54,22/6/2016,14,36,40.84,295,27.15,515.12,0,6
$GPRMC,123755.000,A,5130.1618,N,00000.4200,E,2.93,158.83,220616,,,A*68,51.5026931762,0.0070000000,12:37:55,22/6/2016,14,39,37.67,348,27.15,514.07,0,6
$GPRMC,123756.000,A,5130.1599,N,00000.4204,E,2.72,164.72,220616,,,A*6B,51.5026626586,0.0070065999,12:37:56,22/6/2016,14,35,42.60,310,26.66,517.32,0,6
$GPRMC,123757.000,A,5130.1585,N,00000.4209,E,2.88,163.11,220616,,,A*6D,51.5026435852,0.0070150003,12:37:57,22/6/2016,14,28,41.67,344,27.15,517.26,0,6
$GPRMC,123758.000,A,5130.1575,N,00000.4217,E,2.93,153.71,220616,,,A*6D,51.5026283264,0.0070282993,12:37:58,22/6/2016,14,88,37.30,296,26.66,514.22,0,6
$GPRMC,123759.000,A,5130.1563,N,00000.4226,E,2.72,150.16,220616,,,A*64,51.5026054382,0.0070433006,12:37:59,22/6/2016,13,46,40.12,339,27.15,515.10,0,6
$GPRMC,123800.000,A,5130.1549,N,00000.4232,E,2.23,154.10,220616,,,A*6C,51.5025787353,0.0070532999,12:38:0,22/6/2016,14,44,40.33,320,26.66,514.14,0,6
$GPRMC,123801.000,A,5130.1535,N,00000.4237,E,2.42,151.37,220616,,,A*64,51.5025558471,0.0070616002,12:38:1,22/6/2016,14,12,21.77,287,25.68,514.26,0,6
$GPRMC,123802.000,A,5130.1531,N,00000.4240,E,1.71,154.88,220616,,,A*61,51.5025558471,0.0070666003,12:38:2,22/6/2016,14,23,24.52,326,25.68,515.14,0,6
$GPRMC,123803.000,A,5130.1530,N,00000.4247,E,1.29,125.59,220616,,,A*61,51.5025482177,0.0070783004,12:38:3,22/6/2016,14,20,19.79,322,25.68,518.18,0,6
$GPRMC,123804.000,A,5130.1531,N,00000.4249,E,0.77,120.10,220616,,,A*6B,51.5025558471,0.0070815992,12:38:4,22/6/2016,14,16,20.31,294,26.17,512.89,0,6
$GPRMC,123805.000,A,5130.1516,N,00000.4264,E,2.10,126.43,220616,,,A*63,51.5025215148,0.0071066007,12:38:5,22/6/2016,14,14,19.64,280,26.17,512.59,0,6
$GPRMC,123806.000,A,5130.1509,N,00000.4273,E,2.19,129.96,220616,,,A*66,51.5025138854,0.0071216001,12:38:6,22/6/2016,14,13,21.87,346,25.68,514.37,0,6
$GPRMC,123807.000,A,5130.1503,N,00000.4281,E,2.03,130.02,220616,,,A*6E,51.5025062561,0.0071350007,12:38:7,22/6/2016,14,11,19.50,333,25.68,513.29,0,6
$GPRMC,123808.000,A,5130.1498,N,00000.4290,E,2.29,122.68,220616,,,A*65,51.5024986267,0.0071500005,12:38:8,22/6/2016,14,20,20.54,282,25.68,513.05,0,6
$GPRMC,123809.000,A,5130.1493,N,00000.4297,E,1.79,126.96,220616,,,A*6B,51.5024909973,0.0071616005,12:38:9,22/6/2016,14,21,18.22,324,26.17,513.23,0,6
$GPRMC,123810.000,A,5130.1489,N,00000.4303,E,1.54,133.01,220616,,,A*61,51.5024833679,0.0071716003,12:38:10,22/6/2016,14,7,18.82,334,25.68,513.40,0,6
$GPRMC,123811.000,A,5130.1485,N,00000.4309,E,1.83,126.87,220616,,,A*66,51.5024757385,0.0071816005,12:38:11,22/6/2016,14,15,18.08,279,26.17,514.93,0,6
$GPRMC,123812.000,A,5130.1482,N,00000.4315,E,1.75,131.58,220616,,,A*62,51.5024757385,0.0071915998,12:38:12,22/6/2016,14,14,19.05,330,26.17,513.56,0,6
$GPRMC,123813.000,A,5130.1473,N,00000.4320,E,1.78,131.79,220616,,,A*65,51.5024566650,0.0072000002,12:38:13,22/6/2016,14,17,17.66,316,25.68,513.57,0,6
$GPRMC,123814.000,A,5130.1461,N,00000.4329,E,2.35,125.98,220616,,,A*68,51.5024337768,0.0072149996,12:38:14,22/6/2016,14,10,18.88,337,25.68,516.34,0,6
$GPRMC,123815.000,A,5130.1456,N,00000.4338,E,2.11,124.55,220616,,,A*6B,51.5024261474,0.0072300004,12:38:15,22/6/2016,14,13,18.63,298,25.68,512.88,0,6
$GPRMC,123816.000,A,5130.1444,N,00000.4343,E,1.96,142.73,220616,,,A*6F,51.5024070739,0.0072382998,12:38:16,22/6/2016,13,12,20.23,319,26.17,513.99,0,6
$GPRMC,123817.000,A,5130.1433,N,00000.4347,E,1.86,152.46,220616,,,A*6C,51.5023841857,0.0072449994,12:38:17,22/6/2016,13,14,23.38,452,26.17,519.72,0,6
$GPRMC,123818.000,A,5130.1419,N,00000.4351,E,2.10,155.36,220616,,,A*60,51.5023689270,0.0072516002,12:38:18,22/6/2016,13,17,17.11,312,26.17,515.34,0,6
$GPRMC,123819.000,A,5130.1407,N,00000.4354,E,2.03,147.62,220616,,,A*6B,51.5023422241,0.0072566003,12:38:19,22/6/2016,14,5,17.62,315,26.66,514.27,0,6
$GPRMC,123820.000,A,5130.1400,N,00000.4358,E,1.73,142.10,220616,,,A*6E,51.5023345947,0.0072633004,12:38:20,22/6/2016,14,10,21.72,318,26.17,514.22,0,6
$GPRMC,123821.000,A,5130.1394,N,00000.4365,E,1.90,125.65,220616,,,A*65,51.5023193359,0.0072750000,12:38:21,22/6/2016,14,14,16.99,236,26.17,512.71,0,6
$GPRMC,123822.000,A,5130.1389,N,00000.4372,E,1.51,127.10,220616,,,A*61,51.5023117065,0.0072866001,12:38:22,22/6/2016,14,8,16.32,298,26.17,513.80,0,6
$GPRMC,123823.000,A,5130.1383,N,00000.4379,E,1.50,125.44,220616,,,A*63,51.5023040771,0.0072982997,12:38:23,22/6/2016,14,62,20.34,329,26.17,510.39,0,6
$GPRMC,123824.000,A,5130.1380,N,00000.4387,E,1.60,119.10,220616,,,A*6B,51.5023040771,0.0073116006,12:38:24,22/6/2016,12,16,21.31,322,25.68,516.87,0,6
$GPRMC,123825.000,A,5130.1377,N,00000.4397,E,1.93,105.37,220616,,,A*67,51.5022964477,0.0073283004,12:38:25,22/6/2016,13,16,21.98,293,25.68,512.01,0,6
$GPRMC,123826.000,A,5130.1374,N,00000.4410,E,3.34,157.07,220616,,,A*64,51.5022850036,0.0073500003,12:38:26,22/6/2016,13,8,19.38,305,26.66,512.55,0,6
$GPRMC,123827.000,A,5130.1368,N,00000.4422,E,3.17,152.27,220616,,,A*6F,51.5022773742,0.0073700003,12:38:27,22/6/2016,14,44,43.97,404,26.66,523.22,0,6
$GPRMC,123828.000,A,5130.1363,N,00000.4434,E,3.09,127.75,220616,,,A*66,51.5022697448,0.0073900008,12:38:28,22/6/2016,14,38,44.78,295,26.66,514.93,0,6
$GPRMC,123829.000,A,5130.1359,N,00000.4449,E,3.71,125.06,220616,,,A*6D,51.5022621154,0.0074149994,12:38:29,22/6/2016,14,43,39.87,300,27.15,515.61,0,6
$GPRMC,123830.000,A,5130.1352,N,00000.4461,E,3.41,138.79,220616,,,A*63,51.5022544860,0.0074350004,12:38:30,22/6/2016,15,62,36.29,334,26.66,517.05,0,6
$GPRMC,123831.000,A,5130.1345,N,00000.4468,E,2.87,157.14,220616,,,A*64,51.5022392272,0.0074465999,12:38:31,22/6/2016,15,33,46.68,284,26.66,519.03,0,6
$GPRMC,123832.000,A,5130.1341,N,00000.4472,E,1.92,150.18,220616,,,A*64,51.5022392272,0.0074532995,12:38:32,22/6/2016,16,39,39.90,309,26.66,516.98,0,6
$GPRMC,123833.000,A,5130.1335,N,00000.4478,E,2.17,159.85,220616,,,A*6F,51.5022201538,0.0074633002,12:38:33,22/6/2016,16,45,37.87,302,26.66,513.57,0,6
$GPRMC,123834.000,A,5130.1327,N,00000.4482,E,2.75,168.42,220616,,,A*63,51.5022125244,0.0074699997,12:38:34,22/6/2016,17,57,43.87,319,26.66,514.91,0,6
$GPRMC,123835.000,A,5130.1318,N,00000.4486,E,2.79,181.67,220616,,,A*66,51.5021972656,0.0074766006,12:38:35,22/6/2016,16,29,39.34,286,26.66,515.61,0,6
$GPRMC,123836.000,A,5130.1312,N,00000.4490,E,2.05,168.17,220616,,,A*63,51.5021896362,0.0074833006,12:38:36,22/6/2016,16,33,41.51,340,26.17,512.07,0,6
$GPRMC,123837.000,A,5130.1308,N,00000.4494,E,2.21,175.36,220616,,,A*64,51.5021820068,0.0074900002,12:38:37,22/6/2016,17,35,42.73,354,26.66,515.98,0,6
$GPRMC,123838.000,A,5130.1302,N,00000.4500,E,1.95,171.59,220616,,,A*6C,51.5021743774,0.0075000000,12:38:38,22/6/2016,16,31,38.46,337,26.66,511.85,0,6
$GPRMC,123839.000,A,5130.1297,N,00000.4504,E,2.20,168.91,220616,,,A*65,51.5021629333,0.0075065999,12:38:39,22/6/2016,16,32,43.27,300,27.15,515.51,0,6
$GPRMC,123840.000,A,5130.1293,N,00000.4508,E,1.47,147.55,220616,,,A*64,51.5021553039,0.0075132999,12:38:40,22/6/2016,16,48,42.24,327,26.17,428.63,1,7
$GPRMC,123841.000,A,5130.1285,N,00000.4514,E,2.30,146.89,220616,,,A*6C,51.5021400451,0.0075232992,12:38:41,22/6/2016,16,51,37.23,347,26.66,516.47,0,7
$GPRMC,123842.000,A,5130.1277,N,00000.4524,E,3.03,142.09,220616,,,A*6C,51.5021324157,0.0075400009,12:38:42,22/6/2016,15,81,40.33,315,27.15,513.21,0,7
$GPRMC,123843.000,A,5130.1271,N,00000.4533,E,2.72,135.03,220616,,,A*60,51.5021171569,0.0075550007,12:38:43,22/6/2016,14,47,37.54,355,27.15,515.41,0,7
$GPRMC,123844.000,A,5130.1267,N,00000.4540,E,2.19,141.51,220616,,,A*6D,51.5021095275,0.0075666003,12:38:44,22/6/2016,14,29,34.44,322,25.68,516.17,0,7
$GPRMC,123845.000,A,5130.1261,N,00000.4546,E,2.57,161.09,220616,,,A*69,51.5020980834,0.0075766000,12:38:45,22/6/2016,13,15,17.64,320,26.17,513.71,0,7
$GPRMC,123846.000,A,5130.1252,N,00000.4552,E,3.97,182.76,220616,,,A*67,51.5020828247,0.0075865993,12:38:46,22/6/2016,13,13,19.07,299,25.20,513.70,0,7
$GPRMC,123847.000,A,5130.1240,N,00000.4556,E,4.10,176.25,220616,,,A*64,51.5020675659,0.0075933008,12:38:47,22/6/2016,13,18,18.97,341,26.17,513.21,0,7
$GPRMC,123848.000,A,5130.1229,N,00000.4565,E,3.57,161.09,220616,,,A*68,51.5020523071,0.0076083002,12:38:48,22/6/2016,13,1,17.80,325,25.68,513.57,0,7
$GPRMC,123849.000,A,5130.1221,N,00000.4578,E,3.33,144.88,220616,,,A*61,51.5020332336,0.0076300001,12:38:49,22/6/2016,13,36,21.14,295,26.17,515.18,0,7
$GPRMC,123850.000,A,5130.1213,N,00000.4588,E,3.12,140.98,220616,,,A*61,51.5020179748,0.0076465997,12:38:50,22/6/2016,13,11,20.18,318,26.17,514.24,0,7
$GPRMC,123851.000,A,5130.1205,N,00000.4598,E,3.55,144.51,220616,,,A*64,51.5020103454,0.0076633005,12:38:51,22/6/2016,13,24,16.41,289,26.17,513.91,0,7
$GPRMC,123852.000,A,5130.1201,N,00000.4606,E,2.68,136.87,220616,,,A*66,51.5020027160,0.0076766009,12:38:52,22/6/2016,13,5,19.89,309,25.68,513.40,0,7
$GPRMC,123853.000,A,5130.1197,N,00000.4611,E,2.37,149.59,220616,,,A*6C,51.5019950866,0.0076849994,12:38:53,22/6/2016,13,13,18.25,329,25.68,517.72,0,7
$GPRMC,123854.000,A,5130.1191,N,00000.4618,E,2.34,152.86,220616,,,A*6F,51.5019874572,0.0076965999,12:38:54,22/6/2016,13,16,18.02,323,25.68,514.07,0,7
$GPRMC,123855.000,A,5130.1185,N,00000.4625,E,2.32,146.32,220616,,,A*69,51.5019760131,0.0077083005,12:38:55,22/6/2016,14,11,18.68,325,26.17,487.14,2,9
$GPRMC,123856.000,A,5130.1177,N,00000.4631,E,2.81,138.33,220616,,,A*62,51.5019607543,0.0077183008,12:38:56,22/6/2016,13,11,19.10,313,26.17,516.73,0,9
$GPRMC,123857.000,A,5130.1170,N,00000.4643,E,3.11,139.83,220616,,,A*63,51.5019531250,0.0077383003,12:38:57,22/6/2016,13,11,16.29,319,26.17,513.04,0,9
$GPRMC,123858.000,A,5130.1164,N,00000.4654,E,2.75,141.97,220616,,,A*66,51.5019378662,0.0077565999,12:38:58,22/6/2016,13,9,18.92,318,25.68,514.34,0,9
$GPRMC,123859.000,A,5130.1154,N,00000.4665,E,3.27,155.33,220616,,,A*6B,51.5019187927,0.0077750005,12:38:59,22/6/2016,13,16,18.25,286,26.17,512.78,0,9
$GPRMC,123900.000,A,5130.1146,N,00000.4673,E,3.19,155.43,220616,,,A*68,51.5019111633,0.0077883005,12:39:0,22/6/2016,12,12,17.06,316,25.68,511.44,0,9
$GPRMC,123901.000,A,5130.1138,N,00000.4681,E,3.19,153.39,220616,,,A*66,51.5018959045,0.0078016004,12:39:1,22/6/2016,13,10,17.96,302,26.17,516.73,0,9
$GPRMC,123902.000,A,5130.1129,N,00000.4687,E,3.16,164.56,220616,,,A*61,51.5018806457,0.0078115997,12:39:2,22/6/2016,13,24,17.16,321,26.17,511.15,0,9
$GPRMC,123903.000,A,5130.1123,N,00000.4695,E,2.47,151.06,220616,,,A*6F,51.5018730163,0.0078250002,12:39:3,22/6/2016,13,33,16.54,277,26.17,511.45,0,9
$GPRMC,123904.000,A,5130.1119,N,00000.4703,E,1.86,131.44,220616,,,A*61,51.5018653869,0.0078383007,12:39:4,22/6/2016,13,37,17.04,324,26.17,512.86,0,9
$GPRMC,123905.000,A,5130.1119,N,00000.4715,E,2.07,103.66,220616,,,A*6C,51.5018653869,0.0078583002,12:39:5,22/6/2016,13,15,19.83,319,26.66,510.52,1,10
$GPRMC,123906.000,A,5130.1120,N,00000.4727,E,2.54,92.81,220616,,,A*52,51.5018653869,0.0078782997,12:39:6,22/6/2016,13,26,16.54,289,26.17,516.21,0,10
$GPRMC,123907.000,A,5130.1124,N,00000.4739,E,2.57,86.10,220616,,,A*56,51.5018730163,0.0078983001,12:39:7,22/6/2016,13,17,17.33,302,26.66,514.84,0,10
$GPRMC,123908.000,A,5130.1125,N,00000.4748,E,1.67,110.43,220616,,,A*66,51.5018730163,0.0079133005,12:39:8,22/6/2016,13,16,19.01,328,26.17,513.56,0,10
$GPRMC,123909.000,A,5130.1129,N,00000.4754,E,1.28,101.99,220616,,,A*6A,51.5018806457,0.0079233002,12:39:9,22/6/2016,14,35,18.65,313,26.17,517.43,0,10
$GPRMC,123910.000,A,5130.1130,N,00000.4760,E,1.10,79.27,220616,,,A*5D,51.5018806457,0.0079333000,12:39:10,22/6/2016,14,12,17.20,296,26.17,514.24,0,10
$GPRMC,123911.000,A,5130.1131,N,00000.4766,E,0.82,77.30,220616,,,A*59,51.5018882751,0.0079433012,12:39:11,22/6/2016,13,28,17.35,306,26.17,512.42,0,10
$GPRMC,123912.000,A,5130.1128,N,00000.4770,E,0.88,131.04,220616,,,A*6B,51.5018806457,0.0079500007,12:39:12,22/6/2016,12,15,18.47,316,26.17,511.66,0,10
$GPRMC,123913.000,A,5130.1124,N,00000.4772,E,1.19,157.49,220616,,,A*64,51.5018730163,0.0079533004,12:39:13,22/6/2016,12,4,21.84,412,26.17,514.43,0,10
$GPRMC,123914.000,A,5130.1117,N,00000.4781,E,2.04,148.00,220616,,,A*63,51.5018653869,0.0079682998,12:39:14,22/6/2016,12,8,18.68,332,26.17,514.59,0,10
$GPRMC,123915.000,A,5130.1110,N,00000.4788,E,2.33,155.27,220616,,,A*61,51.5018463134,0.0079800004,12:39:15,22/6/2016,12,18,18.76,314,26.17,513.60,0,10
$GPRMC,123916.000,A,5130.1103,N,00000.4796,E,2.54,158.64,220616,,,A*64,51.5018386840,0.0079932999,12:39:16,22/6/2016,12,33,20.63,297,26.17,513.61,0,10
$GPRMC,123917.000,A,5130.1099,N,00000.4801,E,2.23,158.32,220616,,,A*65,51.5018310546,0.0080016002,12:39:17,22/6/2016,12,18,18.96,323,26.17,515.21,0,10
$GPRMC,123918.000,A,5130.1093,N,00000.4807,E,2.30,149.43,220616,,,A*62,51.5018234252,0.0080116004,12:39:18,22/6/2016,12,9,18.22,334,26.17,513.51,0,10
$GPRMC,123919.000,A,5130.1088,N,00000.4814,E,2.07,148.82,220616,,,A*63,51.5018157958,0.0080233001,12:39:19,22/6/2016,12,24,18.76,324,26.17,512.47,0,10
$GPRMC,123920.000,A,5130.1082,N,00000.4818,E,2.06,159.79,220616,,,A*6A,51.5018081665,0.0080300006,12:39:20,22/6/2016,12,22,19.74,294,26.17,513.17,0,10
$GPRMC,123921.000,A,5130.1076,N,00000.4825,E,2.09,158.85,220616,,,A*63,51.5017890930,0.0080416011,12:39:21,22/6/2016,13,32,19.41,294,26.66,514.55,0,10
$GPRMC,123922.000,A,5130.1068,N,00000.4836,E,2.33,157.62,220616,,,A*62,51.5017814636,0.0080599994,12:39:22,22/6/2016,11,21,20.33,320,27.15,511.22,0,10
$GPRMC,123923.000,A,5130.1060,N,00000.4852,E,2.07,148.61,220616,,,A*63,51.5017662048,0.0080866003,12:39:23,22/6/2016,11,14,20.24,293,26.17,514.34,0,10
$GPRMC,123924.000,A,5130.1054,N,00000.4862,E,2.06,145.68,220616,,,A*65,51.5017585754,0.0081033000,12:39:24,22/6/2016,12,15,18.74,317,26.17,515.02,0,10
$GPRMC,123925.000,A,5130.1050,N,00000.4871,E,2.12,131.31,220616,,,A*68,51.5017509460,0.0081183004,12:39:25,22/6/2016,12,23,19.46,329,26.66,511.38,0,10
$GPRMC,123926.000,A,5130.1043,N,00000.4880,E,1.88,137.23,220616,,,A*62,51.5017433166,0.0081333007,12:39:26,22/6/2016,12,55,20.46,386,26.17,516.89,0,10
$GPRMC,123927.000,A,5130.1038,N,00000.4886,E,1.37,161.22,220616,,,A*6F,51.5017318725,0.0081433000,12:39:27,22/6/2016,12,8,18.37,328,26.66,515.79,0,10
$GPRMC,123928.000,A,5130.1030,N,00000.4893,E,1.67,147.27,220616,,,A*68,51.5017166137,0.0081550006,12:39:28,22/6/2016,12,13,18.44,319,26.17,512.41,0,10
$GPRMC,123929.000,A,5130.1017,N,00000.4907,E,2.22,145.83,220616,,,A*6E,51.5016937255,0.0081782999,12:39:29,22/6/2016,12,6,20.79,329,26.17,513.75,0,10
$GPRMC,123930.000,A,5130.1009,N,00000.4913,E,2.54,151.14,220616,,,A*66,51.5016860961,0.0081883010,12:39:30,22/6/2016,12,21,16.50,276,26.17,516.04,0,10
$GPRMC,123931.000,A,5130.1002,N,00000.4918,E,3.04,146.76,220616,,,A*61,51.5016670227,0.0081966009,12:39:31,22/6/2016,11,16,17.60,326,26.66,511.68,0,10
$GPRMC,123932.000,A,5130.0999,N,00000.4923,E,2.58,144.75,220616,,,A*69,51.5016670227,0.0082049999,12:39:32,22/6/2016,11,89,18.34,319,27.15,514.76,0,10
$GPRMC,123933.000,A,5130.0993,N,00000.4926,E,2.30,152.18,220616,,,A*65,51.5016517639,0.0082100000,12:39:33,22/6/2016,12,48,18.28,299,26.17,512.80,0,10
$GPRMC,123934.000,A,5130.0985,N,00000.4930,E,2.48,155.09,220616,,,A*6A,51.5016441345,0.0082166004,12:39:34,22/6/2016,11,8,20.06,315,26.66,512.56,0,10
$GPRMC,123935.000,A,5130.0974,N,00000.4936,E,2.90,148.85,220616,,,A*6E,51.5016212463,0.0082266006,12:39:35,22/6/2016,10,20,19.06,311,26.17,515.52,0,10
$GPRMC,123936.000,A,5130.0963,N,00000.4940,E,3.00,153.64,220616,,,A*67,51.5016021728,0.0082333002,12:39:36,22/6/2016,12,11,18.76,299,26.17,513.96,0,10
$GPRMC,123937.000,A,5130.0959,N,00000.4938,E,2.79,158.77,220616,,,A*66,51.5015945434,0.0082300004,12:39:37,22/6/2016,12,2,19.15,291,26.66,512.91,0,10
$GPRMC,123938.000,A,5130.0947,N,00000.4940,E,2.98,161.52,220616,,,A*6B,51.5015792846,0.0082333002,12:39:38,22/6/2016,11,12,18.17,296,25.68,519.22,0,10
$GPRMC,123939.000,A,5130.0933,N,00000.4950,E,3.72,156.61,220616,,,A*69,51.5015525817,0.0082499990,12:39:39,22/6/2016,11,2,11.44,315,25.68,514.27,0,10
$GPRMC,123940.000,A,5130.0924,N,00000.4960,E,3.47,158.59,220616,,,A*61,51.5015373229,0.0082666006,12:39:40,22/6/2016,11,58,19.18,281,26.17,512.93,0,10
$GPRMC,123941.000,A,5130.0923,N,00000.4964,E,2.84,170.99,220616,,,A*6B,51.5015373229,0.0082733001,12:39:41,22/6/2016,11,5,18.89,337,26.17,512.93,0,10
$GPRMC,123942.000,A,5130.0916,N,00000.4969,E,2.63,165.11,220616,,,A*6E,51.5015296936,0.0082816009,12:39:42,22/6/2016,12,9,20.86,307,26.17,514.07,0,10
$GPRMC,123943.000,A,5130.0912,N,00000.4975,E,2.27,144.02,220616,,,A*67,51.5015220642,0.0082916011,12:39:43,22/6/2016,12,11,19.52,307,27.15,513.28,0,10
$GPRMC,123944.000,A,5130.0899,N,00000.4980,E,2.44,144.05,220616,,,A*6A,51.5014991760,0.0083000001,12:39:44,22/6/2016,11,19,18.31,311,26.17,514.87,0,10
$GPRMC,123945.000,A,5130.0890,N,00000.4986,E,2.30,128.80,220616,,,A*60,51.5014801025,0.0083100013,12:39:45,22/6/2016,11,20,17.60,325,26.66,513.17,0,10
$GPRMC,123946.000,A,5130.0882,N,00000.4997,E,2.66,133.29,220616,,,A*6A,51.5014724731,0.0083283004,12:39:46,22/6/2016,11,5,18.67,325,27.15,513.18,0,10
$GPRMC,123947.000,A,5130.0874,N,00000.5010,E,2.47,139.53,220616,,,A*61,51.5014572143,0.0083500003,12:39:47,22/6/2016,12,15,18.87,275,26.66,516.95,0,10
$GPRMC,123948.000,A,5130.0866,N,00000.5020,E,2.34,146.83,220616,,,A*6F,51.5014419555,0.0083666000,12:39:48,22/6/2016,11,8,19.24,325,26.17,515.29,0,10
$GPRMC,123949.000,A,5130.0843,N,00000.5029,E,3.53,161.02,220616,,,A*6C,51.5014076232,0.0083816003,12:39:49,22/6/2016,11,17,17.35,300,26.66,403.62,1,11
$GPRMC,123950.000,A,5130.0827,N,00000.5039,E,3.69,155.51,220616,,,A*6F,51.5013771057,0.0083983001,12:39:50,22/6/2016,11,8,19.42,319,26.66,506.86,0,11
$GPRMC,123951.000,A,5130.0798,N,00000.5044,E,4.29,164.35,220616,,,A*6C,51.5013275146,0.0084065999,12:39:51,22/6/2016,11,14,20.79,337,26.66,515.40,0,11
$GPRMC,123952.000,A,5130.0784,N,00000.5050,E,3.63,161.72,220616,,,A*68,51.5013084411,0.0084165992,12:39:52,22/6/2016,11,11,22.12,309,26.66,514.09,0,11
$GPRMC,123953.000,A,5130.0764,N,00000.5057,E,4.39,168.39,220616,,,A*6E,51.5012702941,0.0084283008,12:39:53,22/6/2016,10,15,18.13,297,26.66,513.74,0,11
$GPRMC,123954.000,A,5130.0746,N,00000.5063,E,3.95,160.09,220616,,,A*64,51.5012435913,0.0084383001,12:39:54,22/6/2016,11,22,19.71,284,26.17,513.82,0,11
$GPRMC,123955.000,A,5130.0730,N,00000.5074,E,4.23,158.06,220616,,,A*6C,51.5012130737,0.0084566011,12:39:55,22/6/2016,10,15,17.29,310,26.66,515.91,0,11
$GPRMC,123956.000,A,5130.0717,N,00000.5086,E,3.94,143.54,220616,,,A*61,51.5011978149,0.0084765996,12:39:56,22/6/2016,11,20,20.95,322,26.66,515.56,0,11
$GPRMC,123957.000,A,5130.0697,N,00000.5095,E,4.09,152.79,220616,,,A*67,51.5011634826,0.0084916009,12:39:57,22/6/2016,11,7,18.74,294,26.66,514.06,0,11
$GPRMC,123958.000,A,5130.0685,N,00000.5104,E,3.88,154.65,220616,,,A*67,51.5011405944,0.0085065994,12:39:58,22/6/2016,11,18,19.23,326,26.66,513.74,0,11
$GPRMC,123959.000,A,5130.0669,N,00000.5107,E,3.90,161.90,220616,,,A*62,51.5011138916,0.0085115995,12:39:59,22/6/2016,11,13,19.22,330,26.66,515.17,0,11
$GPRMC,124000.000,A,5130.0652,N,00000.5113,E,3.71,159.20,220616,,,A*62,51.5010910034,0.0085216007,12:40:0,22/6/2016,11,11,21.01,307,26.17,514.49,0,11
$GPRMC,124001.000,A,5130.0640,N,00000.5118,E,3.33,154.26,220616,,,A*66,51.5010643005,0.0085299997,12:40:1,22/6/2016,11,3,18.75,317,26.17,513.75,0,11
$GPRMC,124002.000,A,5130.0635,N,00000.5124,E,2.78,151.13,220616,,,A*65,51.5010566711,0.0085400009,12:40:2,22/6/2016,11,11,19.79,313,26.66,511.94,0,11
$GPRMC,124003.000,A,5130.0628,N,00000.5132,E,2.69,149.82,220616,,,A*6E,51.5010490417,0.0085532999,12:40:3,22/6/2016,11,14,20.49,321,26.66,514.72,0,11
$GPRMC,124004.000,A,5130.0623,N,00000.5134,E,2.35,149.30,220616,,,A*64,51.5010414123,0.0085566005,12:40:4,22/6/2016,10,6,17.74,274,26.66,513.40,0,11
$GPRMC,124005.000,A,5130.0623,N,00000.5134,E,1.37,140.25,220616,,,A*69,51.5010414123,0.0085566005,12:40:5,22/6/2016,10,13,20.40,308,26.17,513.89,0,11
$GPRMC,124006.000,A,5130.0612,N,00000.5140,E,2.10,155.54,220616,,,A*6F,51.5010185241,0.0085665998,12:40:6,22/6/2016,10,8,20.97,323,26.66,514.56,0,11
$GPRMC,124007.000,A,5130.0607,N,00000.5144,E,2.19,158.61,220616,,,A*6C,51.5010108947,0.0085733003,12:40:7,22/6/2016,11,9,17.80,298,26.66,514.15,0,11
$GPRMC,124008.000,A,5130.0604,N,00000.5154,E,2.36,148.97,220616,,,A*64,51.5010108947,0.0085900001,12:40:8,22/6/2016,10,18,21.50,437,26.66,514.22,1,12
$GPRMC,124009.000,A,5130.0596,N,00000.5163,E,3.05,146.32,220616,,,A*69,51.5009918212,0.0086050004,12:40:9,22/6/2016,10,15,18.74,361,26.66,515.65,1,13
$GPRMC,124010.000,A,5130.0587,N,00000.5172,E,3.27,143.75,220616,,,A*67,51.5009765625,0.0086199998,12:40:10,22/6/2016,10,8,17.15,331,27.15,513.13,0,13
$GPRMC,124011.000,A,5130.0578,N,00000.5182,E,3.46,147.44,220616,,,A*68,51.5009613037,0.0086366004,12:40:11,22/6/2016,10,9,20.22,302,26.66,516.12,0,13
$GPRMC,124012.000,A,5130.0569,N,00000.5189,E,3.50,153.98,220616,,,A*63,51.5009536743,0.0086483001,12:40:12,22/6/2016,10,17,16.26,322,26.66,515.61,0,13
$GPRMC,124013.000,A,5130.0563,N,00000.5197,E,3.39,157.06,220616,,,A*6B,51.5009346008,0.0086615991,12:40:13,22/6/2016,11,15,17.06,328,26.66,512.62,0,13
$GPRMC,124014.000,A,5130.0556,N,00000.5204,E,3.32,158.06,220616,,,A*67,51.5009269714,0.0086732997,12:40:14,22/6/2016,10,9,19.74,302,26.66,512.73,0,13
$GPRMC,124015.000,A,5130.0553,N,00000.5213,E,3.49,158.63,220616,,,A*6A,51.5009193420,0.0086883001,12:40:15,22/6/2016,10,5,18.03,332,26.66,515.61,0,13
$GPRMC,124016.000,A,5130.0545,N,00000.5221,E,3.59,158.77,220616,,,A*6B,51.5009117126,0.0087016010,12:40:16,22/6/2016,10,10,16.78,335,26.17,514.29,0,13
$GPRMC,124017.000,A,5130.0543,N,00000.5228,E,2.93,153.99,220616,,,A*69,51.5009040832,0.0087133007,12:40:17,22/6/2016,10,13,16.73,318,26.66,512.72,0,13
$GPRMC,124018.000,A,5130.0543,N,00000.5235,E,2.49,143.81,220616,,,A*65,51.5009040832,0.0087250003,12:40:18,22/6/2016,11,11,21.08,295,27.15,513.66,0,13
$GPRMC,124019.000,A,5130.0545,N,00000.5243,E,2.61,153.06,220616,,,A*67,51.5009117126,0.0087383003,12:40:19,22/6/2016,11,16,18.23,318,26.66,514.83,0,13
$GPRMC,124020.000,A,5130.0543,N,00000.5249,E,2.52,156.03,220616,,,A*61,51.5009040832,0.0087482995,12:40:20,22/6/2016,11,28,18.30,323,26.17,513.09,0,13
$GPRMC,124021.000,A,5130.0547,N,00000.5255,E,2.01,150.68,220616,,,A*64,51.5009117126,0.0087583007,12:40:21,22/6/2016,11,4,17.76,288,27.15,513.29,0,13
$GPRMC,124022.000,A,5130.0554,N,00000.5265,E,1.95,151.05,220616,,,A*62,51.5009193420,0.0087750005,12:40:22,22/6/2016,11,14,17.51,314,26.66,515.87,0,13
$GPRMC,124023.000,A,5130.0555,N,00000.5276,E,2.36,156.46,220616,,,A*6A,51.5009269714,0.0087933006,12:40:23,22/6/2016,11,9,16.62,321,26.66,515.27,0,13
$GPRMC,124024.000,A,5130.0552,N,00000.5285,E,2.55,144.91,220616,,,A*6A,51.5009193420,0.0088083000,12:40:24,22/6/2016,11,7,12.44,298,26.17,515.18,0,13
$GPRMC,124025.000,A,5130.0549,N,00000.5293,E,2.45,154.12,220616,,,A*6D,51.5009117126,0.0088216009,12:40:25,22/6/2016,10,10,16.88,313,26.17,511.09,0,13
$GPRMC,124026.000,A,5130.0543,N,00000.5305,E,2.78,153.49,220616,,,A*6D,51.5009040832,0.0088416004,12:40:26,22/6/2016,10,0,12.21,321,25.68,514.20,0,13
$GPRMC,124027.000,A,5130.0539,N,00000.5316,E,2.63,153.60,220616,,,A*62,51.5008964538,0.0088600006,12:40:27,22/6/2016,10,6,17.51,316,26.17,514.72,0,13
$GPRMC,124028.000,A,5130.0535,N,00000.5326,E,2.69,149.91,220616,,,A*6D,51.5008964538,0.0088766002,12:40:28,22/6/2016,10,20,13.62,302,26.66,512.97,0,13
$GPRMC,124029.000,A,5130.0532,N,00000.5333,E,2.75,145.95,220616,,,A*6A,51.5008888244,0.0088883008,12:40:29,22/6/2016,10,14,16.97,336,26.66,513.88,0,13
$GPRMC,124030.000,A,5130.0524,N,00000.5344,E,3.10,150.81,220616,,,A*66,51.5008697509,0.0089065999,12:40:30,22/6/2016,10,18,19.17,338,26.17,513.98,0,13
$GPRMC,124031.000,A,5130.0518,N,00000.5354,E,2.88,150.56,220616,,,A*63,51.5008621215,0.0089233007,12:40:31,22/6/2016,9,9,17.00,287,27.15,512.27,0,13
$GPRMC,124032.000,A,5130.0514,N,00000.5365,E,2.99,142.35,220616,,,A*68,51.5008544921,0.0089416017,12:40:32,22/6/2016,10,9,18.76,308,27.15,511.46,0,13
$GPRMC,124033.000,A,5130.0507,N,00000.5376,E,3.13,139.80,220616,,,A*68,51.5008468627,0.0089600000,12:40:33,22/6/2016,10,12,18.44,322,26.66,515.31,1,14
$GPRMC,124034.000,A,5130.0501,N,00000.5385,E,2.87,139.74,220616,,,A*62,51.5008392333,0.0089749994,12:40:34,22/6/2016,10,13,15.57,339,26.66,513.19,0,14
$GPRMC,124035.000,A,5130.0500,N,00000.5396,E,2.75,135.23,220616,,,A*63,51.5008316040,0.0089933004,12:40:35,22/6/2016,10,13,20.52,279,27.15,513.13,0,14
$GPRMC,124036.000,A,5130.0497,N,00000.5405,E,2.50,138.90,220616,,,A*60,51.5008316040,0.0090083007,12:40:36,22/6/2016,9,2,18.40,324,27.15,513.04,0,14
$GPRMC,124037.000,A,5130.0490,N,00000.5413,E,2.47,146.00,220616,,,A*67,51.5008125305,0.0090215988,12:40:37,22/6/2016,10,3,19.71,320,27.15,514.74,2,16
$GPRMC,124038.000,A,5130.0484,N,00000.5420,E,2.71,153.64,220616,,,A*6E,51.5008049011,0.0090333003,12:40:38,22/6/2016,10,10,27.36,297,26.17,516.85,0,16
$GPRMC,124039.000,A,5130.0485,N,00000.5424,E,2.07,162.47,220616,,,A*68,51.5008049011,0.0090399990,12:40:39,22/6/2016,9,22,20.37,326,26.17,514.35,0,16
$GPRMC,124040.000,A,5130.0484,N,00000.5430,E,1.92,180.88,220616,,,A*62,51.5008049011,0.0090500001,12:40:40,22/6/2016,9,9,25.39,356,26.17,514.03,0,16
$GPRMC,124041.000,A,5130.0483,N,00000.5438,E,1.89,181.20,220616,,,A*65,51.5008049011,0.0090633001,12:40:41,22/6/2016,9,34,18.52,293,26.66,510.43,0,16
$GPRMC,124042.000,A,5130.0480,N,00000.5447,E,2.12,164.26,220616,,,A*61,51.5007972717,0.0090783004,12:40:42,22/6/2016,9,23,25.58,326,27.15,515.92,0,16
$GPRMC,124043.000,A,5130.0474,N,00000.5456,E,2.58,146.15,220616,,,A*65,51.5007896423,0.0090932998,12:40:43,22/6/2016,10,7,19.96,319,26.17,517.35,0,16
$GPRMC,124044.000,A,5130.0468,N,00000.5467,E,2.94,138.02,220616,,,A*62,51.5007820129,0.0091115999,12:40:44,22/6/2016,9,7,19.17,333,26.17,514.41,0,16
$GPRMC,124045.000,A,5130.0461,N,00000.5477,E,2.99,143.47,220616,,,A*6B,51.5007667541,0.0091283016,12:40:45,22/6/2016,9,17,18.03,278,26.66,514.13,0,16
$GPRMC,124046.000,A,5130.0452,N,00000.5488,E,3.36,149.70,220616,,,A*62,51.5007553100,0.0091466007,12:40:46,22/6/2016,10,10,23.89,312,26.66,515.48,0,16
$GPRMC,124047.000,A,5130.0444,N,00000.5499,E,3.32,153.36,220616,,,A*69,51.5007400512,0.0091649999,12:40:47,22/6/2016,10,13,18.30,324,26.66,515.05,0,16
$GPRMC,124048.000,A,5130.0440,N,00000.5502,E,2.89,156.02,220616,,,A*62,51.5007324218,0.0091700000,12:40:48,22/6/2016,9,19,23.22,294,27.15,512.98,0,16
$GPRMC,124049.000,A,5130.0434,N,00000.5508,E,2.76,156.66,220616,,,A*68,51.5007247924,0.0091800003,12:40:49,22/6/2016,9,11,21.31,318,26.66,515.51,0,16
$GPRMC,124050.000,A,5130.0426,N,00000.5517,E,3.12,146.96,220616,,,A*60,51.5007095336,0.0091949996,12:40:50,22/6/2016,10,21,21.40,312,26.66,515.48,0,16
$GPRMC,124051.000,A,5130.0422,N,00000.5525,E,2.82,141.87,220616,,,A*6B,51.5006980895,0.0092083005,12:40:51,22/6/2016,10,6,21.61,329,26.66,511.71,0,16
$GPRMC,124052.000,A,5130.0419,N,00000.5532,E,2.47,142.64,220616,,,A*61,51.5006980895,0.0092200002,12:40:52,22/6/2016,9,7,20.45,291,26.66,515.55,0,16
$GPRMC,124053.000,A,5130.0415,N,00000.5538,E,2.25,146.24,220616,,,A*62,51.5006904602,0.0092300014,12:40:53,22/6/2016,11,12,17.60,310,26.66,515.06,0,16
$GPRMC,124054.000,A,5130.0407,N,00000.5549,E,2.37,146.05,220616,,,A*60,51.5006752014,0.0092483005,12:40:54,22/6/2016,11,30,21.37,326,26.66,512.75,0,16
$GPRMC,124055.000,A,5130.0406,N,00000.5554,E,1.97,157.25,220616,,,A*67,51.5006752014,0.0092566003,12:40:55,22/6/2016,12,1,21.68,287,26.66,512.11,0,16
$GPRMC,124056.000,A,5130.0403,N,00000.5559,E,1.97,158.07,220616,,,A*63,51.5006752014,0.0092650012,12:40:56,22/6/2016,12,22,19.06,312,26.66,512.90,2,18
$GPRMC,124057.000,A,5130.0395,N,00000.5571,E,1.92,163.77,220616,,,A*6A,51.5006599426,0.0092849998,12:40:57,22/6/2016,9,13,22.34,311,27.15,513.34,0,18
$GPRMC,124058.000,A,5130.0388,N,00000.5584,E,2.29,154.91,220616,,,A*6C,51.5006446838,0.0093066005,12:40:58,22/6/2016,9,7,22.72,269,26.66,512.93,0,18
$GPRMC,124059.000,A,5130.0379,N,00000.5602,E,2.69,153.88,220616,,,A*65,51.5006332397,0.0093366012,12:40:59,22/6/2016,9,12,19.10,338,26.66,515.25,0,18
$GPRMC,124100.000,A,5130.0374,N,00000.5609,E,2.72,154.83,220616,,,A*68,51.5006256103,0.0093482999,12:41:0,22/6/2016,10,16,22.10,320,27.15,511.96,0,18
$GPRMC,124101.000,A,5130.0369,N,00000.5615,E,2.63,158.30,220616,,,A*6C,51.5006179809,0.0093583011,12:41:1,22/6/2016,9,48,22.07,320,27.15,514.76,0,18
$GPRMC,124102.000,A,5130.0360,N,00000.5619,E,2.64,162.48,220616,,,A*6B,51.5006027221,0.0093650007,12:41:2,22/6/2016,9,16,19.88,262,26.66,514.48,0,18
$GPRMC,124103.000,A,5130.0353,N,00000.5627,E,2.75,157.08,220616,,,A*65,51.5005874633,0.0093782997,12:41:3,22/6/2016,9,34,23.19,314,26.66,512.16,0,18
$GPRMC,124104.000,A,5130.0346,N,00000.5631,E,2.57,157.55,220616,,,A*69,51.5005760192,0.0093850011,12:41:4,22/6/2016,9,10,23.30,411,27.15,517.25,1,19
$GPRMC,124105.000,A,5130.0339,N,00000.5638,E,2.71,148.03,220616,,,A*60,51.5005607604,0.0093966007,12:41:5,22/6/2016,9,15,19.56,298,26.66,516.91,0,19
$GPRMC,124106.000,A,5130.0333,N,00000.5645,E,2.90,140.98,220616,,,A*66,51.5005531311,0.0094083003,12:41:6,22/6/2016,8,17,22.44,318,26.66,513.49,0,19
$GPRMC,124107.000,A,5130.0327,N,00000.5653,E,2.72,139.73,220616,,,A*62,51.5005455017,0.0094216003,12:41:7,22/6/2016,9,5,19.71,306,26.17,515.80,0,19
$GPRMC,124108.000,A,5130.0321,N,00000.5661,E,2.55,138.53,220616,,,A*6C,51.5005378723,0.0094349994,12:41:8,22/6/2016,9,1,15.32,317,26.17,514.43,0,19
$GPRMC,124109.000,A,5130.0319,N,00000.5665,E,2.04,148.58,220616,,,A*6A,51.5005302429,0.0094415998,12:41:9,22/6/2016,9,0,17.03,296,26.17,513.91,0,19
$GPRMC,124110.000,A,5130.0316,N,00000.5669,E,1.80,155.91,220616,,,A*67,51.5005302429,0.0094483013,12:41:10,22/6/2016,9,5,15.75,306,26.17,513.84,0,19
$GPRMC,124111.000,A,5130.0308,N,00000.5678,E,2.06,152.57,220616,,,A*69,51.5005111694,0.0094632997,12:41:11,22/6/2016,9,11,16.02,321,26.17,512.77,0,19
$GPRMC,124112.000,A,5130.0304,N,00000.5684,E,1.80,151.88,220616,,,A*69,51.5005035400,0.0094732999,12:41:12,22/6/2016,9,3,16.97,296,26.17,513.62,0,19
$GPRMC,124113.000,A,5130.0302,N,00000.5685,E,1.49,157.29,220616,,,A*67,51.5005035400,0.0094750013,12:41:13,22/6/2016,9,11,15.75,316,26.17,514.22,0,19
$GPRMC,124114.000,A,5130.0296,N,00000.5695,E,2.22,135.60,220616,,,A*6A,51.5004959106,0.0094916009,12:41:14,22/6/2016,9,18,16.28,316,26.17,513.66,0,19
$GPRMC,124115.000,A,5130.0290,N,00000.5703,E,2.48,136.90,220616,,,A*63,51.5004806518,0.0095050010,12:41:15,22/6/2016,9,10,18.74,319,25.68,514.47,0,19
$GPRMC,124116.000,A,5130.0286,N,00000.5710,E,2.41,149.07,220616,,,A*6A,51.5004806518,0.0095166006,12:41:16,22/6/2016,9,19,16.56,333,26.17,514.76,0,19
$GPRMC,124117.000,A,5130.0250,N,00000.5757,E,3.59,157.49,220616,,,A*6E,51.5004158020,0.0095950012,12:41:17,22/6/2016,9,1,14.67,314,26.17,513.18,0,19
$GPRMC,124118.000,A,5130.0231,N,00000.5779,E,3.77,157.59,220616,,,A*67,51.5003814697,0.0096316003,12:41:18,22/6/2016,9,6,14.92,325,26.17,513.53,0,19
$GPRMC,124119.000,A,5130.0218,N,00000.5792,E,3.51,166.10,220616,,,A*63,51.5003662109,0.0096533002,12:41:19,22/6/2016,9,15,13.75,291,26.17,514.22,0,19
$GPRMC,124120.000,A,5130.0206,N,00000.5797,E,3.90,172.84,220616,,,A*66,51.5003433227,0.0096616001,12:41:20,22/6/2016,9,2,17.83,265,26.17,512.91,0,19
$GPRMC,124121.000,A,5130.0201,N,00000.5799,E,3.28,171.83,220616,,,A*69,51.5003318786,0.0096650009,12:41:21,22/6/2016,9,14,16.16,322,26.17,513.29,0,19
$GPRMC,124122.000,A,5130.0194,N,00000.5801,E,2.95,173.15,220616,,,A*61,51.5003242492,0.0096683015,12:41:22,22/6/2016,9,10,19.61,292,26.17,513.13,0,19
$GPRMC,124123.000,A,5130.0188,N,00000.5805,E,3.48,157.35,220616,,,A*6C,51.5003089904,0.0096749992,12:41:23,22/6/2016,9,20,15.27,319,26.17,514.81,0,19
$GPRMC,124124.000,A,5130.0178,N,00000.5816,E,4.14,151.18,220616,,,A*61,51.5002937316,0.0096933002,12:41:24,22/6/2016,9,11,15.02,323,26.17,512.52,0,19
$GPRMC,124125.000,A,5130.0172,N,00000.5822,E,3.77,155.87,220616,,,A*6D,51.5002861022,0.0097033004,12:41:25,22/6/2016,9,7,15.33,331,26.17,513.30,0,19
$GPRMC,124126.000,A,5130.0165,N,00000.5825,E,3.36,161.90,220616,,,A*6B,51.5002784729,0.0097083005,12:41:26,22/6/2016,9,15,14.73,282,26.17,513.09,0,19
$GPRMC,124127.000,A,5130.0160,N,00000.5828,E,3.48,162.48,220616,,,A*6D,51.5002670288,0.0097133007,12:41:27,22/6/2016,9,13,15.61,330,26.17,514.49,0,19
$GPRMC,124128.000,A,5130.0169,N,00000.5822,E,3.01,160.70,220616,,,A*65,51.5002861022,0.0097033004,12:41:28,22/6/2016,9,9,15.19,325,26.17,515.98,0,19
$GPRMC,124129.000,A,5130.0168,N,00000.5822,E,2.44,167.58,220616,,,A*68,51.5002784729,0.0097033004,12:41:29,22/6/2016,9,14,14.63,282,26.17,515.89,0,19
$GPRMC,124130.000,A,5130.0166,N,00000.5825,E,2.15,152.80,220616,,,A*6E,51.5002784729,0.0097083005,12:41:30,22/6/2016,9,7,14.30,319,26.17,514.12,0,19
$GPRMC,124131.000,A,5130.0160,N,00000.5832,E,2.98,137.25,220616,,,A*66,51.5002670288,0.0097200002,12:41:31,22/6/2016,9,7,13.78,319,26.17,513.85,0,19
$GPRMC,124132.000,A,5130.0157,N,00000.5839,E,2.48,137.69,220616,,,A*6F,51.5002593994,0.0097316017,12:41:32,22/6/2016,9,157,16.40,317,27.15,514.80,0,19
$GPRMC,124133.000,A,5130.0149,N,00000.5846,E,2.83,140.95,220616,,,A*6D,51.5002517700,0.0097433004,12:41:33,22/6/2016,9,8,20.29,296,26.66,512.23,0,19
$GPRMC,124134.000,A,5130.0150,N,00000.5851,E,2.15,134.80,220616,,,A*6C,51.5002517700,0.0097516002,12:41:34,22/6/2016,10,5,17.59,318,26.17,514.23,0,19
$GPRMC,124135.000,A,5130.0147,N,00000.5855,E,2.12,131.31,220616,,,A*67,51.5002441406,0.0097582998,12:41:35,22/6/2016,11,14,15.31,309,26.66,514.25,0,19
$GPRMC,124136.000,A,5130.0142,N,00000.5863,E,2.28,137.94,220616,,,A*64,51.5002365112,0.0097716007,12:41:36,22/6/2016,12,0,16.93,288,26.17,515.09,0,19
$GPRMC,124137.000,A,5130.0135,N,00000.5871,E,2.77,142.04,220616,,,A*67,51.5002288818,0.0097849998,12:41:37,22/6/2016,13,12,14.38,320,26.17,512.92,0,19
$GPRMC,124138.000,A,5130.0130,N,00000.5877,E,2.83,146.91,220616,,,A*68,51.5002212524,0.0097949991,12:41:38,22/6/2016,11,10,15.92,315,26.17,512.16,0,19
$GPRMC,124139.000,A,5130.0123,N,00000.5879,E,2.82,160.61,220616,,,A*6F,51.5002021789,0.0097982997,12:41:39,22/6/2016,10,11,20.41,299,26.17,512.80,0,19
$GPRMC,124140.000,A,5130.0117,N,00000.5884,E,2.94,159.68,220616,,,A*60,51.5001945495,0.0098066005,12:41:40,22/6/2016,9,9,15.91,347,26.17,513.26,0,19
$GPRMC,124141.000,A,5130.0111,N,00000.5889,E,2.93,159.17,220616,,,A*65,51.5001869201,0.0098150005,12:41:41,22/6/2016,9,16,21.71,312,26.17,512.14,0,19
$GPRMC,124142.000,A,5130.0106,N,00000.5891,E,2.80,157.84,220616,,,A*6F,51.5001792907,0.0098183002,12:41:42,22/6/2016,9,6,21.27,321,26.17,513.67,0,19
$GPRMC,124143.000,A,5130.0103,N,00000.5893,E,2.49,155.54,220616,,,A*63,51.5001716613,0.0098215999,12:41:43,22/6/2016,9,22,14.42,278,26.17,513.31,0,19
$GPRMC,124144.000,A,5130.0095,N,00000.5897,E,2.64,151.22,220616,,,A*64,51.5001564025,0.0098282995,12:41:44,22/6/2016,9,10,16.23,323,25.68,517.34,0,19
$GPRMC,124145.000,A,5130.0089,N,00000.5897,E,2.39,154.20,220616,,,A*67,51.5001449584,0.0098282995,12:41:45,22/6/2016,9,49,22.39,332,25.68,514.35,0,19
$GPRMC,124146.000,A,5130.0081,N,00000.5897,E,2.27,160.04,220616,,,A*62,51.5001373291,0.0098282995,12:41:46,22/6/2016,9,33,31.47,272,26.66,509.81,0,19
$GPRMC,124147.000,A,5130.0069,N,00000.5898,E,2.64,166.05,220616,,,A*6A,51.5001144409,0.0098299989,12:41:47,22/6/2016,9,13,30.20,299,25.68,517.08,0,19
$GPRMC,124148.000,A,5130.0060,N,00000.5896,E,2.66,164.75,220616,,,A*65,51.5000991821,0.0098266010,12:41:48,22/6/2016,9,17,25.77,332,25.68,514.70,0,19
$GPRMC,124149.000,A,5130.0051,N,00000.5898,E,2.73,169.38,220616,,,A*68,51.5000801086,0.0098299989,12:41:49,22/6/2016,9,6,20.93,329,25.68,512.26,0,19
$GPRMC,124150.000,A,5130.0029,N,00000.5907,E,3.26,167.52,220616,,,A*6B,51.5000495910,0.0098450002,12:41:50,22/6/2016,9,3,15.69,267,25.68,513.39,0,19
$GPRMC,124151.000,A,5130.0008,N,00000.5916,E,3.41,163.16,220616,,,A*6C,51.5000152587,0.0098599996,12:41:51,22/6/2016,9,10,16.91,324,25.68,513.03,0,19
$GPRMC,124152.000,A,5129.9997,N,00000.5919,E,3.20,161.12,220616,,,A*6F,51.4999923706,0.0098650007,12:41:52,22/6/2016,9,19,15.66,314,25.68,513.02,0,19
$GPRMC,124153.000,A,5129.9987,N,00000.5922,E,2.86,158.03,220616,,,A*60,51.4999771118,0.0098700008,12:41:53,22/6/2016,9,4,19.50,293,25.68,513.65,0,19
$GPRMC,124154.000,A,5129.9976,N,00000.5928,E,2.93,151.28,220616,,,A*67,51.4999580383,0.0098800001,12:41:54,22/6/2016,9,21,17.11,317,25.68,512.16,0,19
$GPRMC,124155.000,A,5129.9964,N,00000.5936,E,3.10,145.65,220616,,,A*6C,51.4999427795,0.0098932991,12:41:55,22/6/2016,9,7,14.39,305,25.68,512.71,0,19
$GPRMC,124156.000,A,5129.9951,N,00000.5942,E,3.22,148.24,220616,,,A*63,51.4999198913,0.0099033002,12:41:56,22/6/2016,9,9,13.88,313,26.17,512.21,0,19
$GPRMC,124157.000,A,5129.9937,N,00000.5949,E,3.56,149.46,220616,,,A*6F,51.4998931884,0.0099149999,12:41:57,22/6/2016,9,0,14.28,262,26.17,514.71,0,19
