$GPRMC,124949.000,5130.1064,N,00000.3715,E,1,03,4.04,-20.3,M,47.0,M,,*77,51.5017738342,0.0061916007,12:49:49,23/3/2016,0,0
$GPRMC,124950.000,5130.1047,N,00000.3702,E,1,04,3.21,-16.3,M,47.0,M,,*7A,51.5017433166,0.0061700000,12:49:50,23/3/2016,0,0
$GPRMC,124951.000,5130.1035,N,00000.3695,E,1,04,3.20,-13.9,M,47.0,M,,*7F,51.5017242431,0.0061582999,12:49:51,23/3/2016,0,0
$GPGSV,124952.000,5130.1026,N,00000.3694,E,1,04,3.20,-12.0,M,47.0,M,,*77,51.5017089843,0.0061565999,12:49:52,23/3/2016,0,0
$GPRMC,124952.000,A,5130.1026,N,00000.3694,E,0.46,156.03,230316,,,A*6B,51.5017089843,0.0061565999,12:49:52,23/3/2016,0,0
$GPRGA,124953.000,5130.1024,N,00000.3704,E,1,04,3.20,-12.0,M,47.0,M,,*7C,51.5017089843,0.0061733002,12:49:53,23/3/2016,0,0
$GPRMC,124954.000,5130.1021,N,00000.3713,E,1,04,6.01,-12.5,M,47.0,M,,*7B,51.5017013549,0.0061883001,12:49:54,23/3/2016,0,0
$GPRGA,124955.000,5130.1021,N,00000.3727,E,1,04,3.20,-14.0,M,47.0,M,,*78,51.5017013549,0.0062116003,12:49:55,23/3/2016,0,0
$GPRGA,124956.000,5130.1018,N,00000.3756,E,1,04,3.20,-18.2,M,47.0,M,,*79,51.5016937255,0.0062600002,12:49:56,23/3/2016,0,0
$GPGSV,124957.000,5130.1017,N,00000.3767,E,1,04,3.20,-19.5,M,47.0,M,,*73,51.5016937255,0.0062783002,12:49:57,23/3/2016,0,0
$GPRMC,124957.000,A,5130.1017,N,00000.3767,E,0.30,195.93,230316,,,A*66,51.5016937255,0.0062783002,12:49:57,23/3/2016,0,0
$GPRMC,124958.000,5130.1011,N,00000.3800,E,1,04,3.20,-23.7,M,47.0,M,,*7F,51.5016860961,0.0063333005,12:49:58,23/3/2016,0,0
$GPRMC,124959.000,5130.1009,N,00000.3832,E,1,04,3.20,-27.0,M,47.0,M,,*75,51.5016860961,0.0063866004,12:49:59,23/3/2016,0,0
$GPRMC,125000.000,5130.1010,N,00000.3850,E,1,04,3.20,-28.2,M,47.0,M,,*70,51.5016860961,0.0064166011,12:50:0,23/3/2016,0,0
$GPRMC,125001.000,5130.1012,N,00000.3875,E,1,04,3.20,-30.3,M,47.0,M,,*7C,51.5016860961,0.0064583005,12:50:1,23/3/2016,0,0
$GPGSV,125002.000,5130.1014,N,00000.3900,E,1,04,3.20,-32.2,M,47.0,M,,*79,51.5016937255,0.0065000000,12:50:2,23/3/2016,0,0
$GPRMC,125002.000,A,5130.1014,N,00000.3900,E,0.07,191.07,230316,,,A*6F,51.5016937255,0.0065000000,12:50:2,23/3/2016,0,0
$GPRMC,125003.000,5130.1013,N,00000.3913,E,1,04,3.20,-32.7,M,47.0,M,,*78,51.5016860961,0.0065215997,12:50:3,23/3/2016,0,0
$GPRMA,125004.000,5130.1014,N,00000.3925,E,1,04,3.20,-33.2,M,47.0,M,,*79,51.5016937255,0.0065416007,12:50:4,23/3/2016,0,0
$GPRMC,125005.000,5130.1015,N,00000.3936,E,1,04,3.20,-33.6,M,47.0,M,,*7F,51.5016937255,0.0065600004,12:50:5,23/3/2016,0,0
$GPRMC,125006.000,5130.1017,N,00000.3943,E,E,04,3.20,-33.9,M,47.0,M,,*73,51.5016937255,0.0065715999,12:50:6,23/3/2016,0,0
$GPGSV,125007.000,5130.1020,N,00000.3948,E,1,04,3.20,-33.9,M,47.0,M,,*7D,51.5017013549,0.0065800004,12:50:7,23/3/2016,0,0
$GPRMC,125007.000,A,5130.1020,N,00000.3948,E,0.15,48.24,230316,,,A*56,51.5017013549,0.0065800004,12:50:7,23/3/2016,0,0
$GPRMC,125008.000,5130.1022,N,00000.3948,E,1,04,3.20,-33.3,M,47.0,M,,*7A,51.5017013549,0.0065800004,12:50:8,23/3/2016,0,0
$GPRMC,125009.000,5130.1025,N,00000.3939,E,1,04,3.20,-31.9,M,47.0,M,,*72,51.5017089843,0.0065649995,12:50:9,23/3/2016,0,0
$GPRMC,125010.000,5130.1024,N,00000.3927,E,1,04,3.20,-30.4,M,47.0,M,,*78,51.5017089843,0.0065450005,12:50:10,23/3/2016,0,0
$GPRMC,125011.000,5130.1028,N,00000.3909,E,1,04,3.20,-27.8,M,47.0,M,,*73,51.5017166137,0.0065150012,12:50:11,23/3/2016,0,0
$GPGSV,125012.000,5130.1030,N,00000.3901,E,1,04,6.00,-26.2,M,47.0,M,,*7D,51.5017166137,0.0065016002,12:50:12,23/3/2016,0,0
$GPRMC,125012.000,A,5130.1030,N,00000.3901,E,0.03,349.55,230316,,,A*6D,51.5017166137,0.0065016002,12:50:12,23/3/2016,0,0
$GPRMC,125013.000,5130.1039,N,00000.3895,E,1,04,5.99,-25.3,M,47.0,M,,*78,51.5017318725,0.0064916009,12:50:13,23/3/2016,0,0
$GPRMC,125014.000,5130.1037,N,00000.3883,E,1,04,6.00,-24.4,M,47.0,M,,*73,51.5017242431,0.0064715995,12:50:14,23/3/2016,0,0
$GPRMC,125015.000,5130.1042,N,00000.3871,E,1,04,3.20,-23.7,M,47.0,M,,*7E,51.5017318725,0.0064516000,12:50:15,23/3/2016,0,0
$GPRGA,125016.000,5130.1044,N,00000.3856,E,1,04,3.20,-22.9,M,47.0,M,,*71,51.5017433166,0.0064266004,12:50:16,23/3/2016,0,0
$GPGSV,125017.000,5130.1045,N,00000.3850,E,1,04,3.20,-22.0,M,47.0,M,,*7E,51.5017433166,0.0064166011,12:50:17,23/3/2016,0,0
$GPRMC,125017.000,A,5130.1045,N,00000.3850,E,0.39,26.49,230316,,,A*51,51.5017433166,0.0064166011,12:50:17,23/3/2016,0,0
$GPRMC,125018.000,5130.1046,N,00000.3842,E,1,04,3.20,-21.9,M,47.0,M,,*7B,51.5017433166,0.0064033002,12:50:18,23/3/2016,0,0
$GPRMC,125019.000,5130.1049,N,00000.3839,E,1,04,3.20,-21.9,M,47.0,M,,*79,51.5017509460,0.0063983001,12:50:19,23/3/2016,0,0
$GPRGA,125020.000,A,5130.1052,N,00000.38,E,1,04,5.99,-22.4,M,47.0,M,,*7F,51.5017509460,0.0063916006,12:50:20,23/3/2016,0,0
$GPRMC,125021.000,5130.1052,N,00000.3834,E,1,04,5.99,-22.9,M,47.0,M,,*72,51.5017509460,0.0063899998,12:50:21,23/3/2016,0,0
$GPGGA,125022.000,5130.1052,N,00000.3840,E,1,04,5.99,-23.3,M,47.0,M,,*79,51.5017509460,0.0063999996,12:50:22,23/3/2016,0,0
$GPRMC,125022.000,A,5130.1052,N,00000.3840,E,0.44,64.14,230316,,,A*54,51.5017509460,0.0063999996,12:50:22,23/3/2016,0,0
$GPRMC,125023.000,5130.1053,N,00000.0.3842,E,0.43.69,-24.1,M,47.0,M,,*70,51.5017585754,0.0064033002,12:50:23,23/3/2016,0,0
$GPRMC,125024.000,5130.1059,N,00000.3831,E,1,03,3.69,-24.7,M,47.0,M,,*7F,51.5017662048,0.0063849997,12:50:24,23/3/2016,0,0
$GPRMC,125025.000,5130.1056,N,00000.3829,E,1,04,3.20,-24.7,M,47.0,M,,*72,51.5017585754,0.0063816003,12:50:25,23/3/2016,0,0
$GPRGA,125026.000,5130.1060,N,00000.3821,E,1,04,3.20,-24.5,M,47.0,M,,*7E,51.5017662048,0.0063683004,12:50:26,23/3/2016,0,0
$GPGSV,125027.000,5130.1056,N,00000.3833,E,1,04,3.20,-24.3,M,47.0,M,,*7F,51.5017585754,0.0063882999,12:50:27,23/3/2016,0,0
$GPRMC,125027.000,A,5130.1056,N,00000.3833,E,0.18,122.20,230316,,,A*6C,51.5017585754,0.0063882999,12:50:27,23/3/2016,0,0
$GPRMC,125028.000,5130.1057,N,00000.3832,E,1,04,3.20,-23.9,M,47.0,M,,*7D,51.5017585754,0.0063866004,12:50:28,23/3/2016,0,0
$GPRMC,125029.000,5130.1053,N,00000.3838,E,1,04,3.19,-23.9,M,47.0,M,,*78,51.5017585754,0.0063965997,12:50:29,23/3/2016,0,0
$GPRMC,125030.000,5130.1050,N,00000.3842,E,1,04,3.19,-23.9,M,47.0,M,,*7E,51.5017509460,0.0064033002,12:50:30,23/3/2016,0,0
$GPRMC,125031.000,5130.1050,N,00000.3846,E,1,04,3.20,-23.8,M,47.0,M,,*70,51.5017509460,0.0064100003,12:50:31,23/3/2016,0,0
$GPGGA,125032.000,5130.1049,N,00000.3849,E,1,04,3.19,-23.6,M,47.0,M,,*70,51.5017509460,0.0064150004,12:50:32,23/3/2016,0,0
$GPRMC,125032.000,A,5130.1049,N,00000.3849,E,0.33,70.96,230316,,,A*59,51.5017509460,0.0064150004,12:50:32,23/3/2016,0,0
$GPRGA,125033.000,5130.1049,N,00000.3848,E,1,04,3.20,-23.4,M,47.0,M,,*78,51.5017509460,0.0064133000,12:50:33,23/3/2016,0,0
$GPRMC,125034.000,5130.1049,N,00000.3850,E,1,04,3.19,-23.4,M,47.0,M,,*7C,51.5017509460,0.0064166011,12:50:34,23/3/2016,0,0
$GPRMC,125035.000,5130.1048,N,00000.3845,E,1,04,3.19,-23.2,M,47.0,M,,*7E,51.5017509460,0.0064082994,12:50:35,23/3/2016,0,0
$GPRMC,125036.000,5130.1048,N,00000.3842,E,1,04,5.98,-22.9,M,47.0,M,,*7F,51.5017509460,0.0064033002,12:50:36,23/3/2016,0,0
$GPGSV,125037.000,5130.1044,N,00000.3839,E,1,04,3.19,-21.9,M,47.0,M,,*72,51.5017433166,0.0063983001,12:50:37,23/3/2016,0,0
$GPRMC,125037.000,A,5130.1044,N,00000.3839,E,0.45,128.54,230316,,,A*65,51.5017433166,0.0063983001,12:50:37,23/3/2016,0,0
$GPRMC,125038.000,5130.1041,N,00000.3823,E,1,04,3.19,-20.4,M,47.0,M,,*7F,51.5017318725,0.0063716006,12:50:38,23/3/2016,0,0
$GPRMC,125039.000,5130.1038,N,00000.3796,E,1,04,3.19,-17.6,M,47.0,M,,*77,51.5017318725,0.0063266000,12:50:39,23/3/2016,0,0
$GPRGA,125040.000,5130.1037,N,00000.3770,E,1,04,3.19,-15.6,M,47.0,M,,*7C,51.5017242431,0.0062832999,12:50:40,23/3/2016,0,0
$GPRMC,125041.000,515130.1033,N,00000.3744,E,04,3.19,-12.8,M,47.0,M,,*77,51.5017242431,0.0062400007,12:50:41,23/3/2016,0,0
$GPGSV,125042.000,5130.1031,N,00000.3721,E,1,04,3.19,-10.8,M,47.0,M,,*77,51.5017166137,0.0062016005,12:50:42,23/3/2016,0,0
$GPRMC,125042.000,A,5130.1031,N,00000.3721,E,0.24,297.91,230316,,,A*6A,51.5017166137,0.0062016005,12:50:42,23/3/2016,0,0
$GPRGA,125043.000,5130.1031,N,00000.3711,E,1,04,3.19,-10.0,M,47.0,M,,*7D,51.5017166137,0.0061850004,12:50:43,23/3/2016,0,0
$GPRMA,125044.000,5130.1032,N,00000.3698,E,1,04,3.19,-9.3,M,47.0,M,,*42,51.5017166137,0.0061632995,12:50:44,23/3/2016,0,0
$GPRMA,125045.000,5130.1030,N,00000.3689,E,1,04,3.19,-8.4,M,47.0,M,,*47,51.5017166137,0.0061483001,12:50:45,23/3/2016,0,0
$GPRMA,125046.000,5130.1029,N,00000.3680,E,1,04,3.19,-7.5,M,47.0,M,,*4B,51.5017166137,0.0061332998,12:50:46,23/3/2016,0,0
$GPGSA,125047.000,5130.1027,N,00000.3674,E,1,04,3.19,-6.9,M,47.0,M,,*42,51.5017089843,0.0061233000,12:50:47,23/3/2016,0,0
$GPRMC,125047.000,A,5130.1027,N,00000.3674,E,0.50,217.23,230316,,,A*6B,51.5017089843,0.0061233000,12:50:47,23/3/2016,0,0
$GPRMA,125048.000,5130.1026,N,00000.3663,E,1,04,3.19,-5.6,M,47.0,M,,*46,51.5017089843,0.0061050004,12:50:48,23/3/2016,0,0
$GPRMA,125049.000,5130.1026,N,00000.3661,E,1,04,3.19,-5.3,M,47.0,M,,*40,51.5017089843,0.0061016006,12:50:49,23/3/2016,0,0
$GPRMA,125050.000,5130.1027,N,00000.3660,E,1,04,3.19,-5.2,M,47.0,M,,*49,51.5017089843,0.0061000003,12:50:50,23/3/2016,0,0
$GPRMA,125051.000,5130.1028,N,00000.3657,E,1,04,3.19,-5.1,M,47.0,M,,*40,51.5017166137,0.0060949997,12:50:51,23/3/2016,0,0
$GPGSA,125052.000,5130.1028,N,00000.3655,E,1,04,3.19,-5.0,M,47.0,M,,*40,51.5017166137,0.0060915999,12:50:52,23/3/2016,0,0
$GPRMC,125052.000,A,5130.1028,N,00000.3655,E,0.24,215.84,230316,,,A*6F,51.5017166137,0.0060915999,12:50:52,23/3/2016,0,0
$GPRMA,125053.000,5130.1028,N,00000.3655,E,1,04,3.19,-4.9,M,47.0,M,,*49,51.5017166137,0.0060915999,12:50:53,23/3/2016,0,0
$GPRMA,125054.000,5130.1027,N,00000.3657,E,1,04,3.19,-4.9,M,47.0,M,,*43,51.5017089843,0.0060949997,12:50:54,23/3/2016,0,0
$GPRMA,125055.000,5130.1026,N,00000.3657,E,1,04,3.19,-4.8,M,47.0,M,,*42,51.5017089843,0.0060949997,12:50:55,23/3/2016,0,0
$GPRMA,125056.000,5130.1026,N,00000.3655,E,1,04,3.19,-4.8,M,47.0,M,,*43,51.5017089843,0.0060915999,12:50:56,23/3/2016,0,0
$GPGSA,125057.000,5130.1025,N,00000.3654,E,1,04,3.19,-4.8,M,47.0,M,,*40,51.5017089843,0.0060900001,12:50:57,23/3/2016,0,0
$GPRMC,125057.000,A,5130.1025,N,00000.3654,E,0.22,199.12,230316,,,A*68,51.5017089843,0.0060900001,12:50:57,23/3/2016,0,0
$GPRMA,125058.000,5,5130.1024,N,00000.365E,1,04,3.19,-4.8,M,47.0,M,,*4F,51.5017089843,0.0060915999,12:50:58,23/3/2016,0,0
$GPRMA,125059.000,5130.1022,N,00000.3659,E,1,04,3.19,-4.8,M,47.0,M,,*44,51.5017013549,0.0060982999,12:50:59,23/3/2016,0,0
$GPRMA,125100.000,5130.1019,N,00000.3665,E,1,04,3.19,-4.8,M,47.0,M,,*4E,51.5017013549,0.0061083006,12:51:0,23/3/2016,0,0
$GPRMC,125101.000,5130.1018,N,00000.3667,E,1,03,3.66,-4.9,M,47.0,M,,*42,51.5016937255,0.0061115999,12:51:1,23/3/2016,0,0
$GPGSA,125102.000,5130.1016,N,00000.3670,E,1,04,3.19,-5.0,M,47.0,M,,*4E,51.5016937255,0.0061166000,12:51:2,23/3/2016,0,0
$GPRMC,125102.000,A,5130.1016,N,00000.3670,E,0.61,127.91,230316,,,A*66,51.5016937255,0.0061166000,12:51:2,23/3/2016,0,0
$GPRMA,125103.000,5130.1012,N,00000.3665,E,1,04,3.19,-5.1,M,47.0,M,,*4E,51.5016860961,0.0061083006,12:51:3,23/3/2016,0,0
$GPRMA,125104.000,5130.1010,N,00000.3661,E,1,04,3.19,-5.2,M,47.0,M,,*4C,51.5016860961,0.0061016006,12:51:4,23/3/2016,0,0
$GPRMA,125105.000,5130.1009,N,00000.3656,E,1,04,3.19,-5.5,M,47.0,M,,*46,51.5016860961,0.0060933008,12:51:5,23/3/2016,0,0
$GPRMA,125106.000,5130.1009,N,00000.3651,E,1,04,3.19,-5.6,M,47.0,M,,*41,51.5016860961,0.0060850005,12:51:6,23/3/2016,0,0
$GPGSA,125107.000,5130.1011,N,00000.3644,E,1,04,3.19,-5.9,M,47.0,M,,*42,51.5016860961,0.0060733003,12:51:7,23/3/2016,0,0
$GPRMC,125107.000,A,5130.1011,N,00000.3644,E,1.04,256.12,230316,,,A*6F,51.5016860961,0.0060733003,12:51:7,23/3/2016,0,0
$GPRMA,125108.000,5130.1012,N,00000.3638,E,1,04,3.19,-6.3,M,47.0,M,,*4C,51.5016860961,0.0060633001,12:51:8,23/3/2016,0,0
$GPRMA,125109.000,5130.1012,N,00000.3630,E,1,04,3.19,-6.6,M,47.0,M,,*40,51.5016860961,0.0060500001,12:51:9,23/3/2016,0,0
$GPRMA,125110.000,5130.1011,N,00000.3624,E,1,04,3.19,-6.9,M,47.0,M,,*41,51.5016860961,0.0060400004,12:51:10,23/3/2016,0,0
$GPRMA,125111.000,5130.1011,N,00000.3616,E,1,04,3.19,-7.2,M,47.0,M,,*4B,51.5016860961,0.0060266008,12:51:11,23/3/2016,0,0
$GPGSA,125112.000,5130.1010,N,00000.3607,E,1,04,3.18,-7.3,M,47.0,M,,*49,51.5016860961,0.0060116000,12:51:12,23/3/2016,0,0
$GPRMC,125112.000,A,5130.1010,N,00000.3607,E,1.60,239.30,230316,,,A*66,51.5016860961,0.0060116000,12:51:12,23/3/2016,0,0
$GPRMA,125113.000,5130.1007,N,00000.3595,E,1,04,3.19,-6.9,M,47.0,M,,*4C,51.5016746520,0.0059916009,12:51:13,23/3/2016,0,0
$GPRMA,125114.000,5130.1005,N,00000.3586,E,1,04,3.18,-6.7,M,47.0,M,,*44,51.5016746520,0.0059766006,12:51:14,23/3/2016,0,0
$GPRMA,125115.000,5130.1006,N,00000.3565,E,1,04,3.19,-5.7,M,47.0,M,,*49,51.5016746520,0.0059416003,12:51:15,23/3/2016,0,0
$GPRMA,125116.000,5130.0999,N,0000000.35,E,1,04,3.18,-3.8,M,47.0,M,,*45,51.5016670227,0.0058983001,12:51:16,23/3/2016,0,0
$GPGSA,125117.000,5130.0995,N,00000.3524,E,1,04,3.18,-3.0,M,47.0,M,,*4C,51.5016593933,0.0058732995,12:51:17,23/3/2016,0,0
$GPRMC,125117.000,A,5130.0995,N,00000.3524,E,1.85,229.63,230316,,,A*68,51.5016593933,0.0058732995,12:51:17,23/3/2016,0,0
$GPRMA,125118.000,5130.0992,N,00000.3504,E,1,04,3.18,-2.0,M,47.0,M,,*47,51.5016517639,0.0058400001,12:51:18,23/3/2016,0,0
$GPRMA,125119.000,5130.0985,N,00000.3473,E,1,04,3.18,-0.4,M,47.0,M,,*47,51.5016441345,0.0057883005,12:51:19,23/3/2016,0,0
$GPRMC,125120.000,5130.0979,N,00000.3450,E,1,04,3.18,1.2,M,47.0,M,,*65,51.5016288757,0.0057500000,12:51:20,23/3/2016,0,0
$GPRMC,125121.000,5130.0973,N,00000.3427,E,1,04,3.18,2.7,M,47.0,M,,*68,51.5016212463,0.0057116003,12:51:21,23/3/2016,0,0
$GPGSV,125122.000,5130.0970,N,00000.3413,E,1,04,3.18,3.5,M,47.0,M,,*6C,51.5016212463,0.0056883001,12:51:22,23/3/2016,0,0
$GPRMC,125122.000,A,5130.0970,N,00000.3413,E,1.94,230.77,230316,,,A*6D,51.5016212463,0.0056883001,12:51:22,23/3/2016,0,0
$GPRMC,125123.000,5130.0966,N,00000.3395,E,1,04,3.18,4.5,M,47.0,M,,*64,51.5016098022,0.0056582999,12:51:23,23/3/2016,0,0
$GPRMC,125124.000,5130.0963,N,00000.3377,E,1,04,3.18,5.3,M,47.0,M,,*6D,51.5016021728,0.0056283001,12:51:24,23/3/2016,0,0
$GPRMC,125125.000,5130.0961,N,00000.3357,E,1,04,3.18,6.4,M,47.0,M,,*68,51.5016021728,0.0055949997,12:51:25,23/3/2016,0,0
$GPRMC,125126.000,5130.0956,N,00000.3340,E,1,04,3.18,7.6,M,47.0,M,,*6A,51.5015945434,0.0055665998,12:51:26,23/3/2016,0,0
$GPGSV,125127.000,5130.0954,N,00000.3318,E,1,04,3.18,8.7,M,47.0,M,,*6A,51.5015869140,0.0055300002,12:51:27,23/3/2016,0,0
$GPRMC,125127.000,A,5130.0954,N,00000.3318,E,1.91,241.11,230316,,,A*61,51.5015869140,0.0055300002,12:51:27,23/3/2016,0,0
$GPRMA,125128.000,5130.0948,N,00000.3299,E,1,04,3.18,10.0,M,47.0,M,,*5E,51.5015792846,0.0054982995,12:51:28,23/3/2016,0,0
$GPRMA,125129.000,5130.0945,N,00000.3284,E,1,04,3.18,10.9,M,47.0,M,,*57,51.5015792846,0.0054732999,12:51:29,23/3/2016,0,0
$GPRMA,125130.000,A,5130.0942,N,00000.326E,1,04,3.18,11.6,M,47.0,M,,*54,51.5015716552,0.0054466004,12:51:30,23/3/2016,0,0
$GPRMA,125131.000,5130.0938,N,00000.3251,E,1,04,3.18,12.6,M,47.0,M,,*51,51.5015640258,0.0054183001,12:51:31,23/3/2016,0,0
$GPGSA,125132.000,5130.0933,N,00000.3237,E,1,04,3.18,13.4,M,47.0,M,,*5A,51.5015525817,0.0053950004,12:51:32,23/3/2016,0,0
$GPRMC,125132.000,A,5130.0933,N,00000.3237,E,1.85,221.05,230316,,,A*6E,51.5015525817,0.0053950004,12:51:32,23/3/2016,0,0
$GPRMA,125133.000,5130.0932,N,00000.3225,E,1,04,3.18,13.8,M,47.0,M,,*55,51.5015525817,0.0053750000,12:51:33,23/3/2016,0,0
$GPRMA,125134.000,5130.0931,N,00000.3209,E,1,04,3.18,14.1,M,47.0,M,,*51,51.5015525817,0.0053483004,12:51:34,23/3/2016,0,0
$GPRMA,125135.000,5130.0931,N,00000.3195,E,1,04,3.18,14.2,M,47.0,M,,*55,51.5015525817,0.0053250002,12:51:35,23/3/2016,0,0
$GPRMA,125136.000,5130.0931,N,00000.3184,E,1,04,3.18,14.2,M,47.0,M,,*56,51.5015525817,0.0053066005,12:51:36,23/3/2016,0,0
$GPGSA,125137.000,5130.0929,N,00000.3173,E,1,04,3.18,14.3,M,47.0,M,,*57,51.5015449523,0.0052883005,12:51:37,23/3/2016,3,3
$GPRMC,125137.000,A,5130.0929,N,00000.3173,E,1.92,233.34,230316,,,A*64,51.5015449523,0.0052883005,12:51:37,23/3/2016,0,3
$GPRMA,125138.000,5130.0927,N,00000.3161,E,1,04,3.18,14.4,M,47.0,M,,*52,51.5015449523,0.0052683000,12:51:38,23/3/2016,0,3
$GPRMC,125139.000,5130.0924,N,00000.3152,E,1,04,3.18,14.3,M,47.0,M,,*57,51.5015373229,0.0052533001,12:51:39,23/3/2016,0,3
$GPRMA,125140.000,5130.0920,N,00000.3144,E,1,04,3.18,14.3,M,47.0,M,,*5A,51.5015296936,0.0052400007,12:51:40,23/3/2016,0,3
$GPRMA,125141.000,5130.0916,N,00000.3137,E,1,04,3.18,14.2,M,47.0,M,,*5B,51.5015296936,0.0052283000,12:51:41,23/3/2016,0,3
$GPGSA,125142.000,5130.0911,N,00000.3128,E,1,04,3.18,14.1,M,47.0,M,,*52,51.5015220642,0.0052132997,12:51:42,23/3/2016,0,3
$GPRMC,125142.000,A,5130.0911,N,00000.3128,E,2.30,211.27,230316,,,A*6A,51.5015220642,0.0052132997,12:51:42,23/3/2016,0,3
$GPRMA,125143.000,5130.0907,N,00000.3122,E,1,04,3.18,14.0,M,47.0,M,,*5F,51.5015144348,0.0052032999,12:51:43,23/3/2016,1,4
$GPRMA,125144.000,5130.0903,N,00000.3114,E,1,04,3.18,14.1,M,47.0,M,,*58,51.5015068054,0.0051900000,12:51:44,23/3/2016,0,4
$GPRMA,125145.000,5130.0898,N,00000.3105,E,1,04,3.18,14.1,M,47.0,M,,*5A,51.5014991760,0.0051750001,12:51:45,23/3/2016,0,4
$GPRMA,125146.000,5130.0894,N,00000.3100,E,1,04,3.18,13.8,M,47.0,M,,*5E,51.5014877319,0.0051665997,12:51:46,23/3/2016,0,4
$GPGSA,125147.000,5130.0891,N,00000.3093,E,1,04,3.18,13.6,M,47.0,M,,*5F,51.5014801025,0.0051550002,12:51:47,23/3/2016,0,4
$GPRMC,125147.000,A,5130.0891,N,00000.3093,E,2.20,205.97,230316,,,A*68,51.5014801025,0.0051550002,12:51:47,23/3/2016,0,4
$GPRMA,125148.000,5130.0887,N,00000.3086,E,1,04,3.18,13.7,M,47.0,M,,*52,51.5014801025,0.0051433000,12:51:48,23/3/2016,0,4
$GPRMA,125149.000,5130.0882,N,00000.3079,E,1,04,3.18,14.0,M,47.0,M,,*56,51.5014724731,0.0051316003,12:51:49,23/3/2016,0,4
$GPRMA,125150.000,5130.0876,N,00000.3071,E,1,04,3.18,14.2,M,47.0,M,,*5F,51.5014572143,0.0051182994,12:51:50,23/3/2016,0,4
$GPRMA,125151.000,5130.0871,N,00000.3066,E,1,04,3.18,14.0,M,47.0,M,,*5D,51.5014495849,0.0051100006,12:51:51,23/3/2016,0,4
$GPGSA,125152.000,5130.0867,N,00000.3062,E,1,04,3.18,13.9,M,47.0,M,,*53,51.5014495849,0.0051032996,12:51:52,23/3/2016,0,4
$GPRMC,125152.000,A,5130.0867,N,00000.3062,E,1.59,190.46,230316,,,A*65,51.5014495849,0.0051032996,12:51:52,23/3/2016,0,4
$GPRMA,125153.000,5130.0863,N,00000.3059,E,1,04,3.18,13.7,M,47.0,M,,*50,51.5014419555,0.0050982999,12:51:53,23/3/2016,0,4
$GPRMA,125154.000,5130.0859,N,00000.3056,E,1,04,3.17,13.5,M,47.0,M,,66
,51.5014305114,0.0050933003,12:51:54,23/3/2016,1,5
$GPRMA,125155.000,5130.0856,N,00000.3053,E,1,04,3.18,13.2,M,47.0,M,,*5F,51.5014228820,0.0050883002,12:51:55,23/3/2016,0,5
$GPRMA,125156.000,5130.0852,N,00000.3049,E,1,04,3.17,13.0,M,47.0,M,,*5E,51.5014152526,0.0050816001,12:51:56,23/3/2016,0,5
$GPGSA,125157.000,5130.0847,N,00000.3045,E,1,04,3.18,12.9,M,47.0,M,,*50,51.5014076232,0.0050750007,12:51:57,23/3/2016,0,5
$GPRMC,125157.000,A,5130.0847,N,00000.3045,E,1.99,191.71,230316,,,A*6E,51.5014076232,0.0050750007,12:51:57,23/3/2016,0,5
$GPRMA,125158.000,5130.0843,N,00000.3041,E,1,04,3.17,12.9,M,47.0,M,,*50,51.5014076232,0.0050683002,12:51:58,23/3/2016,0,5
$GPRMA,125159.000,5130.0838,N,00000.3036,E,1,04,3.17,12.8,M,47.0,M,,*5C,51.5013999938,0.0050600004,12:51:59,23/3/2016,0,5
$GPRMA,125200.000,5130.0833,N,00000.3031,E,1,04,3.17,12.6,M,47.0,M,,*51,51.5013923645,0.0050515995,12:52:0,23/3/2016,0,5
$GPRMA,125201.000,5130.0828,N,00000.3028,E,1,04,3.17,12.3,M,47.0,M,,*57,51.5013847351,0.0050466003,12:52:1,23/3/2016,0,5
$GPGSA,125202.000,5130.0824,N,00000.3025,E,1,04,3.17,12.0,M,47.0,M,,*56,51.5013771057,0.0050415997,12:52:2,23/3/2016,0,5
$GPRMC,125202.000,A,5130.0824,N,00000.3025,E,2.25,200.67,230316,,,A*66,51.5013771057,0.0050415997,12:52:2,23/3/2016,0,5
$GPRMC,125203.000,5130.0817,N,00000.2980,E,1,05,1.81,15.2,M,47.0,M,,*59,51.5013580322,0.0049666004,12:52:3,23/3/2016,0,5
$GPRMC,125204.000,5130.0812,N,00000.2960,E,1,05,1.81,16.4,M,47.0,M,,*50,51.5013504028,0.0049333000,12:52:4,23/3/2016,1,6
$GPRMC,125205.000,5130.080807,N,00000.2948,E,2.20,196.36,23031.0,M,,*5A,51.5013427734,0.0049133005,12:52:5,23/3/2016,0,6
$GPRMC,125206.000,5130.0801,N,00000.2941,E,1,05,1.81,17.3,M,47.0,M,,*55,51.5013351440,0.0049016003,12:52:6,23/3/2016,0,6
$GPGSV,3,1,10,150,5130.0795,N,00000.2937,E,1,05,1.81,17.3,M,47.0,M,,*57,51.5013275146,0.0048949999,12:52:7,23/3/2016,0,6
$GPRMC,125207.000,A,5130.0795,N,00000.2937,E,2.20,198.33,230316,,,A*6B,51.5013275146,0.0048949999,12:52:7,23/3/2016,0,6
$GPRMC,125208.000,5130.0789,N,00000.2933,E,1,05,1.81,179,23031.0,M,,*56,51.5013198852,0.0048883004,12:52:8,23/3/2016,0,6
$GPRMC,125209.000,5130.0784,N,00000.2928,E,1,05,1.81,17.5,M,47.0,M,,*51,51.5013084411,0.0048800001,12:52:9,23/3/2016,0,6
$GPRMC,125210.000,5130.0778,N,00000.2923,E,1,05,1.81,17.6,M,47.0,M,,*52,51.5012931823,0.0048716001,12:52:10,23/3/2016,0,6
$GPRMC,125211.000,5130.0771,N,00000.2917,E,1,05,1.81,17.7,M,47.0,M,,*5C,51.5012855529,0.0048616003,12:52:11,23/3/2016,0,6
$GPGSV,3,1,10,150,5130.0768,N,00000.2912,E,1,05,1.81,17.7,M,47.0,M,,*52,51.5012779235,0.0048533005,12:52:12,23/3/2016,0,6
$GPRMC,125212.000,A,5130.0768,N,00000.2912,E,1.67,215.35,230316,,,A*6A,51.5012779235,0.0048533005,12:52:12,23/3/2016,0,6
$GPRMC,125213.000,5130.0764,N,00000.2908,E,1,05,1.81,17.5,M,47.0,M,,*56,51.5012702941,0.0048466005,12:52:13,23/3/2016,0,6
$GPRMC,125214.000,5130.0759,N,00000.2904,E,1,05,1.81,17.4,M,47.0,M,,*52,51.5012626647,0.0048400001,12:52:14,23/3/2016,0,6
$GPRMC,125215.000,5130.0753,N,00000.2899,E,1,05,1.81,17.4,M,47.0,M,,*5C,51.5012550354,0.0048316001,12:52:15,23/3/2016,0,6
$GPRMC,125216.000,5130.0748,N,00000.2896,E,1,05,1.81,17.4,M,47.0,M,,*5A,51.5012435913,0.0048266000,12:52:16,23/3/2016,0,6
$GPGSV,3,1,10,150,5130.0742,N,00000.2892,E,1,05,1.81,17.5,M,47.0,M,,*54,51.5012359619,0.0048199996,12:52:17,23/3/2016,0,6
$GPRMC,125217.000,A,5130.0742,N,00000.2892,E,2.48,194.66,230316,,,A*6C,51.5012359619,0.0048199996,12:52:17,23/3/2016,0,6
$GPRMC,125218.000,5130.0738,N,00000.2890,E,1,05,1.81,17.6,M,47.0,M,,*57,51.5012283325,0.0048165998,12:52:18,23/3/2016,0,6
$GPRMC,125219.000,A,5130.0733,N,00000.2887,E,2.30,195.05,23031.0,M,,*55,51.5012207031,0.0048116002,12:52:19,23/3/2016,0,6
$GPRMC,125220.000,5130.0727,N,00000.2884,E,1,05,1.81,17.8,M,47.0,M,,*59,51.5012130737,0.0048066000,12:52:20,23/3/2016,0,6
$GPRMC,125221.000,5130.0721,N,00000.2882,E,1,05,1.81,17.8,M,47.0,M,,*58,51.5012054443,0.0048033003,12:52:21,23/3/2016,0,6
$GPGSV,3,1,10,150,5130.0716,N,00000.2880,E,1,05,1.81,17.7,M,47.0,M,,*52,51.5011978149,0.0048000001,12:52:22,23/3/2016,0,6
$GPRMC,125222.000,A,5130.0716,N,00000.2880,E,1.63,214.51,230316,,,A*6D,51.5011978149,0.0048000001,12:52:22,23/3/2016,0,6
$GPRMC,125223.000,5130.0711,N,00000.2877,E,1,05,1.81,17.4,M,47.0,M,,*5F,51.5011863708,0.0047950000,12:52:23,23/3/2016,0,6
$GPRMC,125224.000,5130.0704,N,00000.2876,E,1,05,1.81,17.2,M,47.0,M,,*5B,51.5011711120,0.0047933006,12:52:24,23/3/2016,0,6
$GPRMC,125225.000,5130.0699,N,00000.2876,E,1,05,1.81,16.9,M,47.0,M,,*55,51.5011634826,0.0047933006,12:52:25,23/3/2016,0,6
$GPRMC,125226.000,5130.0693,N,00000.2874,E,1,05,1.81,16.8,3031.0,M,,*5F,51.5011558532,0.0047900004,12:52:26,23/3/2016,0,6
$GPGSV,3,1,10,150,5130.0687,N,00000.2870,E,1,05,1.81,16.7,M,47.0,M,,*50,51.5011482238,0.0047833003,12:52:27,23/3/2016,0,6
$GPRMC,125227.000,A,5130.0687,N,00000.2870,E,2.57,199.47,230316,,,A*6B,51.5011482238,0.0047833003,12:52:27,23/3/2016,0,6
$GPRMC,125228.000,5130.0681,N,00000.2867,E,1,05,1.81,16.6,M,47.0,M,,*5E,51.5011329650,0.0047783002,12:52:28,23/3/2016,0,6
$GPRMC,125229.000,5130.0676,N,00000.2863,E,1,05,1.81,16.5,M,47.0,M,,*50,51.5011215209,0.0047715997,12:52:29,23/3/2016,0,6
$GPRMC,125230.000,5130.0672,N,00000.2859,E,1,05,1.81,16.3,M,47.0,M,,*53,51.5011215209,0.0047649998,12:52:30,23/3/2016,0,6
$GPRMC,125231.000,5130.0667,N,00000.2854,E,1,05,1.81,16.1,M,47.0,M,,*59,51.5011138916,0.0047565999,12:52:31,23/3/2016,0,6
$GPGSV,3,1,10,150,5130.0663,N,00000.2849,E,1,05,1.81,15.8,M,47.0,M,,*58,51.5011062622,0.0047483000,12:52:32,23/3/2016,0,6
$GPRMC,125232.000,A,5130.0663,N,00000.2849,E,1.76,218.67,230316,,,A*67,51.5011062622,0.0047483000,12:52:32,23/3/2016,0,6
$GPRMC,125233.000,5130.0660,N,00000.2846,E,1,05,1.81,15.6,M,47.0,M,,*5B,51.5010986328,0.0047433004,12:52:33,23/3/2016,0,6
$GPRMC,125234.000,5130.0656,N,00000.2843,E,1,05,1.81,15.4,M,47.0,M,,*5E,51.5010910034,0.0047383003,12:52:34,23/3/2016,0,6
$GPRMC,125235.000,5130.0651,N,00000.2841,E,1,05,1.81,15.1,M,47.0,M,,*5F,51.5010833740,0.0047350001,12:52:35,23/3/2016,0,6
$GPRMC,125236.000,5130.0645,N,00000.2839,E,1,05,1.81,14.9,M,47.0,M,,*5F,51.5010757446,0.0047315998,12:52:36,23/3/2016,0,6
$GPGSV,3,1,10,15,73,268,40,13,60,128,38,28,44,058,30,24,41,267.0,M,,*5A,51.5010643005,0.0047300004,12:52:37,23/3/2016,0,6
$GPRMC,125237.000,A,5130.0639,N,00000.2838,E,2.10,188.30,230316,,,A*60,51.5010643005,0.0047300004,12:52:37,23/3/2016,0,6
$GPRMC,125238.000,5130.0634,N,00000.2837,E,1,05,1.81,14.4,M,47.0,M,,*54,51.5010566711,0.0047283005,12:52:38,23/3/2016,0,6
$GPRMC,125239.000,5130.0628,N,00000.2835,E,1,05,1.81,14.1,M,47.0,M,,*5F,51.5010490417,0.0047250003,12:52:39,23/3/2016,0,6
$GPRMC,125240.000,5130.0624,N,0000000.2834,E,1.49,190.69,23031.0,M,,*53,51.5010414123,0.0047232999,12:52:40,23/3/2016,1,7
$GPRMC,125241.000,5130.0620,N,00000.2833,E,1,05,1.81,13.7,M,47.0,M,,*5F,51.5010337829,0.0047216000,12:52:41,23/3/2016,0,7
$GPGSV,3,1,10,150,5130.0614,N,00000.2831,E,1,05,1.81,13.4,M,47.0,M,,*5A,51.5010261535,0.0047183003,12:52:42,23/3/2016,0,7
$GPRMC,125242.000,A,5130.0614,N,00000.2831,E,1.90,189.13,230316,,,A*6F,51.5010261535,0.0047183003,12:52:42,23/3/2016,0,7
$GPRMC,125243.000,5130.0608,N,00000.2831,E,1,05,1.81,13.3,M,31.0,M,,*51,51.5010185241,0.0047183003,12:52:43,23/3/2016,0,7
$GPRMC,125244.000,5130.0604,N,00000.2828,E,1,05,1.81,13.1,M,47.0,M,,*50,51.5010108947,0.0047133002,12:52:44,23/3/2016,0,7
$GPRMC,125245.000,5130.0598,N,00000.2824,E,1,05,1.81,13.0,M,47.0,M,,*5A,51.5009918212,0.0047066001,12:52:45,23/3/2016,0,7
$GPRMC,125246.000,5130.0593,N,00000.2821,E,1,05,1.81,12.9,M,47.0,M,,*5F,51.5009841918,0.0047015995,12:52:46,23/3/2016,0,7
$GPGSV,3,1,10,150,5130.0588,N,00000.2818,E,1,05,1.81,12.8,M,47.0,M,,*5F,51.5009765625,0.0046965999,12:52:47,23/3/2016,0,7
$GPRMC,125247.000,A,5130.0588,N,00000.2818,E,1.97,194.82,230316,,,A*64,51.5009765625,0.0046965999,12:52:47,23/3/2016,0,7
$GPRMC,125248.000,5130.0582,N,00000.2814,E,1,05,1.81,12.6,M,47.0,M,,*58,51.5009689331,0.0046899995,12:52:48,23/3/2016,0,7
$GPRMC,125249.000,5130.0579,N,00000.2811,E,1,05,1.81,12.5,M,47.0,M,,*5B,51.5009689331,0.0046849999,12:52:49,23/3/2016,0,7
$GPRMC,125250.000,5130.0573,N,00000.2808,E,1,05,1.81,12.4,M,47.0,M,,*50,51.5009536743,0.0046800003,12:52:50,23/3/2016,0,7
$GPRMC,125251.000,5130.0568,N,00000.2805,E,1,05,1.81,12.2,M,47.0,M,,*50,51.5009422302,0.0046750006,12:52:51,23/3/2016,0,7
$GPGSV,3,1,10,15,,5130.0563,N,00000.2801,E,1,05,1.81,12.0,M,47.0,M,,*5E,51.5009346008,0.0046683006,12:52:52,23/3/2016,0,7
$GPRMC,125252.000,A,5130.0563,N,00000.2801,E,2.10,203.89,230316,,,A*67,51.5009346008,0.0046683006,12:52:52,23/3/2016,0,7
$GPRMC,125253.000,5130.0557,N,00000.2797,E,1,05,1.81,11.8,M,47.0,M,,*53,51.5009269714,0.0046616001,12:52:53,23/3/2016,0,7
$GPRMC,125254.000,A,5130.0552,N,00000.2794,E,2.17,202.98,23037.0,M,,*5C,51.5009193420,0.0046565999,12:52:54,23/3/2016,0,7
$GPRMC,125255.000,5130.0548,N,00000.2789,E,1,05,1.81,11.4,M,47.0,M,,*58,51.5009117126,0.0046482996,12:52:55,23/3/2016,0,7
$GPRMC,125256.000,5130.0544,N,00000.2783,E,1,05,1.81,11.2,M,47.0,M,,*5B,51.5009040832,0.0046382999,12:52:56,23/3/2016,0,7
$GPGSV,3,1,10,150,5130.0539,N,00000.2778,E,1,05,1.81,11.0,M,47.0,M,,*56,51.5008964538,0.0046300001,12:52:57,23/3/2016,0,7
$GPRMC,125257.000,A,5130.0539,N,00000.2778,E,2.04,216.74,230316,,,A*6F,51.5008964538,0.0046300001,12:52:57,23/3/2016,0,7
$GPRMC,125258.000,5130.0533,N,00000.2772,E,1,05,1.81,10.9,M,47.0,M,,*51,51.5008888244,0.0046200003,12:52:58,23/3/2016,0,7
$GPRMC,125259.000,5130.0529,N,00000.2767,E,1,05,1.81,10.8,M,47.0,M,,*5E,51.5008773803,0.0046115999,12:52:59,23/3/2016,0,7
$GPRMC,125300.000,5130.0523,N,00000.2763,E,1,05,1.81,10.6,M,47.0,M,,*53,51.5008697509,0.0046050004,12:53:0,23/3/2016,1,8
$GPRMC,125301.000,5130.0519,N,00000.2757,E,1,05,1.81,10.5,M,4760,M,,*5F,51.5008621215,0.0045949997,12:53:1,23/3/2016,0,8
$GPGSV,3,1,10,150,5130.0514,N,00000.2752,E,1,05,1.81,10.3,M,47.0,M,,*52,51.5008544921,0.0045866003,12:53:2,23/3/2016,0,8
$GPRMC,125302.000,A,5130.0514,N,00000.2752,E,2.08,221.04,230316,,,A*66,51.5008544921,0.0045866003,12:53:2,23/3/2016,0,8
$GPRMC,125303.000,5130.0512,N,00000.2746,E,1,04,2.50,10.1,M,47.0,M,,*5C,51.5008544921,0.0045766000,12:53:3,23/3/2016,0,8
$GPRMC,125304.000,5130.0506,N,00000.2741,E,1,05,1.81,9.9,M,47.0,M,,*67,51.5008468627,0.0045683002,12:53:4,23/3/2016,0,8
$GPRMC,125305.000,5130.0501,N,00000.2736,E,1,05,1.81,9.6,M,47.0,M,,*6E,51.5008392333,0.0045600004,12:53:5,23/3/2016,0,8
$GPRMC,125306.000,5130.0496,N,00000.2730,E,1,05,1.81,9.4,M,47.0,M,,*66,51.5008316040,0.0045500001,12:53:6,23/3/2016,0,8
$GPGSV,3,1,10,100,5130.0492,N,00000.2724,E,1,05,1.81,9.2,M,47.0,M,,*60,51.5008201599,0.0045400004,12:53:7,23/3/2016,0,8
$GPRMC,125307.000,A,5130.0492,N,00000.2724,E,1.87,230.74,230316,,,A*6E,51.5008201599,0.0045400004,12:53:7,23/3/2016,0,8
$GPRMC,125308.000,A,5130.0486,N,00000.2715,E,2.06,233.48,230310,M,,*6A,51.5008125305,0.0045250000,12:53:8,23/3/2016,0,8
$GPRMC,125309.000,5130.0482,N,00000.2708,E,1,05,1.81,8.8,M,47.0,M,,*6A,51.5008049011,0.0045132999,12:53:9,23/3/2016,0,8
$GPRMC,125310.000,5130.0476,N,00000.2702,E,1,05,1.81,8.7,M,47.0,M,,*6C,51.5007896423,0.0045033006,12:53:10,23/3/2016,0,8
$GPRMC,125311.000,5130.0471,N,00000.2695,E,1,05,1.81,8.7,M,47.0,M,,*65,51.5007820129,0.0044916005,12:53:11,23/3/2016,0,8
$GPGSV,3,1,10,150,5130.0468,N,000128,40,28,44,058,28,24,42,26.0,M,,*62,51.5007820129,0.0044800000,12:53:12,23/3/2016,0,8
$GPRMC,125312.000,A,5130.0468,N,00000.2688,E,1.82,251.33,230316,,,A*69,51.5007820129,0.0044800000,12:53:12,23/3/2016,0,8
$GPRMC,125313.000,5130.0466,N,00000.2681,E,1,04,2.49,8.5,M,47.0,M,,*60,51.5007743835,0.0044682998,12:53:13,23/3/2016,0,8
$GPRMC,125314.000,5130.0463,N,00000.2672,E,1,05,1.81,8.4,M,47.0,M,,*69,51.5007743835,0.0044532999,12:53:14,23/3/2016,0,8
$GPRMC,125315.000,5130.0460,N,00000.2664,E,1,05,1.81,8.3,M,4710,M,,*6B,51.5007667541,0.0044400005,12:53:15,23/3/2016,0,8
$GPRMC,125316.000,5130.0457,N,00000.2656,E,1,05,1.81,8.2,M,47.0,M,,*6C,51.5007667541,0.0044265999,12:53:16,23/3/2016,0,8
$GPGSV,3,1,11,150,5130.0452,N,00000.2650,E,1,05,1.81,8.1,M,47.0,M,,*6D,51.5007553100,0.0044166002,12:53:17,23/3/2016,0,8
$GPRMC,125317.000,A,5130.0452,N,00000.2650,E,1.98,237.04,230316,,,A*6F,51.5007553100,0.0044166002,12:53:17,23/3/2016,0,8
$GPRMC,125318.000,5130.0448,N,00000.2643,E,1,05,1.81,8.0,M,47.0,M,,*6A,51.5007476806,0.0044050002,12:53:18,23/3/2016,0,8
$GPRMC,125319.000,5130.0444,N,00000.2634,E,1,05,1.81,8.0,M,47.0,M,,*67,51.5007400512,0.0043900008,12:53:19,23/3/2016,0,8
$GPRMC,125320.000,5130.0440,N,00000.2625,E,1,05,1.81,7.9,M,47.0,M,,*6F,51.5007324218,0.0043750004,12:53:20,23/3/2016,0,8
$GPRMC,125321.000,5130.0438,N,00000.2616,E,1,05,1.81,7.9,M,47.0,M,,*61,51.5007324218,0.0043599996,12:53:21,23/3/2016,0,8
$GPGSV,3,1,11,150,5130.0435,N,00000.2607,E,1,05,1.81,7.9,M,47.0,M,,*6F,51.5007247924,0.0043450002,12:53:22,23/3/2016,0,8
$GPRMC,125322.000,A,5130.0435,N,00000.2607,E,2.12,245.70,230316,,,A*6D,51.5007247924,0.0043450002,12:53:22,23/3/2016,0,8
$GPRMC,125323.000,5130.0429,N,00000.2599,E,1,05,1.81,8.0,M,47.0,M,,*61,51.5007171630,0.0043316001,12:53:23,23/3/2016,0,8
$GPRMC,125324.000,5130.0426,N,00000.2589,E,1,05,1.81,7.9,M,47.0,M,,*6E,51.5007095336,0.0043150005,12:53:24,23/3/2016,0,8
$GPRMC,125325.000,5130.0424,N,00000.2580,E,1,05,1.81,7.8,M,47.0,M,,*65,51.5007095336,0.0043000001,12:53:25,23/3/2016,0,8
$GPRMC,125326.000,5130.0.0420,N,00000.2572,E,2.06,237.77,230310,M,,*60,51.5006980895,0.0042866001,12:53:26,23/3/2016,0,8
$GPGSV,3,1,11,15,,5130.0417,N,00000.2564,E,1,05,1.81,7.6,M,47.0,M,,*63,51.5006904602,0.0042733006,12:53:27,23/3/2016,0,8
$GPRMC,125327.000,A,5130.0417,N,00000.2564,E,2.05,241.11,230316,,,A*6B,51.5006904602,0.0042733006,12:53:27,23/3/2016,0,8
$GPRMC,125328.000,5130.0414,N,00000.2556,E,1,05,1.81,7.4,M,47.0,M,,*6C,51.5006904602,0.0042600002,12:53:28,23/3/2016,0,8
$GPRMC,125329.000,5130.0410,N,00000.2548,E,1,05,1.810.21,230310,M,,*60,51.5006828308,0.0042466001,12:53:29,23/3/2016,0,8
$GPRMC,125330.000,5130.0406,N,00000.2540,E,1,05,1.81,7.1,M,47.0,M,,*64,51.5006752014,0.0042333002,12:53:30,23/3/2016,0,8
$GPRMC,125331.000,5130.0401,N,00000.2533,E,1,05,1.81,7.0,M,47.0,M,,*67,51.5006675720,0.0042216005,12:53:31,23/3/2016,0,8
$GPGSV,3,1,11,100,5130.0398,N,00000.2523,E,1,05,1.81,6.9,M,47.0,M,,*6A,51.5006675720,0.0042049999,12:53:32,23/3/2016,0,8
$GPRMC,125332.000,A,5130.0398,N,00000.2523,E,2.28,235.82,230316,,,A*6A,51.5006675720,0.0042049999,12:53:32,23/3/2016,0,8
$GPRMC,125333.000,5130.0396,N,00000.2515,E,1,04,2.49,6.7,M,47.0,M,,*68,51.5006599426,0.0041915998,12:53:33,23/3/2016,0,8
$GPRMC,125334.000,5130.0393,N,00000.2505,E,1,05,1.81,6.6,M,47.0,M,,*6C,51.5006523132,0.0041750001,12:53:34,23/3/2016,0,8
$GPRMC,125335.000,5130.0388,N,00000.2499,E,1,05,1.81,6.5,M,47.0,M,,*60,51.5006446838,0.0041650004,12:53:35,23/3/2016,0,8
$GPRMC,125336.000,5130.0380,N,00000.2492,E,1,05,1.81,6.8,M,47.0,M,,*6D,51.5006332397,0.0041532998,12:53:36,23/3/2016,0,8
$GPGSV,3,1,11,100,5130.0374,N,00000.2484,E,1,05,1.81,6.8,M,47.0,M,,*60,51.5006256103,0.0041399998,12:53:37,23/3/2016,0,8
$GPRMC,125337.000,A,5130.0374,N,00000.2484,E,2.22,239.98,230316,,,A*6C,51.5006256103,0.0041399998,12:53:37,23/3/2016,0,8
$GPRMC,125338.000,5130.0370,N,00000.2477,E,1,05,1.81,7.0,M,47.0,M,,*6E,51.5006179809,0.0041282997,12:53:38,23/3/2016,0,8
$GPRMC,125339.000,5130.0371,N,00000.2471,E,1,05,1.81,7.1,M,47.0,M,,*69,51.5006179809,0.0041182999,12:53:39,23/3/2016,0,8
$GPRMC,125340.000,A,5130.0373,N,00000.2463,E,1.82,286.16,2303.0,M,,*67,51.5006179809,0.0041050000,12:53:40,23/3/2016,0,8
$GPRMC,125341.000,5130.0379,N,00000.2459,E,1,05,1.81,7.0,M,47.0,M,,*65,51.5006332397,0.0040983004,12:53:41,23/3/2016,0,8
$GPGSV,3,1,11,100,5130.0383,N,00000.2452,E,1,05,1.81,6.9,M,47.0,M,,*60,51.5006332397,0.0040866003,12:53:42,23/3/2016,0,8
$GPRMC,125342.000,A,5130.0383,N,00000.2452,E,1.86,311.20,230316,,,A*68,51.5006332397,0.0040866003,12:53:42,23/3/2016,0,8
$GPRMC,125343.000,5130.0389,N,00000.2447,E,E,1.82,321.93,230316,,,A*68,51.5006523132,0.0040783004,12:53:43,23/3/2016,0,8
$GPRMC,125344.000,5130.0393,N,00000.2442,E,1,05,1.81,6.7,M,47.0,M,,*68,51.5006523132,0.0040700001,12:53:44,23/3/2016,0,8
$GPRMC,125345.000,5130.0396,N,00000.2436,E,1,05,1.81,6.6,M,47.0,M,,*6E,51.5006599426,0.0040600004,12:53:45,23/3/2016,0,8
$GPRMC,125346.000,5130.0399,N,00000.2432,E,1,05,1.81,6.5,M,47.0,M,,*65,51.5006675720,0.0040533003,12:53:46,23/3/2016,0,8
$GPGSV,3,1,11,150,5130.0401,N,00000.2425,E,1,05,1.81,6.4,M,47.0,M,,*65,51.5006675720,0.0040416002,12:53:47,23/3/2016,0,8
$GPRMC,125347.000,A,5130.0401,N,00000.2425,E,1.45,305.23,230316,,,A*69,51.5006675720,0.0040416002,12:53:47,23/3/2016,0,8
$GPRMC,125348.000,5130.0404,N,00000.2416,E,1,05,1.81,6.3,M,47.0,M,,*68,51.5006752014,0.0040265998,12:53:48,23/3/2016,0,8
$GPRMC,125349.000,5130.0408,N,00000.2408,E,1,05,1.81,6.2,M,47.0,M,,*6B,51.5006828308,0.0040133004,12:53:49,23/3/2016,0,8
$GPRMC,125350.000,5130.0414,N,00000.2400,E,1,05,1.81,6.1,M,47.0,M,,*65,51.5006904602,0.0040000004,12:53:50,23/3/2016,0,8
$GPRMC,125351.000,5130.0419,N,00000.2393,E,1,05,1.81,6.0,M,47.0,M,,*65,51.5006980895,0.0039883003,12:53:51,23/3/2016,0,8
$GPGSV,3,1,11,150,5130.0425,N,00000.2386,E,1,05,1.81,5.9,M,47.0,M,,*67,51.5007095336,0.0039766001,12:53:52,23/3/2016,0,8
$GPRMC,125352.000,A,5130.0425,N,00000.2386,E,2.31,325.47,230316,,,A*65,51.5007095336,0.0039766001,12:53:52,23/3/2016,0,8
$GPRMC,125353.000,5130.0431,N,00000.2380,E,1,05,1.81,5.9,M,47.0,M,,*65,51.5007171630,0.0039665999,12:53:53,23/3/2016,0,8
$GPRMC,125354.000,A,5130.0436,N,00000.2374,E,2.26,330.06,230310,M,,*60,51.5007247924,0.0039566003,12:53:54,23/3/2016,0,8
$GPRMC,125355.000,5130.0442,N,00000.2368,E,1,05,1.81,5.7,M,47.0,M,,*6F,51.5007400512,0.0039465999,12:53:55,23/3/2016,0,8
$GPRMC,125356.000,5130.0446,N,00000.2362,E,1,05,1.81,5.5,M,47.0,M,,*60,51.5007400512,0.0039366004,12:53:56,23/3/2016,0,8
$GPGSV,3,1,11,150,5130.0451,N,00000.2356,E,1,05,1.81,5.5,M,47.0,M,,*60,51.5007476806,0.0039265995,12:53:57,23/3/2016,0,8
$GPRMC,125357.000,A,5130.0451,N,00000.2356,E,2.46,328.24,230316,,,A*66,51.5007476806,0.0039265995,12:53:57,23/3/2016,0,8
$GPRMC,125358.000,5130.0457,N,00000.2349,E,1,05,1.81,5.3,M,47.0,M,,*61,51.5007667541,0.0039150001,12:53:58,23/3/2016,0,8
$GPRMC,125359.000,5130.0462,N,00000.2342,E,1,05,1.81,5.3,M,47.0,M,,*6D,51.5007743835,0.0039032998,12:53:59,23/3/2016,0,8
$GPRMC,125400.000,5130.0468,N,00000.2335,E,1,05,1.81,5.2,M,47.0,M,,*6D,51.5007820129,0.0038915996,12:54:0,23/3/2016,0,8
$GPRMC,125401.000,5130.0473,N,00000.2328,E,1,05,1.81,5.2,M,47.0,M,,*6A,51.5007896423,0.0038800001,12:54:1,23/3/2016,0,8
$GPGSV,3,1,11,150,5130.0479,N,00000.2322,E,1,05,1.81,5.1,M,47.0,M,,*6A,51.5007972717,0.0038699998,12:54:2,23/3/2016,0,8
$GPRMC,125402.000,A,5130.0479,N,00000.2322,E,2.38,328.89,230316,,,A*66,51.5007972717,0.0038699998,12:54:2,23/3/2016,0,8
$GPRMC,125403.000,5130.0484,N,00000.2315,E,1,05,1.81,5.1,M,47.0,M,,*6D,51.5008049011,0.0038583003,12:54:3,23/3/2016,0,8
$GPRMC,125404.000,5130.0489,N,00000.2309,E,1,05,1.81,5.1,M,47.0,M,,*6A,51.5008125305,0.0038482999,12:54:4,23/3/2016,0,8
$GPRMC,125405.000,5130.0495,N,00000.2302,E,1,05,1.81,5.0,M,47.0,M,,*6C,51.5008201599,0.0038366004,12:54:5,23/3/2016,0,8
$GPRGA,125406.000,5130.0500,N,00000.2297,E,1,05,1.81,5.1,M,47.0,M,,*6E,51.5008316040,0.0038282995,12:54:6,23/3/2016,0,8
$GPGGA,125407.000,5130.0505,N,00000.2293,E,1,05,1.81,5.1,M,47.0,M,,*6E,51.5008392333,0.0038215999,12:54:7,23/3/2016,0,8
$GPRMC,125407.000,A,5130.0505,N,00000.2293,E,1.89,334.20,230316,,,A*65,51.5008392333,0.0038215999,12:54:7,23/3/2016,0,8
$GPRGA,125408.000,A,5130.0511,N,00000.20,E,1,05,1.81,5.1,M,47.0,M,,*67,51.5008544921,0.0038166000,12:54:8,23/3/2016,0,8
$GPRGA,125409.000,5130.0518,N,00000.2289,E,1,05,2.17,5.1,M,47.0,M,,*6B,51.5008621215,0.0038150000,12:54:9,23/3/2016,0,8
$GPRGA,125410.000,5130.0525,N,00000.2287,E,1,05,2.17,5.0,M,47.0,M,,*62,51.5008773803,0.0038116002,12:54:10,23/3/2016,0,8
$GPRGA,125411.000,5130.0530,N,00000.2284,E,1,05,2.17,5.0,M,47.0,M,,*64,51.5008888244,0.0038066000,12:54:11,23/3/2016,0,8
$GPGGA,125412.000,5130.0535,N,00000.238,,E,1,05,1.81,5.0,M,47.0,M,,*6D,51.5008964538,0.0037966001,12:54:12,23/3/2016,0,8
$GPRMC,125412.000,A,5130.0535,N,00000.2278,E,2.22,323.78,230316,,,A*6E,51.5008964538,0.0037966001,12:54:12,23/3/2016,0,8
$GPRGA,125413.000,5130.0539,N,00000.2271,E,1,05,1.81,5.2,M,47.0,M,,*6B,51.5008964538,0.0037849998,12:54:13,23/3/2016,0,8
$GPRGA,125414.000,5130.0544,N,00000.2263,E,1,05,1.81,5.3,M,47.0,M,,*64,51.5009040832,0.0037716002,12:54:14,23/3/2016,0,8
$GPRGA,125415.000,5130.0548,N,00000.2255,E,1,05,1.81,5.3,M,47.0,M,,*6C,51.5009117126,0.0037582998,12:54:15,23/3/2016,0,8
$GPRGA,125416.000,5130.0551,N,00000.2247,E,1,05,1.81,5.5,M,47.0,M,,*62,51.5009193420,0.0037450001,12:54:16,23/3/2016,0,8
$GPGGA,125417.000,5130.0555,N,00000.2240,E,1,05,1.81,5.4,M,47.0,M,,*61,51.5009269714,0.0037332999,12:54:17,23/3/2016,0,8
$GPRMC,125417.000,A,5130.0555,N,00000.2240,E,2.46,305.67,230316,,,A*6E,51.5009269714,0.0037332999,12:54:17,23/3/2016,0,8
$GPRGA,125418.000,5130.0559,N,00000.2233,E,1,05,1.81,5.5,M,47.0,M,,*67,51.5009269714,0.0037216000,12:54:18,23/3/2016,0,8
$GPRGA,125419.000,5130.0564,N,00000.2225,E,1,05,1.81,5.5,M,47.0,M,,*6F,51.5009422302,0.0037083001,12:54:19,23/3/2016,0,8
$GPRGA,125420.000,5130.0568,N,00000.2217,E,1,05,1.81,5.5,M,47.0,M,,*68,51.5009422302,0.0036950004,12:54:20,23/3/2016,0,8
$GPRMC,125421.000,5130.0570,N,00000.2206,E,1,06,1.37,5.8,M,47.0,M,,*63,51.5009536743,0.0036765999,12:54:21,23/3/2016,0,8
$GPGSV,3,1,11,000,5130.0574,N,00000.2195,E,1,06,1.37,6.1,M,47.0,M,,*67,51.5009613037,0.0036582999,12:54:22,23/3/2016,0,8
$GPRMC,125422.000,A,5130.0574,N,00000.2195,E,2.24,312.46,230316,,,A*61,51.5009613037,0.0036582999,12:54:22,23/3/2016,0,8
$GPRMC,125423.000,5130.0578,N,00000.2186,E,1,06,1.37,6.2,M,47.0,M,,*6B,51.5009613037,0.0036433000,12:54:23,23/3/2016,0,8
$GPRMC,125424.000,5130.0582,N,00000.2179,E,1,06,1.37,6.2,M,47.0,M,,*69,51.5009689331,0.0036316001,12:54:24,23/3/2016,0,8
$GPRMC,125425.000,5130.0586,N,00000.2171,E,1,06,1.37,6.2,M,47.0,M,,*64,51.5009765625,0.0036183001,12:54:25,23/3/2016,0,8
$GPRMC,125426.000,5130.0591,1,N,00000.2163,E,2.40,312.02,2347.0,M,,*62,51.5009841918,0.0036050004,12:54:26,23/3/2016,0,8
$GPGSV,3,1,11,000,5130.0596,N,00000.2154,E,1,06,1.37,6.1,M,47.0,M,,*63,51.5009918212,0.0035899999,12:54:27,23/3/2016,0,8
$GPRMC,125427.000,A,5130.0596,N,00000.2154,E,2.36,313.63,230316,,,A*60,51.5009918212,0.0035899999,12:54:27,23/3/2016,0,8
$GPRMC,125428.000,5130.0600,N,00000.2146,E,1,06,1.37,6.1,M,47.0,M,,*63,51.5009994506,0.0035766000,12:54:28,23/3/2016,0,8
$GPRMC,125429.000,5130.0604,N,00000.2139,E,1,06,1.37,6.0,2307.0,M,,*6F,51.5010108947,0.0035650000,12:54:29,23/3/2016,0,8
$GPRMC,125430.000,5130.0609,N,00000.2132,E,1,06,1.37,5.9,M,47.0,M,,*6B,51.5010185241,0.0035533003,12:54:30,23/3/2016,0,8
$GPRMC,125431.000,5130.0613,N,00000.2124,E,1,06,1.37,5.9,M,47.0,M,,*66,51.5010261535,0.0035400004,12:54:31,23/3/2016,0,8
$GPGSV,3,1,11.000,5130.0618,N,00000.2114,E,1,06,1.37,6.0,M,47.0,M,,*67,51.5010337829,0.0035233001,12:54:32,23/3/2016,0,8
$GPRMC,125432.000,A,5130.0618,N,00000.2114,E,2.51,305.19,230316,,,A*6E,51.5010337829,0.0035233001,12:54:32,23/3/2016,0,8
$GPRMC,125433.000,5130.0622,N,00000.2105,E,1,06,1.37,6.1,M,47.0,M,,*6E,51.5010337829,0.0035082998,12:54:33,23/3/2016,0,8
$GPRMC,125434.000,5130.0626,N,00000.2096,E,1,06,1.37,6.2,M,47.0,M,,*65,51.5010414123,0.0034932999,12:54:34,23/3/2016,0,8
$GPRMC,125435.000,5130.0631,N,00000.2088,E,1,06,1.37,6.3,M,47.0,M,,*6C,51.5010490417,0.0034800000,12:54:35,23/3/2016,0,8
$GPRMC,125436.000,5130.0636,N,00000.2081,E,1,06,1.37,6.4,M,47.0,M,,*66,51.5010566711,0.0034683003,12:54:36,23/3/2016,0,8
$GPGSV,3,1,11.000,5130.0640,N,00000.2075,E,1,06,1.37,6.5,M,47.0,M,,*6C,51.5010643005,0.0034583001,12:54:37,23/3/2016,0,8
$GPRMC,125437.000,A,5130.0640,N,00000.2075,E,2.01,302.48,230316,,,A*66,51.5010643005,0.0034583001,12:54:37,23/3/2016,0,8
$GPRMC,125438.000,5130.0643,N,00000.2067,E,1,06,1.37,6.5,M,47.0,M,,*63,51.5010757446,0.0034450001,12:54:38,23/3/2016,0,8
$GPRMC,125439.000,5130.0645,N,00000.2059,E,1,06,1.37,6.6,M,47.0,M,,*6A,51.5010757446,0.0034316000,12:54:39,23/3/2016,0,8
$GPRMC,125440.000,5,5130.0647,N,00000.2051,E,2.09,305.14,2307.0,M,,*6F,51.5010833740,0.0034182999,12:54:40,23/3/2016,0,8
$GPRMC,125441.000,5130.0650,N,00000.2043,E,1,06,1.37,6.7,M,47.0,M,,*6B,51.5010833740,0.0034050002,12:54:41,23/3/2016,0,8
$GPGSV,3,1,11,000,5130.0652,N,00000.2035,E,1,06,1.37,6.7,M,47.0,M,,*6B,51.5010910034,0.0033916001,12:54:42,23/3/2016,0,8
$GPRMC,125442.000,A,5130.0652,N,00000.2035,E,1.97,287.10,230316,,,A*6E,51.5010910034,0.0033916001,12:54:42,23/3/2016,0,8
$GPGGA,125443.000,5130.0654,N,00000.2027,E,1,06,1.37,6.7,M,47.0,M,,*6F,51.5010910034,0.0033783004,12:54:43,23/3/2016,0,8
$GPGGA,125444.000,5130.0655,N,00000.2018,E,1,06,1.37,6.6,M,47.0,M,,*64,51.5010910034,0.0033632998,12:54:44,23/3/2016,0,8
$GPGGA,125445.000,5130.0656,N,00000.2010,E,1,06,1.37,6.6,M,47.0,M,,*6E,51.5010910034,0.0033500001,12:54:45,23/3/2016,0,8
$GPGGA,125446.000,5130.0658,N,00000.2003,E,1,06,1.37,6.5,M,47.0,M,,*62,51.5010986328,0.0033382999,12:54:46,23/3/2016,0,8
$GPGGA,125447.000,5130.0659,N,00000.1995,E,1,06,1.37,6.4,M,47.0,M,,*66,51.5010986328,0.0033250000,12:54:47,23/3/2016,0,8
$GPRMC,125447.000,A,5130.0659,N,00000.1995,E,1.89,278.81,230316,,,A*67,51.5010986328,0.0033250000,12:54:47,23/3/2016,0,8
$GPGGA,125448.000,5130.0661,N,00000.1987,E,1,06,1.37,6.4,M,47.0,M,,*61,51.5010986328,0.0033116002,12:54:48,23/3/2016,0,8
$GPGGA,125449.000,5130.0663,N,00000.1977,E,1,06,1.37,6.3,M,47.0,M,,*6A,51.5011062622,0.0032950000,12:54:49,23/3/2016,0,8
$GPGGA,125450.000,5130.0666,N,00000.1969,E,1,06,1.37,6.3,M,47.0,M,,*68,51.5011062622,0.0032815999,12:54:50,23/3/2016,0,8
$GPGGA,125451.000,5130.0670,N,00000.1961,E,1,06,1.37,6.4,M,47.0,M,,*61,51.5011138916,0.0032683000,12:54:51,23/3/2016,0,8
$GPGGA,125452.000,5130.0673,N,00000.1953,E,1,06,1.37,6.5,M,47.0,M,,*61,51.5011215209,0.0032550001,12:54:52,23/3/2016,0,8
$GPRMC,125452.000,A,5130.0673,N,00000.1953,E,1.95,295.35,230316,,,A*60,51.5011215209,0.0032550001,12:54:52,23/3/2016,0,8
$GPGGA,125453.000,5130.0675,N,00000.1945,E,1,06,1.37,6.5,M,47.0,M,,*61,51.5011215209,0.0032416000,12:54:53,23/3/2016,0,8
$GPGGA,125454.000,A,5130.0678,N,00000.37,E,1,06,1.37,6.5,M,47.0,M,,*6E,51.5011329650,0.0032283000,12:54:54,23/3/2016,0,8
$GPGGA,125455.000,5130.0682,N,00000.1928,E,1,06,1.37,6.7,M,47.0,M,,*66,51.5011405944,0.0032133002,12:54:55,23/3/2016,0,8
$GPGGA,125456.000,5130.0685,N,00000.1920,E,1,06,1.37,6.8,M,47.0,M,,*65,51.5011405944,0.0031999998,12:54:56,23/3/2016,0,8
$GPGGA,125457.000,5130.0688,N,00000.1913,E,1,06,1.37,6.9,M,47.0,M,,*68,51.5011482238,0.0031883001,12:54:57,23/3/2016,0,8
$GPRMC,125457.000,A,5130.0688,N,00000.1913,E,1.90,312.64,230316,,,A*6A,51.5011482238,0.0031883001,12:54:57,23/3/2016,0,8
$GPGGA,125458.000,5130.0690,N,00000.1906,E,1,06,1.37,6.9,M,47.0,M,,*6A,51.5011482238,0.0031765999,12:54:58,23/3/2016,0,8
$GPGGA,125459.000,5130.0692,N,00000.1896,E,1,06,1.37,7.1,M,47.0,M,,*68,51.5011558532,0.0031600000,12:54:59,23/3/2016,0,8
$GPGGA,125500.000,5130.0693,N,00000.1889,E,1,06,1.37,7.1,M,47.0,M,,*6A,51.5011558532,0.0031483001,12:55:0,23/3/2016,0,8
$GPGGA,125501.000,5130.0694,N,00000.1881,E,1,06,1.37,7.1,M,47.0,M,,*64,51.5011558532,0.0031350002,12:55:1,23/3/2016,0,8
$GPGGA,125502.000,5130.0695,N,00000.1871,E,1,06,1.37,7.1,M,47.0,M,,*69,51.5011558532,0.0031183001,12:55:2,23/3/2016,0,8
$GPRMC,125502.000,A,5130.0695,N,00000.1871,E,2.19,277.69,230316,,,A*6F,51.5011558532,0.0031183001,12:55:2,23/3/2016,0,8
$GPGGA,125503.000,5130.0695,N,00000.1862,E,1,06,1.37,7.1,M,47.0,M,,*6A,51.5011558532,0.0031033003,12:55:3,23/3/2016,0,8
$GPGGA,125504.000,5130.0696,N,00000.1854,E,1,06,1.37,7.2,M,47.0,M,,*68,51.5011634826,0.0030900001,12:55:4,23/3/2016,0,8
$GPGGA,125505.000,5130.0697,N,00000.1847,E,1,06,1.37,7.1,M,47.0,M,,*69,51.5011634826,0.0030782999,12:55:5,23/3/2016,0,8
$GPGGA,125506.000,5130.0697,N,00000.1838,E,1,06,1.37,7.0,M,47.0,M,,*63,51.5011634826,0.0030632998,12:55:6,23/3/2016,0,8
$GPGGA,125507.000,5130.0698,N,00000.1830,E,1,06,1.37,7.0,M,47.0,M,,*65,51.5011634826,0.0030500001,12:55:7,23/3/2016,0,8
$GPRMC,125507.000,A,5130.0698,N,00000.1830,E,1.88,273.32,230316,,,A*63,51.5011634826,0.0030500001,12:55:7,23/3/2016,0,8
$GPGGA,125508.000,A,5130.0699,N,00000822,E,1,06,1.37,6.9,M,47.0,M,,*60,51.5011634826,0.0030366001,12:55:8,23/3/2016,0,8
$GPGGA,125509.000,5130.0700,N,00000.1814,E,1,06,1.37,7.0,M,47.0,M,,*6D,51.5011634826,0.0030233001,12:55:9,23/3/2016,0,8
$GPGGA,125510.000,5130.0700,N,00000.1805,E,1,06,1.37,7.0,M,47.0,M,,*65,51.5011634826,0.0030083000,12:55:10,23/3/2016,0,8
$GPGGA,125511.000,5130.0700,N,00000.1797,E,1,06,1.37,6.9,M,47.0,M,,*68,51.5011634826,0.0029949998,12:55:11,23/3/2016,0,8
$GPGGA,125512.000,5130.0700,N,00000.1788,E,1,06,1.36,7.0,M,47.0,M,,*6C,51.5011634826,0.0029800000,12:55:12,23/3/2016,0,8
$GPRMC,125512.000,A,5130.0700,N,00000.1788,E,1.98,273.65,230316,,,A*68,51.5011634826,0.0029800000,12:55:12,23/3/2016,0,8
$GPGGA,125513.000,5130.0701,N,00000.1779,E,1,06,1.36,6.9,M,47.0,M,,*6A,51.5011711120,0.0029649999,12:55:13,23/3/2016,0,8
$GPGGA,125514.000,5130.0700,N,00000.1769,E,1,06,1.36,6.9,M,47.0,M,,*6D,51.5011634826,0.0029482998,12:55:14,23/3/2016,0,8
$GPGGA,125515.000,5130.0700,N,00000.1760,E,1,06,1.37,6.9,M,47.0,M,,*64,51.5011634826,0.0029333000,12:55:15,23/3/2016,0,8
$GPGGA,125516.000,5130.0700,N,00000.1750,E,1,06,1.37,6.9,M,47.0,M,,*64,51.5011634826,0.0029166002,12:55:16,23/3/2016,0,8
$GPGGA,125517.000,5130.0700,N,00000.1741,E,1,06,1.37,6.9,M,47.0,M,,*65,51.5011634826,0.0029015998,12:55:17,23/3/2016,0,8
$GPRMC,125517.000,A,5130.0700,N,00000.1741,E,2.02,266.67,230316,,,A*6E,51.5011634826,0.0029015998,12:55:17,23/3/2016,0,8
$GPGGA,125518.000,5130.0699,N,00000.1732,E,1,06,1.36,6.9,M,47.0,M,,*6E,51.5011634826,0.0028866000,12:55:18,23/3/2016,0,8
$GPGGA,125519.000,5130.0699,N,00000.1723,E,1,06,1.37,6.8,M,47.0,M,,*6F,51.5011634826,0.0028716001,12:55:19,23/3/2016,0,8
$GPGGA,125520.000,5130.0700,N,00000.1713,E,1,06,1.36,6.9,M,47.0,M,,*67,51.5011634826,0.0028550003,12:55:20,23/3/2016,0,8
$GPGGA,125521.000,5130.0700,N,00000.1703,E,1,06,1.36,7.0,M,47.0,M,,*6F,51.5011634826,0.0028383002,12:55:21,23/3/2016,0,8
$GPGGA,125522.000,5130.0700,N,00000.1694,E,1,06,1.36,7.0,M,47.0,M,,*63,51.5011634826,0.0028233003,12:55:22,23/3/2016,0,8
$GPRMC,125522.000,A,5130.0700,N,00000.1694,E,2.08,272.54,230316,,,A*6E,51.5011634826,0.0028233003,12:55:22,23/3/2016,0,8
$GPGGA,125523.000,5130.0700,N,00000.1685,E,1,06,1.36,6.9,M,47.0,M,,*6A,51.5011634826,0.0028083000,12:55:23,23/3/2016,0,8
$GPGGA,125524.000,5130.0701,N,00000.1675,E,1,06,1.36,6.9,M,47.0,M,,*63,51.5011711120,0.0027916002,12:55:24,23/3/2016,0,8
$GPGGA,125525.000,5130.0701,N,00000.1665,E,1,06,1.36,7.0,M,47.0,M,,*6B,51.5011711120,0.0027750000,12:55:25,23/3/2016,0,8
$GPGGA,125526.000,5130.0701,N,0000000.56,E,1,06,1.36,6.9,M,47.0,M,,*60,51.5011711120,0.0027600002,12:55:26,23/3/2016,0,8
$GPGGA,125527.000,5130.0701,N,00000.1645,E,1,06,1.36,7.0,M,47.0,M,,*6B,51.5011711120,0.0027416002,12:55:27,23/3/2016,0,8
$GPRMC,125527.000,A,5130.0701,N,00000.1645,E,2.03,269.96,230316,,,A*69,51.5011711120,0.0027416002,12:55:27,23/3/2016,0,8
$GPGGA,125528.000,5130.0701,N,00000.1636,E,1,06,1.36,7.0,M,47.0,M,,*60,51.5011711120,0.0027265999,12:55:28,23/3/2016,0,8
$GPGGA,125529.000,5130.0702,N,00000.1626,E,1,06,1.36,7.0,M,47.0,M,,*63,51.5011711120,0.0027100000,12:55:29,23/3/2016,0,8
$GPGGA,125530.000,5130.0703,N,00000.1617,E,1,06,1.36,7.0,M,47.0,M,,*68,51.5011711120,0.0026950001,12:55:30,23/3/2016,0,8
$GPGGA,125531.000,5130.0705,N,00000.1608,E,1,06,1.36,7.0,M,47.0,M,,*61,51.5011711120,0.0026800000,12:55:31,23/3/2016,0,8
$GPGGA,125532.000,5130.0706,N,00000.1599,E,1,06,1.36,6.9,M,47.0,M,,*62,51.5011787414,0.0026650002,12:55:32,23/3/2016,0,8
$GPRMC,125532.000,A,5130.0706,N,00000.1599,E,2.21,281.71,230316,,,A*67,51.5011787414,0.0026650002,12:55:32,23/3/2016,0,8
$GPGGA,125533.000,5130.0708,N,00000.1589,E,1,06,1.36,6.9,M,47.0,M,,*6C,51.5011787414,0.0026483001,12:55:33,23/3/2016,0,8
$GPGGA,125534.000,5130.0709,N,00000.1579,E,1,06,1.36,7.0,M,47.0,M,,*6D,51.5011787414,0.0026316001,12:55:34,23/3/2016,0,8
$GPGGA,125535.000,5130.0711,N,00000.1569,E,1,06,1.36,7.0,M,47.0,M,,*64,51.5011863708,0.0026150000,12:55:35,23/3/2016,0,8
$GPGGA,125536.000,5130.0712,N,00000.1559,E,1,06,1.36,7.0,M,47.0,M,,*67,51.5011863708,0.0025983002,12:55:36,23/3/2016,0,8
$GPGGA,125537.000,5130.0714,N,00000.1549,E,1,06,1.36,7.1,M,47.0,M,,*60,51.5011863708,0.0025815999,12:55:37,23/3/2016,0,8
$GPRMC,125537.000,A,5130.0714,N,00000.1549,E,2.19,284.43,230316,,,A*63,51.5011863708,0.0025815999,12:55:37,23/3/2016,0,8
$GPGGA,125538.000,5130.0716,N,00000.1540,E,1,06,1.36,7.1,M,47.0,M,,*64,51.5011978149,0.0025666000,12:55:38,23/3/2016,0,8
$GPGGA,125539.000,5130.0718,N,00000.1531,E,1,06,1.36,7.1,M,47.0,M,,*6D,51.5011978149,0.0025515999,12:55:39,23/3/2016,0,8
$GPGGA,125540.000,5130.0.0721,N,00000.1521,E,2.31,292.50,230316,,,A*64,51.5012054443,0.0025350000,12:55:40,23/3/2016,0,8
$GPGGA,125541.000,5130.0723,N,00000.1513,E,1,06,1.36,6.9,M,47.0,M,,*63,51.5012054443,0.0025216002,12:55:41,23/3/2016,0,8
$GPGGA,125542.000,5130.0727,N,00000.1504,E,1,06,1.36,6.9,M,47.0,M,,*62,51.5012130737,0.0025065999,12:55:42,23/3/2016,0,8
$GPRMC,125542.000,A,5130.0727,N,00000.1504,E,2.17,305.20,230316,,,A*6B,51.5012130737,0.0025065999,12:55:42,23/3/2016,0,8
$GPGGA,125543.000,5130.0729,N,00000.1495,E,1,06,1.36,6.9,M,47.0,M,,*64,51.5012130737,0.0024916000,12:55:43,23/3/2016,0,8
$GPGGA,125544.000,5130.0733,N,00000.1488,E,1,06,1.36,6.8,M,47.0,M,,*65,51.5012207031,0.0024800000,12:55:44,23/3/2016,0,8
$GPGGA,125545.000,5130.0737,N,00000.1481,E,1,06,1.36,6.8,M,47.0,M,,*69,51.5012283325,0.0024683001,12:55:45,23/3/2016,0,8
$GPGGA,125546.000,5130.0741,N,00000.1474,E,1,06,1.36,6.8,M,47.0,M,,*61,51.5012359619,0.0024566001,12:55:46,23/3/2016,0,8
$GPGGA,125547.000,5130.0745,N,00000.1466,E,1,06,1.36,6.7,M,47.0,M,,*68,51.5012435913,0.0024433002,12:55:47,23/3/2016,0,8
$GPRMC,125547.000,A,5130.0745,N,00000.1466,E,2.35,313.97,230316,,,A*64,51.5012435913,0.0024433002,12:55:47,23/3/2016,0,8
$GPGGA,125548.000,5130.0750,N,00000.1458,E,1,06,1.36,6.8,M,47.0,M,,*61,51.5012550354,0.0024300000,12:55:48,23/3/2016,0,8
$GPGGA,125549.000,5130.0753,N,00000.1450,E,1,06,1.36,6.9,M,47.0,M,,*6A,51.5012550354,0.0024165999,12:55:49,23/3/2016,0,8
$GPGGA,125550.000,5130.0757,N,00000.1443,E,1,06,1.36,6.8,M,47.0,M,,*65,51.5012626647,0.0024049999,12:55:50,23/3/2016,0,8
$GPGGA,125551.000,5130.0761,N,00000.1436,E,1,06,1.36,6.8,M,47.0,M,,*63,51.5012702941,0.0023933000,12:55:51,23/3/2016,0,8
$GPGGA,125552.000,5130.0763,N,00000.1428,E,1,06,1.36,6.8,M,47.0,M,,*6D,51.5012702941,0.0023800001,12:55:52,23/3/2016,0,8
$GPRMC,125552.000,A,5130.0763,N,00000.1428,E,1.79,289.93,230316,,,A*63,51.5012702941,0.0023800001,12:55:52,23/3/2016,0,8
$GPGGA,125553.000,5130.0764,N,00000.1420,E,1,06,1.36,6.6,M,47.0,M,,*6D,51.5012702941,0.0023666002,12:55:53,23/3/2016,0,8
$GPGGA,125554.000,A,5130.0763,N,00000.09,E,1,06,1.36,6.6,M,47.0,M,,*66,51.5012702941,0.0023482999,12:55:54,23/3/2016,0,8
$GPGGA,125555.000,5130.0761,N,00000.1399,E,1,06,1.36,6.7,M,47.0,M,,*6A,51.5012702941,0.0023315999,12:55:55,23/3/2016,0,8
$GPGGA,125556.000,5130.0759,N,00000.1390,E,1,06,1.36,6.7,M,47.0,M,,*6B,51.5012626647,0.0023166000,12:55:56,23/3/2016,0,8
$GPGGA,125557.000,5130.0757,N,00000.1381,E,1,06,1.36,6.7,M,47.0,M,,*64,51.5012626647,0.0023015999,12:55:57,23/3/2016,0,8
$GPRMC,125557.000,A,5130.0757,N,00000.1381,E,2.18,249.34,230316,,,A*60,51.5012626647,0.0023015999,12:55:57,23/3/2016,0,8
$GPGGA,125558.000,5130.0754,N,00000.1372,E,1,06,1.36,6.7,M,47.0,M,,*64,51.5012550354,0.0022866001,12:55:58,23/3/2016,0,8
$GPGGA,125559.000,5130.0751,N,00000.1364,E,1,06,1.36,6.7,M,47.0,M,,*67,51.5012550354,0.0022732999,12:55:59,23/3/2016,1,9
$GPGGA,125600.000,5130.0748,N,00000.1355,E,1,06,1.36,6.7,M,47.0,M,,*62,51.5012435913,0.0022583000,12:56:0,23/3/2016,0,9
$GPGGA,125601.000,5130.0746,N,00000.1347,E,1,06,1.36,6.7,M,47.0,M,,*6E,51.5012435913,0.0022449998,12:56:1,23/3/2016,0,9
$GPGGA,125602.000,5130.0744,N,00000.1338,E,1,06,1.36,6.7,M,47.0,M,,*67,51.5012359619,0.0022300000,12:56:2,23/3/2016,0,9
$GPRMC,125602.000,A,5130.0744,N,00000.1338,E,2.20,253.55,230316,,,A*64,51.5012359619,0.0022300000,12:56:2,23/3/2016,0,9
$GPGGA,125603.000,5130.0742,N,00000.1330,E,1,06,1.36,6.7,M,47.0,M,,*68,51.5012359619,0.0022165999,12:56:3,23/3/2016,0,9
$GPGGA,125604.000,5130.0739,N,00000.1320,E,1,06,1.36,6.7,M,47.0,M,,*62,51.5012283325,0.0022000000,12:56:4,23/3/2016,0,9
$GPGGA,125605.000,5130.0736,N,00000.1312,E,1,06,1.36,6.7,M,47.0,M,,*6D,51.5012283325,0.0021866002,12:56:5,23/3/2016,0,9
$GPGGA,125606.000,5130.0733,N,00000.1303,E,1,06,1.36,6.7,M,47.0,M,,*6B,51.5012207031,0.0021716001,12:56:6,23/3/2016,0,9
$GPGGA,125607.000,5130.0730,N,00000.1294,E,1,06,1.36,6.8,M,47.0,M,,*69,51.5012130737,0.0021566002,12:56:7,23/3/2016,0,9
$GPRMC,125607.000,A,5130.0730,N,00000.1294,E,2.14,240.15,230316,,,A*64,51.5012130737,0.0021566002,12:56:7,23/3/2016,0,9
$GPGGA,125608.000,A,5130.0727,N,00000285,E,1,06,1.36,6.9,M,47.0,M,,*61,51.5012130737,0.0021416001,12:56:8,23/3/2016,0,9
$GPGGA,125608.000,5130.0724,N,00000.1274,E,1,06,1.36,7.3,M,47.0,M,,*67,51.5012054443,0.0021233000,12:56:8,23/3/2016,0,9
$GPGGA,125609.000,5130.0722,N,00000.1261,E,1,06,1.36,7.7,M,47.0,M,,*60,51.5012054443,0.0021016001,12:56:9,23/3/2016,0,9
$GPGGA,125610.000,5130.0720,N,00000.1248,E,1,06,1.36,8.1,M,47.0,M,,*68,51.5011978149,0.0020799999,12:56:10,23/3/2016,0,9
$GPGGA,125611.000,5130.0719,N,00000.1236,E,1,0057,28,8.3,M,47.0,M,,*68,51.5011978149,0.0020599999,12:56:11,23/3/2016,0,9
$GPRMC,125611.000,A,5130.0719,N,00000.1236,E,2.32,260.57,230316,,,A*60,51.5011978149,0.0020599999,12:56:11,23/3/2016,0,9
$GPGGA,125612.000,5130.0718,N,00000.1224,E,1,06,1.36,8.6,M,47.0,M,,*6C,51.5011978149,0.0020399999,12:56:12,23/3/2016,0,9
$GPGGA,125613.000,5130.0717,N,00000.1213,E,1,06,1.36,8.9,M,47.0,M,,*69,51.5011978149,0.0020216000,12:56:13,23/3/2016,0,9
$GPGGA,125614.000,5130.0717,N,00000.1204,E,1,06,1.36,9.1,M,47.0,M,,*61,51.5011978149,0.0020066001,12:56:14,23/3/2016,0,9
$GPGGA,125615.000,5130.0717,N,00000.1198,E,1,06,1.36,9.2,M,47.0,M,,*65,51.5011978149,0.0019966000,12:56:15,23/3/2016,0,9
$GPGGA,125616.000,5130.0717,N,00000.1193,E,1,06,1.36,9.4,M,47.0,M,,*6B,51.5011978149,0.0019883001,12:56:16,23/3/2016,0,9
$GPRMC,125616.000,A,5130.0717,N,00000.1193,E,1.32,266.29,230316,,,A*69,51.5011978149,0.0019883001,12:56:16,23/3/2016,0,9
$GPGGA,125617.000,5130.0714,N,00000.1185,E,1,06,1.36,9.4,M,47.0,M,,*6E,51.5011863708,0.0019750000,12:56:17,23/3/2016,0,9
$GPGGA,125618.000,5130.0711,N,00000.1176,E,1,06,1.36,9.5,M,47.0,M,,*69,51.5011863708,0.0019600000,12:56:18,23/3/2016,0,9
$GPGGA,125619.000,5130.0709,N,00000.1164,E,1,06,1.36,9.6,M,47.0,M,,*61,51.5011787414,0.0019400000,12:56:19,23/3/2016,0,9
$GPGGA,125620.000,5130.0708,N,00000.1152,E,1,06,1.36,9.6,M,47.0,M,,*6F,51.5011787414,0.0019200000,12:56:20,23/3/2016,0,9
$GPGGA,125621.000,5130.0709,N,00000.1139,E,1,06,1.36,9.5,M,47.0,M,,*61,51.5011787414,0.0018983000,12:56:21,23/3/2016,0,9
$GPRMC,125621.000,A,5130.0709,N,00000.1139,E,2.74,274.41,230316,,,A*6E,51.5011787414,0.0018983000,12:56:21,23/3/2016,0,9
$GPGGA,125622.000,5130.0710,N,00000.1128,E,1,06,1.36,9.5,M,47.0,M,,*6A,51.5011787414,0.0018799999,12:56:22,23/3/2016,0,9
$GPGGA,125623.000,5130.0714,N,00000.1119,E,1,06,1.36,9.5,M,47.0,M,,*6D,51.5011863708,0.0018649997,12:56:23,23/3/2016,0,9
$GPGGA,125624.000,5130.0717,N,00000.1111,E,1,06,1.36,9.4,M,47.0,M,,*60,51.5011978149,0.0018516001,12:56:24,23/3/2016,0,9
$GPGGA,125625.000,5130.0721,N,00000.1.02,E,1,06,1.36,9.2,M,47.0,M,,*60,51.5012054443,0.0018366001,12:56:25,23/3/2016,0,9
$GPGGA,125626.000,5130.0725,N,00000.1092,E,1,06,1.36,9.1,M,47.0,M,,*6C,51.5012054443,0.0018200001,12:56:26,23/3/2016,0,9
$GPRMC,125626.000,A,5130.0725,N,00000.1092,E,2.46,299.83,230316,,,A*6B,51.5012054443,0.0018200001,12:56:26,23/3/2016,0,9
$GPGGA,125627.000,5130.0730,N,00000.1083,E,1,06,1.36,9.1,M,47.0,M,,*69,51.5012130737,0.0018050001,12:56:27,23/3/2016,0,9
$GPGGA,125628.000,5130.0734,N,00000.1074,E,1,06,1.36,9.0,M,47.0,M,,*6B,51.5012207031,0.0017899999,12:56:28,23/3/2016,0,9
$GPGGA,125629.000,5130.0738,N,00000.1065,E,1,06,1.36,9.0,M,47.0,M,,*66,51.5012283325,0.0017750000,12:56:29,23/3/2016,0,9
$GPGGA,125630.000,5130.0742,N,00000.1056,E,1,06,1.36,9.0,M,47.0,M,,*63,51.5012359619,0.0017600001,12:56:30,23/3/2016,0,9
$GPGGA,125631.000,5130.0745,N,00000.1047,E,1,06,1.36,8.9,M,47.0,M,,*6D,51.5012435913,0.0017450001,12:56:31,23/3/2016,0,9
$GPRMC,125631.000,A,5130.0745,N,00000.1047,E,2.10,298.34,230316,,,A*6D,51.5012435913,0.0017450001,12:56:31,23/3/2016,0,9
$GPGGA,125632.000,5130.0748,N,00000.1038,E,1,06,1.36,8.8,M,47.0,M,,*6A,51.5012435913,0.0017300002,12:56:32,23/3/2016,0,9
$GPGGA,125633.000,5130.0751,N,00000.1029,E,1,06,1.36,8.6,M,47.0,M,,*6D,51.5012550354,0.0017150001,12:56:33,23/3/2016,0,9
$GPGGA,125634.000,5130.0754,N,00000.1019,E,1,06,1.36,8.6,M,47.0,M,,*6C,51.5012550354,0.0016983001,12:56:34,23/3/2016,0,9
$GPGGA,125635.000,5130.0758,N,00000.1011,E,1,06,1.36,8.4,M,47.0,M,,*6B,51.5012626647,0.0016850001,12:56:35,23/3/2016,0,9
$GPGSV,3,1,12,15,74,263,45,13,59,129,002,E,1,06,1.36,8.3,M,47.0,M,,*64,51.5012702941,0.0016699999,12:56:36,23/3/2016,0,9
$GPRMC,125636.000,A,5130.0762,N,00000.1002,E,2.54,300.30,230316,,,A*6A,51.5012702941,0.0016699999,12:56:36,23/3/2016,0,9
$GPGGA,125637.000,5130.0766,N,00000.0993,E,1,06,1.36,8.2,M,47.0,M,,*60,51.5012779235,0.0016550002,12:56:37,23/3/2016,0,9
$GPGGA,125638.000,5130.0770,N,00000.0984,E,1,06,1.36,8.3,M,47.0,M,,*6F,51.5012855529,0.0016400001,12:56:38,23/3/2016,0,9
$GPGGA,125639.000,5130.0774,4,N,00000.75,E,1,06,1.36,8.3,M,47.0,M,,*64,51.5012931823,0.0016250000,12:56:39,23/3/2016,0,9
