
$GPRMC,111042.000,A,5130.1392,N,00000.3478,E,1.92,22.49,200416,,,A*59,51.5023193359,0.0057966003,11:10:42,0/0/200,17,12,9.75,41,13.96,76.35,0,0
$GPRMC,111043.000,A,5130.1376,N,00000.3485,E,3.37,134.23,200416,,,A*67,51.5022964477,0.0058083004,11:10:43,0/0/200,17,7,4.83,42,13.96,75.72,0,0
$GPRMC,111044.000,A,5130.1362,N,00000.3491,E,1.12,7.07,200416,,,A*62,51.5022697448,0.0058183002,11:10:44,0/0/200,14,5,9.96,97,12.99,74.91,0,0
$GPRMC,111045.000,A,5130.1358,N,00000.3494,E,1.19,1.11,200416,,,A*65,51.5022621154,0.0058232998,11:10:45,0/0/200,7,13,12.23,74,13.96,74.47,0,0
$GPRMC,111046.000,A,5130.1356,N,00000.3498,E,0.97,10.67,200416,,,A*52,51.5022621154,0.0058300008,11:10:46,0/0/200,11,21,16.08,84,13.96,74.23,0,0
$GPRMC,111047.000,A,5130.1353,N,00000.3504,E,0.77,19.32,200416,,,A*55,51.5022544860,0.0058400001,11:10:47,0/0/200,11,1,5.76,42,13.96,74.02,0,0
$GPRMC,111048.000,A,5130.1351,N,00000.3511,E,1.09,37.73,200416,,,A*5D,51.5022544860,0.0058516001,11:10:48,0/0/200,8,14,9.56,50,13.48,73.64,0,0
$GPRMC,111049.000,A,5130.1351,N,00000.3515,E,1.14,22.77,200416,,,A*54,51.5022544860,0.0058583002,11:10:49,0/0/200,10,8,4.20,28,14.94,73.70,0,0
$GPRMC,111050.000,A,5130.1350,N,00000.3517,E,0.92,22.76,200416,,,A*51,51.5022468566,0.0058616008,11:10:50,0/0/200,9,3,6.77,44,14.94,73.44,0,0
$GPRMC,111051.000,A,5130.1345,N,00000.3526,E,0.87,55.58,200416,,,A*5E,51.5022392272,0.0058766002,11:10:51,0/0/200,8,6,4.63,38,13.48,72.98,0,0
$GPRMC,111052.000,A,5130.1343,N,00000.3528,E,0.82,44.19,200416,,,A*55,51.5022392272,0.0058800001,11:10:52,0/0/200,7,1,2.27,18,13.48,73.20,0,0
$GPRMC,111053.000,A,5130.1341,N,00000.3534,E,0.87,48.29,200416,,,A*51,51.5022392272,0.0058900003,11:10:53,0/0/200,7,3,4.28,30,12.99,72.97,0,0
$GPRMC,111054.000,A,5130.1337,N,00000.3537,E,0.17,102.47,200416,,,A*6A,51.5022315979,0.0058949999,11:10:54,0/0/200,16,0,2.54,25,13.96,72.98,0,0
$GPRMC,111055.000,A,5130.1336,N,00000.3539,E,0.16,165.82,200416,,,A*6D,51.5022315979,0.0058983001,11:10:55,0/0/200,8,9,3.82,24,14.94,72.77,0,0
$GPRMC,111056.000,A,5130.1331,N,00000.3542,E,0.32,141.91,200416,,,A*67,51.5022201538,0.0059033002,11:10:56,0/0/200,11,6,8.49,56,15.43,72.51,0,0
$GPRMC,111057.000,A,5130.1326,N,00000.3546,E,0.45,162.12,200416,,,A*6E,51.5022125244,0.0059100003,11:10:57,0/0/200,8,5,4.07,29,14.94,72.78,0,0
$GPRMC,111058.000,A,5130.1320,N,00000.3549,E,0.42,171.41,200416,,,A*6B,51.5021972656,0.0059150004,11:10:58,0/0/200,8,3,10.12,94,13.48,72.82,0,0
$GPRMC,111059.000,A,5130.1316,N,00000.3547,E,0.70,211.03,200416,,,A*63,51.5021972656,0.0059116001,11:10:59,0/0/200,11,0,7.20,55,13.48,72.62,0,0
$GPRMC,111100.000,A,5130.1316,N,00000.3542,E,1.00,245.40,200416,,,A*6B,51.5021972656,0.0059033002,11:11:0,0/0/200,9,0,15.16,113,12.99,72.48,0,0
$GPRMC,111101.000,A,5130.1315,N,00000.3535,E,1.32,262.99,200416,,,A*69,51.5021896362,0.0058916001,11:11:1,0/0/200,13,12,15.74,85,14.94,72.52,0,0
$GPRMC,111102.000,A,5130.1326,N,00000.3530,E,1.56,264.18,200416,,,A*62,51.5022125244,0.0058833003,11:11:2,20/4/2016,16,1,3.57,25,13.96,72.16,0,0
$GPRMC,111103.000,A,5130.1349,N,00000.3532,E,1.72,271.91,200416,,,A*6B,51.5022468566,0.0058866000,11:11:3,20/4/2016,21,8,3.40,18,12.50,71.89,0,0
$GPRMC,111104.000,A,5130.1360,N,00000.3542,E,1.15,267.77,200416,,,A*6E,51.5022697448,0.0059033002,11:11:4,20/4/2016,20,0,1.95,17,13.96,71.80,0,0
$GPRMC,111105.000,A,5130.1369,N,00000.3537,E,1.11,277.49,200416,,,A*6C,51.5022773742,0.0058949999,11:11:5,20/4/2016,23,7,4.14,22,13.48,71.60,0,0
$GPRMC,111106.000,A,5130.1385,N,00000.3530,E,0.54,288.94,200416,,,A*6A,51.5023117065,0.0058833003,11:11:6,20/4/2016,24,5,3.38,17,14.94,71.31,0,0
$GPRMC,111107.000,A,5130.1390,N,00000.3519,E,0.64,350.64,200416,,,A*6C,51.5023193359,0.0058650007,11:11:7,20/4/2016,9,0,3.67,20,14.45,71.20,0,0
$GPRMC,111108.000,A,5130.1403,N,00000.3514,E,1.11,357.97,200416,,,A*6B,51.5023345947,0.0058566002,11:11:8,20/4/2016,10,2,2.75,17,15.43,70.87,0,0
$GPRMC,111109.000,A,5130.1415,N,00000.3515,E,1.43,5.50,200416,,,A*64,51.5023612976,0.0058583002,11:11:9,20/4/2016,9,0,3.44,28,14.45,70.79,0,0
$GPRMC,111110.000,A,5130.1424,N,00000.3517,E,1.70,7.60,200416,,,A*6D,51.5023765563,0.0058616008,11:11:10,20/4/2016,9,0,2.09,16,15.92,70.70,0,0
$GPRMC,111111.000,A,5130.1431,N,00000.3517,E,1.78,7.10,200416,,,A*67,51.5023841857,0.0058616008,11:11:11,20/4/2016,26,2,3.01,15,15.43,70.59,0,0
$GPRMC,111112.000,A,5130.1435,N,00000.3515,E,1.87,13.72,200416,,,A*53,51.5023918151,0.0058583002,11:11:12,20/4/2016,24,0,1.59,14,15.92,70.51,0,0
$GPRMC,111113.000,A,5130.1438,N,00000.3515,E,2.11,11.91,200416,,,A*5C,51.5023918151,0.0058583002,11:11:13,20/4/2016,20,1,3.39,21,14.45,70.26,0,0
$GPRMC,111114.000,A,5130.1449,N,00000.3517,E,2.43,8.66,200416,,,A*68,51.5024185180,0.0058616008,11:11:14,20/4/2016,22,0,2.97,33,13.96,70.08,0,0
$GPRMC,111115.000,A,5130.1458,N,00000.3514,E,2.81,5.96,200416,,,A*66,51.5024337768,0.0058566002,11:11:15,20/4/2016,22,14,4.71,36,15.43,70.11,0,0
$GPRMC,111116.000,A,5130.1468,N,00000.3515,E,2.63,12.31,200416,,,A*50,51.5024490356,0.0058583002,11:11:16,20/4/2016,22,0,3.53,35,13.96,70.13,0,0
$GPRMC,111117.000,A,5130.1478,N,00000.3519,E,2.82,17.66,200416,,,A*54,51.5024642944,0.0058650007,11:11:17,20/4/2016,13,7,3.53,39,14.94,69.61,0,0
$GPRMC,111118.000,A,5130.1485,N,00000.3525,E,2.39,29.23,200416,,,A*5A,51.5024757385,0.0058750004,11:11:18,20/4/2016,11,1,8.22,93,14.94,69.54,0,0
$GPRMC,111119.000,A,5130.1486,N,00000.3530,E,2.06,95.45,200416,,,A*57,51.5024757385,0.0058833003,11:11:19,20/4/2016,13,35,8.66,69,14.45,71.85,0,0
$GPRMC,111120.000,A,5130.1493,N,00000.3533,E,2.47,17.17,200416,,,A*52,51.5024909973,0.0058882999,11:11:20,20/4/2016,12,4,24.42,263,13.96,74.30,0,0
$GPRMC,111121.000,A,5130.1502,N,00000.3533,E,4.39,343.79,200416,,,A*6F,51.5025062561,0.0058882999,11:11:21,20/4/2016,11,25,43.67,227,13.96,72.70,0,0
$GPRMC,111122.000,A,5130.1509,N,00000.3533,E,2.93,13.19,200416,,,A*51,51.5025138854,0.0058882999,11:11:22,20/4/2016,10,33,42.11,164,13.96,74.93,0,0
$GPRMC,111123.000,A,5130.1517,N,00000.3532,E,3.10,352.44,200416,,,A*6A,51.5025291442,0.0058866000,11:11:23,20/4/2016,10,6,23.39,158,13.96,73.94,0,0
$GPRMC,111124.000,A,5130.1524,N,00000.3535,E,2.61,8.05,200416,,,A*64,51.5025405883,0.0058916001,11:11:24,20/4/2016,9,8,5.65,40,13.96,73.07,0,0
$GPRMC,111125.000,A,5130.1530,N,00000.3537,E,2.76,12.22,200416,,,A*5A,51.5025482177,0.0058949999,11:11:25,20/4/2016,10,0,2.39,16,13.96,72.88,0,0
$GPRMC,111126.000,A,5130.1536,N,00000.3539,E,2.68,15.43,200416,,,A*5E,51.5025634765,0.0058983001,11:11:26,20/4/2016,10,11,2.96,33,13.96,72.36,0,0
$GPRMC,111127.000,A,5130.1542,N,00000.3541,E,2.40,13.15,200416,,,A*5C,51.5025711059,0.0059015998,11:11:27,20/4/2016,23,3,3.38,20,13.96,72.35,0,0
$GPRMC,111128.000,A,5130.1547,N,00000.3540,E,2.18,3.26,200416,,,A*6B,51.5025787353,0.0059000005,11:11:28,20/4/2016,21,2,2.70,19,13.48,72.26,0,0
$GPRMC,111129.000,A,5130.1550,N,00000.3539,E,1.80,3.44,200416,,,A*64,51.5025787353,0.0058983001,11:11:29,20/4/2016,11,7,1.93,19,13.96,71.87,0,0
$GPRMC,111130.000,A,5130.1553,N,00000.3537,E,1.49,69.65,200416,,,A*5B,51.5025863647,0.0058949999,11:11:30,20/4/2016,26,2,5.22,167,13.96,70.68,1,1
$GPRMC,111131.000,A,5130.1554,N,00000.3543,E,1.69,84.07,200416,,,A*5B,51.5025863647,0.0059050006,11:11:31,20/4/2016,27,2,4.38,21,14.94,70.21,2,3
$GPRMC,111132.000,A,5130.1559,N,00000.3546,E,2.23,17.36,200416,,,A*55,51.5025978088,0.0059100003,11:11:32,20/4/2016,29,10,4.57,25,13.96,70.21,0,3
$GPRMC,111133.000,A,5130.1567,N,00000.3549,E,2.35,7.26,200416,,,A*61,51.5026130676,0.0059150004,11:11:33,20/4/2016,30,0,4.37,25,13.96,70.25,0,3
$GPRMC,111134.000,A,5130.1573,N,00000.3553,E,2.75,18.42,200416,,,A*50,51.5026206970,0.0059216003,11:11:34,20/4/2016,29,0,3.18,19,13.48,69.53,0,3
$GPRMC,111135.000,A,5130.1580,N,00000.3558,E,2.95,19.42,200416,,,A*59,51.5026359558,0.0059299998,11:11:35,20/4/2016,28,2,2.59,16,14.45,69.52,0,3
$GPRMC,111136.000,A,5130.1588,N,00000.3561,E,2.76,4.89,200416,,,A*6E,51.5026435852,0.0059350004,11:11:36,20/4/2016,27,0,3.37,18,13.48,69.08,0,3
$GPRMC,111137.000,A,5130.1594,N,00000.3563,E,2.46,5.77,200416,,,A*63,51.5026512145,0.0059383001,11:11:37,20/4/2016,28,7,2.32,16,14.45,68.81,0,3
$GPRMC,111138.000,A,5130.1601,N,00000.3566,E,3.26,358.44,200416,,,A*6A,51.5026702880,0.0059433002,11:11:38,20/4/2016,28,0,3.00,21,13.96,68.40,0,3
$GPRMC,111139.000,A,5130.1608,N,00000.3569,E,2.77,12.79,200416,,,A*5B,51.5026779174,0.0059482998,11:11:39,20/4/2016,28,5,4.15,25,14.45,68.18,0,3
$GPRMC,111140.000,A,5130.1615,N,00000.3572,E,2.99,2.20,200416,,,A*6E,51.5026931762,0.0059532999,11:11:40,20/4/2016,31,1,3.45,20,13.96,67.75,0,3
$GPRMC,111141.000,A,5130.1624,N,00000.3572,E,3.74,359.45,200416,,,A*61,51.5027084350,0.0059532999,11:11:41,20/4/2016,30,0,2.75,24,14.45,67.56,0,3
$GPRMC,111142.000,A,5130.1632,N,00000.3572,E,2.56,358.38,200416,,,A*6F,51.5027198791,0.0059532999,11:11:42,20/4/2016,29,0,2.75,18,13.96,67.41,0,3
$GPRMC,111143.000,A,5130.1640,N,00000.3571,E,2.89,6.20,200416,,,A*6B,51.5027351379,0.0059516000,11:11:43,20/4/2016,28,0,3.87,21,14.45,67.36,0,3
$GPRMC,111144.000,A,5130.1647,N,00000.3574,E,2.32,13.56,200416,,,A*5B,51.5027427673,0.0059565997,11:11:44,20/4/2016,28,2,1.49,10,14.45,67.27,0,3
$GPRMC,111145.000,A,5130.1654,N,00000.3573,E,1.77,17.04,200416,,,A*5E,51.5027580261,0.0059549999,11:11:45,20/4/2016,28,1,1.84,14,14.45,67.27,0,3
$GPRMC,111146.000,A,5130.1661,N,00000.3575,E,2.34,7.86,200416,,,A*62,51.5027656555,0.0059583001,11:11:46,20/4/2016,30,4,1.79,15,14.45,67.10,0,3
$GPRMC,111147.000,A,5130.1670,N,00000.3574,E,3.21,355.00,200416,,,A*6D,51.5027847290,0.0059565997,11:11:47,20/4/2016,29,0,2.29,24,13.96,67.01,0,3
$GPRMC,111148.000,A,5130.1680,N,00000.3573,E,3.36,358.01,200416,,,A*60,51.5027999877,0.0059549999,11:11:48,20/4/2016,29,4,1.82,11,13.96,67.03,0,3
$GPRMC,111149.000,A,5130.1687,N,00000.3572,E,1.89,347.30,200416,,,A*6D,51.5028076171,0.0059532999,11:11:49,20/4/2016,30,1,3.23,21,14.45,67.06,0,3
$GPRMC,111150.000,A,5130.1694,N,00000.3574,E,2.37,19.11,200416,,,A*5C,51.5028228759,0.0059565997,11:11:50,20/4/2016,28,0,2.77,18,14.45,66.97,0,3
$GPRMC,111151.000,A,5130.1703,N,00000.3578,E,3.04,7.75,200416,,,A*62,51.5028419494,0.0059633007,11:11:51,20/4/2016,31,1,3.20,20,13.96,66.82,0,3
$GPRMC,111152.000,A,5130.1713,N,00000.3577,E,2.40,352.08,200416,,,A*67,51.5028572082,0.0059616003,11:11:52,20/4/2016,29,2,2.55,19,13.96,67.22,0,3
$GPRMC,111153.000,A,5130.1722,N,00000.3576,E,5.15,336.28,200416,,,A*62,51.5028724670,0.0059600000,11:11:53,20/4/2016,29,1,2.61,18,14.45,66.92,0,3
$GPRMC,111154.000,A,5130.1739,N,00000.3567,E,5.69,349.72,200416,,,A*63,51.5028953552,0.0059450001,11:11:54,20/4/2016,16,0,3.01,36,13.48,67.08,0,3
$GPRMC,111155.000,A,5130.1748,N,00000.3570,E,3.01,10.51,200416,,,A*54,51.5029144287,0.0059500002,11:11:55,20/4/2016,30,1,4.00,28,14.45,67.50,0,3
$GPRMC,111156.000,A,5130.1761,N,00000.3570,E,3.66,352.87,200416,,,A*63,51.5029373168,0.0059500002,11:11:56,20/4/2016,33,15,3.48,27,13.96,71.13,0,3
$GPRMC,111157.000,A,5130.1771,N,00000.3569,E,3.06,348.28,200416,,,A*63,51.5029525756,0.0059482998,11:11:57,20/4/2016,35,0,3.81,29,13.96,73.74,0,3
$GPRMC,111158.000,A,5130.1779,N,00000.3569,E,2.47,0.36,200416,,,A*60,51.5029640197,0.0059482998,11:11:58,20/4/2016,35,1,4.20,30,13.96,72.55,0,3
$GPRMC,111159.000,A,5130.1787,N,00000.3571,E,2.73,355.36,200416,,,A*6D,51.5029792785,0.0059516000,11:11:59,20/4/2016,25,7,2.64,18,13.96,68.76,0,3
$GPRMC,111200.000,A,5130.1793,N,00000.3571,E,2.32,352.55,200416,,,A*60,51.5029869079,0.0059516000,11:12:0,20/4/2016,23,6,4.50,23,13.96,68.63,0,3
$GPRMC,111201.000,A,5130.1800,N,00000.3569,E,2.93,338.02,200416,,,A*68,51.5030021667,0.0059482998,11:12:1,20/4/2016,23,4,4.59,29,13.96,67.51,0,3
$GPRMC,111202.000,A,5130.1805,N,00000.3569,E,2.49,357.96,200416,,,A*6D,51.5030097961,0.0059482998,11:12:2,20/4/2016,23,1,3.94,24,13.96,67.25,0,3
$GPRMC,111203.000,A,5130.1812,N,00000.3570,E,3.05,357.28,200416,,,A*6E,51.5030174255,0.0059500002,11:12:3,20/4/2016,23,7,2.73,20,13.96,67.00,0,3
$GPRMC,111204.000,A,5130.1817,N,00000.3571,E,2.31,355.71,200416,,,A*65,51.5030288696,0.0059516000,11:12:4,20/4/2016,23,1,3.38,18,13.96,66.88,0,3
$GPRMC,111205.000,A,5130.1823,N,00000.3573,E,1.80,11.16,200416,,,A*5A,51.5030364990,0.0059549999,11:12:5,20/4/2016,23,11,3.79,22,13.96,66.66,0,3
$GPRMC,111206.000,A,5130.1831,N,00000.3575,E,3.25,6.30,200416,,,A*63,51.5030517578,0.0059583001,11:12:6,20/4/2016,23,0,2.27,17,13.48,66.50,0,3
$GPRMC,111207.000,A,5130.1838,N,00000.3577,E,2.43,11.92,200416,,,A*56,51.5030593872,0.0059616003,11:12:7,20/4/2016,23,10,2.42,20,13.48,66.37,0,3
$GPRMC,111208.000,A,5130.1847,N,00000.3581,E,3.05,16.17,200416,,,A*51,51.5030746459,0.0059682998,11:12:8,20/4/2016,13,9,6.32,24,13.96,66.31,0,3
$GPRMC,111209.000,A,5130.1856,N,00000.3587,E,3.16,26.34,200416,,,A*56,51.5030937194,0.0059783005,11:12:9,20/4/2016,10,1,3.15,22,13.48,66.37,0,3
$GPRMC,111210.000,A,5130.1863,N,00000.3595,E,2.73,42.50,200416,,,A*59,51.5031089782,0.0059916009,11:12:10,20/4/2016,8,4,1.58,19,13.96,66.32,0,3
$GPRMC,111211.000,A,5130.1870,N,00000.3605,E,3.59,43.92,200416,,,A*56,51.5031166076,0.0060083003,11:12:11,20/4/2016,10,0,2.82,26,13.96,66.39,2,5
$GPRMC,111212.000,A,5130.1878,N,00000.3613,E,2.85,40.83,200416,,,A*59,51.5031318664,0.0060215997,11:12:12,20/4/2016,9,4,1.62,10,14.45,66.02,0,5
$GPRMC,111213.000,A,5130.1885,N,00000.3624,E,2.00,48.43,200416,,,A*57,51.5031394958,0.0060400004,11:12:13,20/4/2016,9,0,1.77,18,14.45,65.64,0,5
$GPRMC,111214.000,A,5130.1890,N,00000.3635,E,2.72,59.63,200416,,,A*53,51.5031509399,0.0060583000,11:12:14,20/4/2016,7,0,1.82,13,14.45,65.56,0,5
$GPRMC,111215.000,A,5130.1894,N,00000.3647,E,2.64,72.66,200416,,,A*58,51.5031585693,0.0060783004,11:12:15,20/4/2016,8,0,1.21,12,13.96,65.56,0,5
$GPRMC,111216.000,A,5130.1900,N,00000.3658,E,2.75,46.96,200416,,,A*51,51.5031661987,0.0060966005,11:12:16,20/4/2016,9,0,1.02,10,13.96,65.39,0,5
$GPRMC,111217.000,A,5130.1905,N,00000.3670,E,2.70,47.81,200416,,,A*5D,51.5031738281,0.0061166000,11:12:17,20/4/2016,9,0,1.55,13,13.96,65.37,0,5
$GPRMC,111218.000,A,5130.1910,N,00000.3680,E,2.70,48.73,200416,,,A*5B,51.5031814575,0.0061332998,11:12:18,20/4/2016,9,1,2.53,17,14.94,65.13,0,5
$GPRMC,111219.000,A,5130.1913,N,00000.3691,E,1.70,57.20,200416,,,A*52,51.5031890869,0.0061515998,11:12:19,20/4/2016,9,6,3.02,23,14.45,64.94,0,5
$GPRMC,111220.000,A,5130.1916,N,00000.3702,E,2.72,63.07,200416,,,A*55,51.5031890869,0.0061700000,11:12:20,20/4/2016,9,0,7.82,76,14.94,64.79,0,5
$GPRMC,111221.000,A,5130.1918,N,00000.3715,E,2.14,86.48,200416,,,A*5C,51.5031967163,0.0061916007,11:12:21,20/4/2016,8,4,4.93,57,14.45,64.58,0,5
$GPRMC,111222.000,A,5130.1917,N,00000.3726,E,1.74,114.78,200416,,,A*6C,51.5031967163,0.0062100000,11:12:22,20/4/2016,8,3,2.20,14,14.94,64.78,0,5
$GPRMC,111223.000,A,5130.1915,N,00000.3735,E,3.14,103.36,200416,,,A*65,51.5031890869,0.0062250003,11:12:23,20/4/2016,7,2,4.08,28,14.94,64.76,0,5
$GPRMC,111224.000,A,5130.1911,N,00000.3749,E,3.87,110.27,200416,,,A*65,51.5031814575,0.0062483005,11:12:24,20/4/2016,12,4,5.58,31,14.45,64.71,0,5
$GPRMC,111225.000,A,5130.1907,N,00000.3763,E,2.73,123.86,200416,,,A*6A,51.5031814575,0.0062716002,11:12:25,20/4/2016,10,2,3.71,25,14.45,64.51,0,5
$GPRMC,111226.000,A,5130.1901,N,00000.3775,E,2.73,138.98,200416,,,A*6D,51.5031661987,0.0062915992,11:12:26,20/4/2016,10,0,2.06,23,14.94,64.58,0,5
$GPRMC,111227.000,A,5130.1894,N,00000.3785,E,2.86,134.70,200416,,,A*6E,51.5031585693,0.0063083004,11:12:27,20/4/2016,8,0,3.35,36,14.94,64.51,0,5
$GPRMC,111228.000,A,5130.1888,N,00000.3799,E,3.34,127.18,200416,,,A*65,51.5031509399,0.0063316001,11:12:28,20/4/2016,8,29,2.80,45,14.94,64.44,0,5
$GPRMC,111229.000,A,5130.1882,N,00000.3812,E,3.42,132.31,200416,,,A*6C,51.5031318664,0.0063533010,11:12:29,20/4/2016,7,5,5.70,34,14.45,63.92,0,5
$GPRMC,111230.000,A,5130.1875,N,00000.3823,E,2.88,144.66,200416,,,A*6A,51.5031242370,0.0063716006,11:12:30,20/4/2016,8,7,6.75,37,14.94,63.59,0,5
$GPRMC,111231.000,A,5130.1867,N,00000.3831,E,2.64,160.99,200416,,,A*6F,51.5031089782,0.0063849997,11:12:31,20/4/2016,7,4,4.13,32,14.45,64.02,0,5
$GPRMC,111232.000,A,5130.1860,N,00000.3840,E,2.67,143.96,200416,,,A*60,51.5031013488,0.0063999996,11:12:32,20/4/2016,7,0,2.56,19,14.45,64.19,0,5
$GPRMC,111233.000,A,5130.1853,N,00000.3848,E,2.94,144.28,200416,,,A*67,51.5030860900,0.0064133000,11:12:33,20/4/2016,8,1,2.05,19,14.94,64.21,0,5
$GPRMC,111234.000,A,5130.1848,N,00000.3855,E,3.36,131.35,200416,,,A*61,51.5030746459,0.0064249997,11:12:34,20/4/2016,8,7,4.01,20,14.94,64.30,0,5
$GPRMC,111235.000,A,5130.1842,N,00000.3866,E,2.52,134.52,200416,,,A*6D,51.5030670166,0.0064433002,11:12:35,20/4/2016,8,13,7.82,32,14.94,64.38,0,5
$GPRMC,111236.000,A,5130.1840,N,00000.3876,E,1.42,87.64,200416,,,A*53,51.5030670166,0.0064600000,11:12:36,20/4/2016,7,9,9.50,38,13.96,64.02,0,5
$GPRMC,111237.000,A,5130.1835,N,00000.3887,E,1.75,112.40,200416,,,A*61,51.5030593872,0.0064783005,11:12:37,20/4/2016,9,12,11.25,66,14.94,64.26,0,5
$GPRMC,111238.000,A,5130.1835,N,00000.3895,E,1.55,95.09,200416,,,A*5C,51.5030593872,0.0064916009,11:12:38,20/4/2016,8,2,4.52,38,15.43,64.21,0,5
$GPRMC,111239.000,A,5130.1839,N,00000.3901,E,1.29,63.54,200416,,,A*57,51.5030670166,0.0065016002,11:12:39,20/4/2016,21,1,1.68,17,14.94,64.33,0,5
$GPRMC,111240.000,A,5130.1841,N,00000.3910,E,1.28,53.12,200416,,,A*56,51.5030670166,0.0065165996,11:12:40,20/4/2016,22,3,4.33,30,14.94,64.34,0,5
$GPRMC,111241.000,A,5130.1847,N,00000.3913,E,1.22,8.25,200416,,,A*62,51.5030746459,0.0065215997,11:12:41,20/4/2016,21,0,2.53,19,14.94,64.41,0,5
$GPRMC,111242.000,A,5130.1854,N,00000.3917,E,1.74,13.41,200416,,,A*5C,51.5030937194,0.0065283002,11:12:42,20/4/2016,22,1,4.69,29,14.45,64.45,0,5
$GPRMC,111243.000,A,5130.1858,N,00000.3919,E,1.58,5.56,200416,,,A*60,51.5031013488,0.0065316009,11:12:43,20/4/2016,20,10,4.87,20,14.45,64.40,0,5
$GPRMC,111244.000,A,5130.1863,N,00000.3920,E,1.74,357.49,200416,,,A*61,51.5031089782,0.0065333008,11:12:44,20/4/2016,17,0,4.64,48,14.45,64.38,0,5
$GPRMC,111245.000,A,5130.1867,N,00000.3919,E,1.71,345.66,200416,,,A*65,51.5031089782,0.0065316009,11:12:45,20/4/2016,8,7,6.71,55,14.45,64.41,0,5
$GPRMC,111246.000,A,5130.1872,N,00000.3919,E,1.75,347.48,200416,,,A*68,51.5031166076,0.0065316009,11:12:46,20/4/2016,8,4,5.33,26,14.94,64.45,0,5
$GPRMC,111247.000,A,5130.1879,N,00000.3916,E,2.01,345.16,200416,,,A*64,51.5031318664,0.0065265998,11:12:47,20/4/2016,8,11,6.80,44,14.45,64.46,0,5
$GPRMC,111248.000,A,5130.1882,N,00000.3914,E,1.76,345.46,200416,,,A*6B,51.5031318664,0.0065233001,11:12:48,20/4/2016,9,5,9.61,69,14.45,64.42,0,5
$GPRMC,111249.000,A,5130.1891,N,00000.3910,E,2.14,339.94,200416,,,A*6F,51.5031509399,0.0065165996,11:12:49,20/4/2016,9,10,8.91,37,14.45,64.60,0,5
$GPRMC,111250.000,A,5130.1900,N,00000.3904,E,2.42,337.81,200416,,,A*62,51.5031661987,0.0065066003,11:12:50,20/4/2016,9,15,10.62,32,13.96,64.47,0,5
$GPRMC,111251.000,A,5130.1905,N,00000.3899,E,2.28,338.05,200416,,,A*6C,51.5031738281,0.0064983005,11:12:51,20/4/2016,10,8,19.01,100,13.96,63.94,0,5
$GPRMC,111252.000,A,5130.1912,N,00000.3893,E,2.36,333.29,200416,,,A*69,51.5031890869,0.0064882998,11:12:52,20/4/2016,8,85,18.64,85,13.48,64.03,0,5
$GPRMC,111253.000,A,5130.1921,N,00000.3886,E,2.99,327.22,200416,,,A*67,51.5031967163,0.0064766001,11:12:53,20/4/2016,8,9,13.57,81,13.96,64.64,0,5
$GPRMC,111254.000,A,5130.1929,N,00000.3879,E,1.65,347.67,200416,,,A*6F,51.5032157897,0.0064650006,11:12:54,20/4/2016,9,2,9.99,47,13.96,64.75,0,5
$GPRMC,111255.000,A,5130.1935,N,00000.3874,E,3.01,313.29,200416,,,A*65,51.5032234191,0.0064566001,11:12:55,20/4/2016,9,13,7.74,32,13.96,64.90,0,5
$GPRMC,111256.000,A,5130.1936,N,00000.3864,E,4.88,285.00,200416,,,A*67,51.5032234191,0.0064400005,11:12:56,20/4/2016,9,6,10.19,48,13.48,64.93,0,5
$GPRMC,111257.000,A,5130.1941,N,00000.3850,E,1.73,320.17,200416,,,A*68,51.5032386779,0.0064166011,11:12:57,20/4/2016,9,6,7.85,26,13.96,65.26,0,5
$GPRMC,111258.000,A,5130.1948,N,00000.3843,E,3.89,312.07,200416,,,A*6B,51.5032463073,0.0064050006,11:12:58,20/4/2016,8,12,7.27,28,13.48,64.92,0,5
$GPRMC,111259.000,A,5130.1957,N,00000.3835,E,3.33,326.27,200416,,,A*61,51.5032615661,0.0063916006,11:12:59,20/4/2016,7,7,5.97,31,13.48,64.54,0,5
$GPRMC,111300.000,A,5130.1966,N,00000.3827,E,3.10,333.70,200416,,,A*6A,51.5032806396,0.0063782997,11:13:0,20/4/2016,8,12,5.98,29,13.96,64.38,0,5
$GPRMC,111301.000,A,5130.1975,N,00000.3822,E,3.08,323.18,200416,,,A*6A,51.5032882690,0.0063699998,11:13:1,20/4/2016,7,8,6.45,23,13.96,64.13,0,5
$GPRMC,111302.000,A,5130.1983,N,00000.3814,E,2.26,346.73,200416,,,A*66,51.5033035278,0.0063565998,11:13:2,20/4/2016,7,4,4.49,17,13.96,64.21,0,5
$GPRMC,111303.000,A,5130.1991,N,00000.3809,E,2.97,332.17,200416,,,A*63,51.5033187866,0.0063482999,11:13:3,20/4/2016,8,0,4.39,26,13.96,63.76,0,5
$GPRMC,111304.000,A,5130.1999,N,00000.3801,E,3.46,306.59,200416,,,A*64,51.5033302307,0.0063350000,11:13:4,20/4/2016,8,2,4.06,19,13.96,63.54,0,5
$GPRMC,111305.000,A,5130.2005,N,00000.3791,E,3.49,302.23,200416,,,A*6A,51.5033454895,0.0063183002,11:13:5,20/4/2016,8,0,3.46,22,13.96,63.57,0,5
$GPRMC,111306.000,A,5130.2013,N,00000.3781,E,3.22,316.38,200416,,,A*6D,51.5033531188,0.0063015995,11:13:6,20/4/2016,9,0,4.00,16,13.96,63.52,0,5
$GPRMC,111307.000,A,5130.2021,N,00000.3773,E,3.38,320.54,200416,,,A*64,51.5033683776,0.0062883005,11:13:7,20/4/2016,8,2,3.67,20,13.96,63.40,0,5
$GPRMC,111308.000,A,5130.2029,N,00000.3763,E,3.34,319.14,200416,,,A*60,51.5033836364,0.0062716002,11:13:8,20/4/2016,20,0,2.28,17,13.48,63.32,0,5
$GPRMC,111309.000,A,5130.2037,N,00000.3756,E,2.31,332.86,200416,,,A*6E,51.5033950805,0.0062600002,11:13:9,20/4/2016,10,0,4.62,22,13.96,63.41,0,5
$GPRMC,111310.000,A,5130.2044,N,00000.3750,E,2.24,339.02,200416,,,A*67,51.5034103393,0.0062500000,11:13:10,20/4/2016,7,4,2.90,19,13.96,63.36,0,5
$GPRMC,111311.000,A,5130.2053,N,00000.3746,E,3.20,342.99,200416,,,A*6C,51.5034179687,0.0062433004,11:13:11,20/4/2016,8,1,3.31,33,13.96,63.65,0,5
$GPRMC,111312.000,A,5130.2063,N,00000.3740,E,3.41,330.27,200416,,,A*6D,51.5034332275,0.0062333002,11:13:12,20/4/2016,9,0,6.42,54,14.45,64.67,0,5
$GPRMC,111313.000,A,5130.2072,N,00000.3735,E,3.04,353.70,200416,,,A*68,51.5034523010,0.0062250003,11:13:13,20/4/2016,9,3,4.32,22,14.45,64.36,0,5
$GPRMC,111314.000,A,5130.2081,N,00000.3730,E,3.34,333.61,200416,,,A*63,51.5034675598,0.0062165999,11:13:14,20/4/2016,9,0,2.98,24,14.45,64.64,0,5
$GPRMC,111315.000,A,5130.2090,N,00000.3722,E,3.02,326.86,200416,,,A*69,51.5034828186,0.0062033004,11:13:15,20/4/2016,8,4,2.89,17,14.45,64.99,0,5
$GPRMC,111316.000,A,5130.2099,N,00000.3713,E,4.04,316.53,200416,,,A*6B,51.5034980773,0.0061883001,11:13:16,20/4/2016,7,0,2.05,31,13.96,64.89,0,5
$GPRMC,111317.000,A,5130.2106,N,00000.3702,E,3.23,319.58,200416,,,A*6B,51.5035057067,0.0061700000,11:13:17,20/4/2016,9,1,2.26,18,13.96,64.59,0,5
$GPRMC,111318.000,A,5130.2112,N,00000.3694,E,2.70,324.40,200416,,,A*6F,51.5035247802,0.0061565999,11:13:18,20/4/2016,9,1,2.33,24,14.94,64.80,0,5
$GPRMC,111319.000,A,5130.2118,N,00000.3686,E,3.00,325.80,200416,,,A*6C,51.5035324096,0.0061433005,11:13:19,20/4/2016,8,0,2.03,21,14.45,64.73,0,5
$GPRMC,111320.000,A,5130.2125,N,00000.3678,E,3.03,320.61,200416,,,A*60,51.5035400390,0.0061300001,11:13:20,20/4/2016,9,11,2.77,23,14.94,64.43,0,5
$GPRMC,111321.000,A,5130.2132,N,00000.3669,E,3.53,316.07,200416,,,A*67,51.5035552978,0.0061150002,11:13:21,20/4/2016,8,7,4.32,93,14.45,63.80,0,5
$GPRMC,111322.000,A,5130.2140,N,00000.3661,E,2.80,334.40,200416,,,A*65,51.5035629272,0.0061016006,11:13:22,20/4/2016,8,0,2.83,31,14.45,63.34,0,5
$GPRMC,111323.000,A,5130.2148,N,00000.3654,E,3.11,338.87,200416,,,A*64,51.5035820007,0.0060900001,11:13:23,20/4/2016,9,0,3.38,35,14.45,63.18,0,5
$GPRMC,111324.000,A,5130.2155,N,00000.3646,E,3.70,316.17,200416,,,A*6E,51.5035896301,0.0060766000,11:13:24,20/4/2016,9,4,7.32,67,14.45,62.70,0,5
$GPRMC,111325.000,A,5130.2161,N,00000.3637,E,2.42,326.77,200416,,,A*6B,51.5036048889,0.0060616006,11:13:25,20/4/2016,8,1,4.39,31,14.94,62.52,0,5
$GPRMC,111326.000,A,5130.2166,N,00000.3630,E,2.47,12.46,200416,,,A*5B,51.5036125183,0.0060500001,11:13:26,20/4/2016,7,7,9.99,64,14.94,62.90,0,5
$GPRMC,111327.000,A,5130.2171,N,00000.3628,E,2.50,336.70,200416,,,A*63,51.5036201477,0.0060466003,11:13:27,20/4/2016,9,9,9.26,66,14.94,63.28,0,5
$GPRMC,111328.000,A,5130.2178,N,00000.3622,E,2.89,329.46,200416,,,A*60,51.5036277770,0.0060366001,11:13:28,20/4/2016,9,76,21.23,104,14.94,63.29,0,5
$GPRMC,111329.000,A,5130.2185,N,00000.3614,E,2.46,33.23,200416,,,A*5E,51.5036392211,0.0060233001,11:13:29,20/4/2016,8,30,56.06,295,14.94,64.63,0,5
$GPRMC,111330.000,A,5130.2189,N,00000.3612,E,3.16,303.77,200416,,,A*69,51.5036468505,0.0060199999,11:13:30,20/4/2016,8,4,21.09,136,14.45,66.51,0,5
$GPRMC,111331.000,A,5130.2195,N,00000.3600,E,3.41,301.58,200416,,,A*6B,51.5036621093,0.0060000000,11:13:31,20/4/2016,8,7,3.22,36,14.94,65.71,0,5
$GPRMC,111332.000,A,5130.2202,N,00000.3583,E,4.64,297.40,200416,,,A*6A,51.5036697387,0.0059715995,11:13:32,20/4/2016,8,2,3.88,32,14.94,65.01,0,5
$GPRMC,111333.000,A,5130.2218,N,00000.3545,E,7.43,297.19,200416,,,A*60,51.5036964416,0.0059082994,11:13:33,20/4/2016,6,0,4.94,49,14.94,64.72,0,5
$GPRMC,111334.000,A,5130.2227,N,00000.3535,E,4.19,313.21,200416,,,A*66,51.5037117004,0.0058916001,11:13:34,20/4/2016,7,3,5.43,46,14.94,65.06,0,5
$GPRMC,111335.000,A,5130.2229,N,00000.3529,E,3.35,315.19,200416,,,A*60,51.5037117004,0.0058816003,11:13:35,20/4/2016,8,1,4.46,49,14.94,64.36,0,5
$GPRMC,111336.000,A,5130.2234,N,00000.3513,E,3.28,317.77,200416,,,A*60,51.5037269592,0.0058550000,11:13:36,20/4/2016,9,1,5.02,53,13.96,63.71,0,5
$GPRMC,111337.000,A,5130.2240,N,00000.3501,E,2.36,349.76,200416,,,A*65,51.5037345886,0.0058350000,11:13:37,20/4/2016,9,2,3.87,46,14.94,62.98,0,5
$GPRMC,111338.000,A,5130.2243,N,00000.3497,E,2.74,312.34,200416,,,A*69,51.5037345886,0.0058282999,11:13:38,20/4/2016,9,7,11.98,165,13.96,62.75,0,5
$GPRMC,111339.000,A,5130.2251,N,00000.3489,E,3.18,322.00,200416,,,A*6B,51.5037498474,0.0058150000,11:13:39,20/4/2016,9,4,3.93,103,14.94,62.50,0,5
$GPRMC,111340.000,A,5130.2259,N,00000.3482,E,2.84,338.01,200416,,,A*68,51.5037689208,0.0058032999,11:13:40,20/4/2016,9,5,2.96,48,14.94,62.21,0,5
$GPRMC,111341.000,A,5130.2270,N,00000.3480,E,3.05,339.30,200416,,,A*6B,51.5037841796,0.0058000001,11:13:41,20/4/2016,9,4,2.91,40,15.43,62.14,0,5
$GPRMC,111342.000,A,5130.2277,N,00000.3477,E,3.01,314.00,200416,,,A*6F,51.5037918090,0.0057950000,11:13:42,20/4/2016,6,2,3.32,46,14.94,61.72,0,5
$GPRMC,111343.000,A,5130.2283,N,00000.3470,E,2.32,331.46,200416,,,A*66,51.5038070678,0.0057833003,11:13:43,20/4/2016,9,6,4.42,40,15.92,61.62,0,5
$GPRMC,111344.000,A,5130.2290,N,00000.3470,E,3.51,325.70,200416,,,A*67,51.5038185119,0.0057833003,11:13:44,20/4/2016,9,3,5.77,76,15.43,61.57,0,5
$GPRMC,111345.000,A,5130.2296,N,00000.3462,E,2.68,325.20,200416,,,A*6D,51.5038261413,0.0057700004,11:13:45,20/4/2016,8,9,7.74,62,15.43,61.61,0,5
$GPRMC,111346.000,A,5130.2302,N,00000.3455,E,2.91,319.53,200416,,,A*6B,51.5038337707,0.0057583003,11:13:46,20/4/2016,8,2,3.43,62,15.43,61.52,0,5
$GPRMC,111347.000,A,5130.2308,N,00000.3449,E,2.93,330.14,200416,,,A*67,51.5038490295,0.0057483005,11:13:47,20/4/2016,8,0,3.04,52,15.43,61.62,0,5
$GPRMC,111348.000,A,5130.2315,N,00000.3442,E,3.39,327.12,200416,,,A*6E,51.5038566589,0.0057365999,11:13:48,20/4/2016,9,5,3.54,55,15.43,61.52,0,5
$GPRMC,111349.000,A,5130.2321,N,00000.3434,E,2.31,330.68,200416,,,A*6B,51.5038642883,0.0057232999,11:13:49,20/4/2016,8,6,4.44,60,15.43,61.60,0,5
$GPRMC,111350.000,A,5130.2328,N,00000.3429,E,2.94,325.77,200416,,,A*63,51.5038833618,0.0057150001,11:13:50,20/4/2016,9,9,6.93,80,15.92,61.52,0,5
$GPRMC,111351.000,A,5130.2335,N,00000.3421,E,3.80,316.27,200416,,,A*67,51.5038909912,0.0057016000,11:13:51,20/4/2016,9,5,5.56,58,15.43,61.41,0,5
$GPRMC,111352.000,A,5130.2343,N,00000.3413,E,2.97,347.99,200416,,,A*62,51.5039062500,0.0056883001,11:13:52,20/4/2016,9,2,17.66,99,15.43,60.83,0,5
$GPRMC,111353.000,A,5130.2349,N,00000.3406,E,2.72,308.59,200416,,,A*61,51.5039138793,0.0056766004,11:13:53,20/4/2016,8,0,5.73,69,15.43,60.95,0,5
$GPRMC,111354.000,A,5130.2353,N,00000.3398,E,2.36,318.37,200416,,,A*64,51.5039215087,0.0056633000,11:13:54,20/4/2016,9,15,6.33,42,15.43,61.12,0,5
$GPRMC,111355.000,A,5130.2360,N,00000.3392,E,3.36,328.99,200416,,,A*69,51.5039291381,0.0056533002,11:13:55,20/4/2016,10,0,7.93,46,15.43,61.25,0,5
$GPRMC,111356.000,A,5130.2365,N,00000.3384,E,2.25,319.83,200416,,,A*62,51.5039405822,0.0056400003,11:13:56,20/4/2016,8,6,20.74,162,14.94,61.57,0,5
$GPRMC,111357.000,A,5130.2370,N,00000.3375,E,3.20,304.32,200416,,,A*6B,51.5039482116,0.0056250000,11:13:57,20/4/2016,8,9,16.17,114,15.43,61.84,0,5
$GPRMC,111358.000,A,5130.2375,N,00000.3364,E,3.58,299.41,200416,,,A*6F,51.5039558410,0.0056065998,11:13:58,20/4/2016,8,10,20.60,129,14.94,62.02,0,5
$GPRMC,111359.000,A,5130.2378,N,00000.3356,E,2.15,294.02,200416,,,A*60,51.5039634704,0.0055933003,11:13:59,20/4/2016,8,101,13.23,104,15.43,62.32,0,5
$GPRMC,111400.000,A,5130.2383,N,00000.3348,E,2.09,342.32,200416,,,A*64,51.5039710998,0.0055800004,11:14:0,20/4/2016,8,3,6.57,102,15.43,62.32,0,5
$GPRMC,111401.000,A,5130.2388,N,00000.3346,E,1.96,353.59,200416,,,A*68,51.5039787292,0.0055766000,11:14:1,20/4/2016,10,2,12.09,90,15.43,62.28,0,5
$GPRMC,111402.000,A,5130.2395,N,00000.3340,E,3.12,320.09,200416,,,A*6E,51.5039863586,0.0055665998,11:14:2,20/4/2016,8,7,5.60,84,15.43,62.14,0,5
$GPRMC,111403.000,A,5130.2402,N,00000.3332,E,3.36,315.86,200416,,,A*64,51.5040054321,0.0055532999,11:14:3,20/4/2016,8,0,7.94,71,15.43,61.85,0,5
$GPRMC,111404.000,A,5130.2409,N,00000.3324,E,2.59,322.12,200416,,,A*6E,51.5040130615,0.0055399999,11:14:4,20/4/2016,9,27,6.87,102,15.43,61.84,0,5
$GPRMC,111405.000,A,5130.2415,N,00000.3317,E,2.91,319.58,200416,,,A*60,51.5040283203,0.0055283002,11:14:5,20/4/2016,8,6,22.29,115,15.92,61.94,0,5
$GPRMC,111406.000,A,5130.2421,N,00000.3309,E,2.84,319.69,200416,,,A*6D,51.5040359497,0.0055150003,11:14:6,20/4/2016,8,7,6.73,91,15.43,62.29,0,5
$GPRMC,111407.000,A,5130.2427,N,00000.3303,E,2.39,329.60,200416,,,A*6C,51.5040435791,0.0055050001,11:14:7,20/4/2016,9,3,7.99,110,15.92,62.28,0,5
$GPRMC,111408.000,A,5130.2434,N,00000.3296,E,2.53,333.63,200416,,,A*68,51.5040512084,0.0054932999,11:14:8,20/4/2016,9,7,7.32,73,15.92,61.85,0,5
$GPRMC,111409.000,A,5130.2441,N,00000.3289,E,3.11,322.18,200416,,,A*6E,51.5040702819,0.0054816002,11:14:9,20/4/2016,9,0,11.60,90,15.92,61.66,0,5
$GPRMC,111410.000,A,5130.2448,N,00000.3280,E,3.01,308.94,200416,,,A*6B,51.5040779113,0.0054666004,11:14:10,20/4/2016,9,17,13.39,107,15.92,61.38,0,5
$GPRMC,111411.000,A,5130.2453,N,00000.3270,E,2.55,317.02,200416,,,A*6E,51.5040855407,0.0054500007,11:14:11,20/4/2016,8,6,10.99,147,15.92,61.54,0,5
$GPRMC,111412.000,A,5130.2459,N,00000.3264,E,3.53,306.88,200416,,,A*67,51.5041007995,0.0054400005,11:14:12,20/4/2016,8,11,15.94,139,15.92,61.57,0,5
$GPRMC,111413.000,A,5130.2465,N,00000.3255,E,2.53,335.31,200416,,,A*68,51.5041084289,0.0054250001,11:14:13,20/4/2016,9,9,13.67,178,15.92,61.24,0,5
$GPRMC,111414.000,A,5130.2472,N,00000.3249,E,3.01,339.64,200416,,,A*6E,51.5041160583,0.0054149999,11:14:14,20/4/2016,8,2,7.26,125,15.43,60.95,0,5
$GPRMC,111415.000,A,5130.2478,N,00000.3242,E,2.49,322.09,200416,,,A*62,51.5041275024,0.0054033002,11:14:15,20/4/2016,9,5,10.81,109,15.43,60.91,0,5
$GPRMC,111416.000,A,5130.2483,N,00000.3232,E,2.84,313.81,200416,,,A*61,51.5041427612,0.0053866004,11:14:16,20/4/2016,9,1,19.22,151,15.92,60.92,0,5
$GPRMC,111417.000,A,5130.2488,N,00000.3222,E,2.87,314.76,200416,,,A*66,51.5041503906,0.0053699998,11:14:17,20/4/2016,8,5,11.09,108,15.43,60.88,0,5
$GPRMC,111418.000,A,5130.2495,N,00000.3212,E,3.31,323.32,200416,,,A*6E,51.5041580200,0.0053533005,11:14:18,20/4/2016,8,20,6.99,122,15.43,60.89,0,5
$GPRMC,111419.000,A,5130.2500,N,00000.3202,E,2.58,317.44,200416,,,A*6B,51.5041656494,0.0053365998,11:14:19,20/4/2016,10,7,50.71,320,15.43,60.93,0,5
$GPRMC,111420.000,A,5130.2505,N,00000.3190,E,3.03,311.23,200416,,,A*64,51.5041732788,0.0053166003,11:14:20,20/4/2016,8,6,9.78,126,15.43,61.10,0,5
$GPRMC,111421.000,A,5130.2510,N,00000.3182,E,2.59,322.63,200416,,,A*68,51.5041847229,0.0053033008,11:14:21,20/4/2016,9,31,12.38,115,15.43,60.98,0,5
$GPRMC,111422.000,A,5130.2516,N,00000.3173,E,2.95,322.35,200416,,,A*60,51.5041923522,0.0052883005,11:14:22,20/4/2016,8,35,29.12,159,15.43,61.02,0,5
$GPRMC,111423.000,A,5130.2522,N,00000.3166,E,2.53,325.54,200416,,,A*68,51.5042076110,0.0052765998,11:14:23,20/4/2016,9,72,27.64,150,15.43,61.36,0,5
$GPRMC,111424.000,A,5130.2526,N,00000.3157,E,1.65,11.62,200416,,,A*5E,51.5042076110,0.0052616000,11:14:24,20/4/2016,17,109,46.76,196,15.43,61.91,0,5
$GPRMC,111425.000,A,5130.2533,N,00000.3153,E,4.34,310.05,200416,,,A*6D,51.5042228698,0.0052550005,11:14:25,20/4/2016,9,34,34.54,413,15.43,62.34,0,5
$GPRMC,111426.000,A,5130.2541,N,00000.3141,E,4.26,311.97,200416,,,A*61,51.5042304992,0.0052349996,11:14:26,20/4/2016,9,24,21.90,387,14.94,61.96,0,5
$GPRMC,111427.000,A,5130.2552,N,00000.3128,E,4.90,329.06,200416,,,A*63,51.5042572021,0.0052132997,11:14:27,20/4/2016,9,7,24.34,404,14.94,62.05,0,5
$GPRMC,111428.000,A,5130.2558,N,00000.3121,E,2.58,332.99,200416,,,A*61,51.5042648315,0.0052016000,11:14:28,20/4/2016,8,37,16.00,189,15.43,61.99,0,5
$GPRMC,111429.000,A,5130.2563,N,00000.3112,E,2.79,316.48,200416,,,A*61,51.5042724609,0.0051866002,11:14:29,20/4/2016,8,9,24.67,171,14.94,61.87,0,5
$GPRMC,111430.000,A,5130.2571,N,00000.3105,E,3.18,332.26,200416,,,A*64,51.5042877197,0.0051750001,11:14:30,20/4/2016,8,6,10.90,170,14.45,61.78,0,5
$GPRMC,111431.000,A,5130.2578,N,00000.3097,E,2.55,330.80,200416,,,A*60,51.5042953491,0.0051616001,11:14:31,20/4/2016,8,10,21.57,206,15.43,61.45,0,5
$GPRMC,111432.000,A,5130.2584,N,00000.3085,E,2.84,333.39,200416,,,A*6E,51.5043067932,0.0051416006,11:14:32,20/4/2016,8,6,48.91,350,15.43,61.48,0,5
$GPRMC,111433.000,A,5130.2592,N,00000.3077,E,3.20,326.47,200416,,,A*67,51.5043220520,0.0051283001,11:14:33,20/4/2016,8,37,33.35,334,15.43,61.45,0,5
$GPRMC,111434.000,A,5130.2598,N,00000.3070,E,2.36,320.74,200416,,,A*6D,51.5043296813,0.0051166005,11:14:34,20/4/2016,7,7,15.36,128,15.43,61.62,0,5
$GPRMC,111435.000,A,5130.2603,N,00000.3064,E,2.80,324.42,200416,,,A*64,51.5043373107,0.0051065998,11:14:35,20/4/2016,8,1,17.15,257,15.43,61.72,0,5
$GPRMC,111436.000,A,5130.2608,N,00000.3055,E,3.15,306.00,200416,,,A*65,51.5043449401,0.0050916004,11:14:36,20/4/2016,9,3,11.48,103,15.43,61.60,0,5
$GPRMC,111437.000,A,5130.2614,N,00000.3046,E,3.19,315.69,200416,,,A*6A,51.5043525695,0.0050766000,11:14:37,20/4/2016,9,45,14.82,147,15.43,61.06,0,5
$GPRMC,111438.000,A,5130.2620,N,00000.3038,E,2.77,313.44,200416,,,A*6B,51.5043716430,0.0050633006,11:14:38,20/4/2016,8,2,18.50,153,15.43,60.96,0,5
$GPRMC,111439.000,A,5130.2628,N,00000.3030,E,3.65,317.81,200416,,,A*65,51.5043792724,0.0050500001,11:14:39,20/4/2016,9,0,6.78,124,14.94,60.48,0,5
$GPRMC,111440.000,A,5130.2635,N,00000.3022,E,3.06,332.12,200416,,,A*6C,51.5043945312,0.0050365996,11:14:40,20/4/2016,8,0,12.23,118,14.94,60.26,0,5
$GPRMC,111441.000,A,5130.2644,N,00000.3015,E,2.85,333.88,200416,,,A*67,51.5044021606,0.0050250000,11:14:41,20/4/2016,8,1,4.82,131,14.94,60.13,0,5
$GPRMC,111442.000,A,5130.2652,N,00000.3008,E,3.34,326.85,200416,,,A*6D,51.5044174194,0.0050132999,11:14:42,20/4/2016,8,0,3.42,120,14.94,60.29,0,5
$GPRMC,111443.000,A,5130.2659,N,00000.3000,E,3.01,329.51,200416,,,A*6F,51.5044364929,0.0050000004,11:14:43,20/4/2016,9,4,5.02,115,14.94,60.01,0,5
$GPRMC,111444.000,A,5130.2666,N,00000.2992,E,2.04,337.90,200416,,,A*61,51.5044441223,0.0049865999,11:14:44,20/4/2016,8,11,7.02,129,14.94,59.80,0,5
$GPRMC,111445.000,A,5130.2673,N,00000.2988,E,2.85,349.27,200416,,,A*63,51.5044517517,0.0049800004,11:14:45,20/4/2016,8,1,21.96,166,14.94,60.77,0,5
$GPRMC,111446.000,A,5130.2680,N,00000.2980,E,4.18,299.84,200416,,,A*63,51.5044670104,0.0049666004,11:14:46,20/4/2016,8,41,13.59,135,15.92,61.26,0,5
$GPRMC,111447.000,A,5130.2686,N,00000.2968,E,4.41,296.86,200416,,,A*63,51.5044746398,0.0049465999,11:14:47,20/4/2016,8,9,5.26,156,15.43,60.86,0,5
$GPRMC,111448.000,A,5130.2692,N,00000.2956,E,2.88,320.08,200416,,,A*6D,51.5044822692,0.0049265999,11:14:48,20/4/2016,8,2,16.35,268,15.43,60.68,0,5
$GPRMC,111449.000,A,5130.2698,N,00000.2946,E,3.34,305.27,200416,,,A*6B,51.5045013427,0.0049099998,11:14:49,20/4/2016,8,0,5.80,158,15.43,59.77,0,5
$GPRMC,111450.000,A,5130.2703,N,00000.2935,E,3.62,297.49,200416,,,A*65,51.5045089721,0.0048916001,11:14:50,20/4/2016,7,4,3.92,133,15.43,59.48,0,5
$GPRMC,111451.000,A,5130.2709,N,00000.2924,E,3.46,314.18,200416,,,A*66,51.5045166015,0.0048733000,11:14:51,20/4/2016,8,12,22.57,188,15.92,59.48,0,5
$GPRMC,111452.000,A,5130.2714,N,00000.2911,E,3.99,297.82,200416,,,A*64,51.5045242309,0.0048516001,11:14:52,20/4/2016,8,0,11.71,157,15.43,59.46,0,5
$GPRMC,111453.000,A,5130.2719,N,00000.2898,E,3.52,298.52,200416,,,A*6D,51.5045318603,0.0048300004,11:14:53,20/4/2016,8,3,5.93,126,15.92,59.34,0,5
$GPRMC,111454.000,A,5130.2723,N,00000.2886,E,2.12,333.23,200416,,,A*6F,51.5045394897,0.0048099999,11:14:54,20/4/2016,8,14,7.93,142,15.92,59.33,0,5
$GPRMC,111455.000,A,5130.2728,N,00000.2879,E,1.81,337.70,200416,,,A*6E,51.5045509338,0.0047983002,11:14:55,20/4/2016,8,12,10.37,150,15.92,59.01,0,5
$GPRMC,111456.000,A,5130.2732,N,00000.2873,E,2.39,310.98,200416,,,A*6F,51.5045585632,0.0047883005,11:14:56,20/4/2016,8,0,9.04,144,15.92,59.15,0,5
$GPRMC,111457.000,A,5130.2736,N,00000.2864,E,2.57,309.62,200416,,,A*69,51.5045585632,0.0047733006,11:14:57,20/4/2016,8,44,21.57,155,15.92,59.14,0,5
$GPRMC,111458.000,A,5130.2740,N,00000.2855,E,2.90,305.06,200416,,,A*60,51.5045661926,0.0047583003,11:14:58,20/4/2016,8,8,9.43,156,15.92,58.90,0,5
$GPRMC,111459.000,A,5130.2746,N,00000.2846,E,3.16,309.46,200416,,,A*62,51.5045738220,0.0047433004,11:14:59,20/4/2016,8,8,9.40,160,16.41,58.67,0,5
$GPRMC,111500.000,A,5130.2751,N,00000.2836,E,2.83,311.47,200416,,,A*6B,51.5045814514,0.0047266001,11:15:0,20/4/2016,8,13,10.97,137,15.92,58.24,0,5
$GPRMC,111501.000,A,5130.2756,N,00000.2826,E,2.94,309.77,200416,,,A*60,51.5045890808,0.0047100005,11:15:1,20/4/2016,8,27,14.23,162,16.41,57.82,0,5
$GPRMC,111502.000,A,5130.2762,N,00000.2813,E,2.83,310.35,200416,,,A*6A,51.5046043395,0.0046883001,11:15:2,20/4/2016,8,11,13.95,174,16.89,57.63,0,5
$GPRMC,111503.000,A,5130.2766,N,00000.2803,E,3.01,304.93,200416,,,A*6C,51.5046043395,0.0046716003,11:15:3,20/4/2016,8,28,23.58,279,16.41,57.45,0,5
$GPRMC,111504.000,A,5130.2771,N,00000.2790,E,3.29,296.38,200416,,,A*69,51.5046234130,0.0046500000,11:15:4,20/4/2016,7,26,28.73,189,16.89,57.66,0,5
$GPRMC,111505.000,A,5130.2774,N,00000.2774,E,4.18,285.90,200416,,,A*62,51.5046234130,0.0046233005,11:15:5,20/4/2016,7,25,26.55,168,16.41,57.76,0,5
$GPRMC,111506.000,A,5130.2779,N,00000.2761,E,4.06,288.22,200416,,,A*63,51.5046310424,0.0046016001,11:15:6,20/4/2016,7,30,28.57,196,16.89,57.91,0,5
$GPRMC,111507.000,A,5130.2782,N,00000.2746,E,2.76,309.57,200416,,,A*68,51.5046386718,0.0045766000,11:15:7,20/4/2016,8,29,25.89,195,16.89,57.92,0,5
$GPRMC,111508.000,A,5130.2787,N,00000.2736,E,2.41,338.13,200416,,,A*63,51.5046463012,0.0045600004,11:15:8,20/4/2016,7,29,26.41,195,16.89,58.03,0,5
$GPRMC,111509.000,A,5130.2792,N,00000.2728,E,2.40,322.78,200416,,,A*6E,51.5046539306,0.0045465998,11:15:9,20/4/2016,8,30,28.46,204,17.87,58.45,0,5
$GPRMC,111510.000,A,5130.2798,N,00000.2720,E,2.58,317.32,200416,,,A*65,51.5046615600,0.0045332999,11:15:10,20/4/2016,7,38,30.06,186,18.36,58.38,0,5
$GPRMC,111511.000,A,5130.2802,N,00000.2709,E,2.26,317.88,200416,,,A*6B,51.5046730041,0.0045149998,11:15:11,20/4/2016,8,23,31.75,221,16.89,58.61,0,5
$GPRMC,111512.000,A,5130.2806,N,00000.2700,E,3.16,294.92,200416,,,A*66,51.5046806335,0.0045000000,11:15:12,20/4/2016,7,22,22.32,189,18.36,58.84,0,5
$GPRMC,111513.000,A,5130.2809,N,00000.2686,E,3.65,285.06,200416,,,A*6E,51.5046806335,0.0044766001,11:15:13,20/4/2016,8,33,26.88,176,17.38,58.58,0,5
$GPRMC,111514.000,A,5130.2814,N,00000.2674,E,2.37,330.69,200416,,,A*68,51.5046882629,0.0044566001,11:15:14,20/4/2016,12,19,37.35,232,17.38,58.36,0,5
$GPRMC,111515.000,A,5130.2819,N,00000.2664,E,3.07,308.14,200416,,,A*66,51.5046958923,0.0044400005,11:15:15,20/4/2016,12,40,23.84,204,16.41,58.43,0,5
$GPRMC,111516.000,A,5130.2824,N,00000.2653,E,2.79,309.82,200416,,,A*69,51.5047035217,0.0044216003,11:15:16,20/4/2016,8,34,26.37,184,17.87,58.34,0,5
$GPRMC,111517.000,A,5130.2828,N,00000.2641,E,3.07,296.56,200416,,,A*61,51.5047111511,0.0044016003,11:15:17,20/4/2016,7,23,29.18,188,16.89,58.30,0,5
$GPRMC,111518.000,A,5130.2832,N,00000.2628,E,3.41,303.46,200416,,,A*64,51.5047187805,0.0043800001,11:15:18,20/4/2016,7,32,22.80,194,16.89,57.94,0,5
$GPRMC,111519.000,A,5130.2838,N,00000.2614,E,3.34,309.20,200416,,,A*68,51.5047264099,0.0043566002,11:15:19,20/4/2016,7,32,25.79,192,17.38,58.18,0,5
$GPRMC,111520.000,A,5130.2843,N,00000.2602,E,2.90,301.08,200416,,,A*64,51.5047378540,0.0043365998,11:15:20,20/4/2016,5,28,25.05,189,18.36,57.84,0,5
$GPRMC,111521.000,A,5130.2846,N,00000.2590,E,2.86,296.83,200416,,,A*63,51.5047454833,0.0043165998,11:15:21,20/4/2016,12,34,26.59,207,17.87,57.51,0,5
$GPRMC,111522.000,A,5130.2850,N,00000.2579,E,2.54,298.46,200416,,,A*68,51.5047531127,0.0042982997,11:15:22,20/4/2016,8,14,20.16,184,18.36,57.01,0,5
$GPRMC,111523.000,A,5130.2852,N,00000.2567,E,2.52,289.21,200416,,,A*63,51.5047531127,0.0042783002,11:15:23,20/4/2016,11,20,15.15,190,16.41,56.77,0,5
$GPRMC,111524.000,A,5130.2855,N,00000.2556,E,2.67,305.90,200416,,,A*68,51.5047607421,0.0042600002,11:15:24,20/4/2016,7,8,19.01,161,16.89,56.97,0,5
$GPRMC,111525.000,A,5130.2859,N,00000.2545,E,3.55,302.56,200416,,,A*6A,51.5047683715,0.0042416005,11:15:25,20/4/2016,6,12,16.15,189,17.87,57.07,0,5
$GPRMC,111526.000,A,5130.2863,N,00000.2532,E,3.63,294.54,200416,,,A*69,51.5047683715,0.0042199997,11:15:26,20/4/2016,9,5,25.69,183,15.92,57.33,0,5
$GPRMC,111527.000,A,5130.2867,N,00000.2519,E,3.24,304.61,200416,,,A*68,51.5047760009,0.0041983003,11:15:27,20/4/2016,8,18,22.86,178,16.41,57.53,0,5
$GPRMC,111528.000,A,5130.2872,N,00000.2508,E,2.79,310.76,200416,,,A*69,51.5047836303,0.0041799998,11:15:28,20/4/2016,7,19,13.30,184,16.89,57.41,0,5
$GPRMC,111529.000,A,5130.2876,N,00000.2498,E,2.61,304.17,200416,,,A*6F,51.5047950744,0.0041633005,11:15:29,20/4/2016,8,14,19.47,204,17.38,57.44,0,5
$GPRMC,111530.000,A,5130.2879,N,00000.2488,E,2.70,299.42,200416,,,A*6C,51.5048027038,0.0041466002,11:15:30,20/4/2016,8,6,15.81,197,16.89,57.68,0,5
$GPRMC,111531.000,A,5130.2883,N,00000.2477,E,2.81,300.05,200416,,,A*64,51.5048027038,0.0041282997,11:15:31,20/4/2016,8,20,15.41,245,15.92,57.60,0,5
$GPRMC,111532.000,A,5130.2886,N,00000.2465,E,2.77,281.73,200416,,,A*61,51.5048103332,0.0041083002,11:15:32,20/4/2016,8,11,20.04,176,18.85,57.68,0,5
$GPRMC,111533.000,A,5130.2887,N,00000.2452,E,3.26,291.08,200416,,,A*6D,51.5048103332,0.0040866003,11:15:33,20/4/2016,8,10,17.07,220,16.89,57.66,0,5
$GPRMC,111534.000,A,5130.2890,N,00000.2439,E,2.50,288.60,200416,,,A*67,51.5048179626,0.0040650005,11:15:34,20/4/2016,9,42,30.44,150,17.38,57.48,0,5
$GPRMC,111535.000,A,5130.2892,N,00000.2427,E,3.15,278.54,200416,,,A*63,51.5048179626,0.0040450005,11:15:35,20/4/2016,7,6,33.94,183,15.92,57.26,0,5
$GPRMC,111536.000,A,5130.2893,N,00000.2414,E,2.61,276.97,200416,,,A*62,51.5048179626,0.0040233001,11:15:36,20/4/2016,6,47,73.66,312,16.89,57.28,0,5
$GPRMC,111537.000,A,5130.2894,N,00000.2401,E,3.28,278.59,200416,,,A*60,51.5048255920,0.0040016002,11:15:37,20/4/2016,10,21,23.61,205,16.41,57.42,0,5
$GPRMC,111538.000,A,5130.2896,N,00000.2388,E,2.83,286.02,200416,,,A*64,51.5048255920,0.0039800000,11:15:38,20/4/2016,7,44,25.17,188,15.92,57.45,0,5
$GPRMC,111539.000,A,5130.2899,N,00000.2375,E,2.87,290.52,200416,,,A*6E,51.5048332214,0.0039583001,11:15:39,20/4/2016,8,5,9.52,196,16.41,57.44,0,5
$GPRMC,111540.000,A,5130.2900,N,00000.2362,E,3.26,274.94,200416,,,A*6D,51.5048332214,0.0039366004,11:15:40,20/4/2016,10,25,24.45,202,16.41,57.28,0,5
$GPRMC,111541.000,A,5130.2902,N,00000.2348,E,3.32,277.61,200416,,,A*6A,51.5048332214,0.0039133000,11:15:41,20/4/2016,10,11,15.34,175,16.89,58.06,0,5
$GPRMC,111542.000,A,5130.2905,N,00000.2335,E,2.58,294.81,200416,,,A*6A,51.5048408508,0.0038915996,11:15:42,20/4/2016,7,10,14.88,227,16.89,58.77,0,5
$GPRMC,111543.000,A,5130.2907,N,00000.2324,E,2.66,285.59,200416,,,A*61,51.5048408508,0.0038733003,11:15:43,20/4/2016,8,4,11.94,198,16.41,58.60,0,5
$GPRMC,111544.000,A,5130.2909,N,00000.2310,E,3.11,277.99,200416,,,A*6F,51.5048484802,0.0038500003,11:15:44,20/4/2016,7,25,13.92,190,16.89,58.01,0,5
$GPRMC,111545.000,A,5130.2910,N,00000.2297,E,3.03,273.84,200416,,,A*63,51.5048484802,0.0038282995,11:15:45,20/4/2016,8,0,20.98,176,18.85,58.13,0,5
$GPRMC,111546.000,A,5130.2911,N,00000.2284,E,3.20,277.05,200416,,,A*6F,51.5048484802,0.0038066000,11:15:46,20/4/2016,7,17,20.60,214,16.41,58.17,0,5
$GPRMC,111547.000,A,5130.2913,N,00000.2270,E,3.30,282.39,200416,,,A*63,51.5048599243,0.0037833001,11:15:47,20/4/2016,3,11,16.19,192,17.38,58.21,0,5
$GPRMC,111548.000,A,5130.2916,N,00000.2257,E,2.81,283.42,200416,,,A*6A,51.5048599243,0.0037616002,11:15:48,20/4/2016,8,16,13.01,180,15.92,58.08,0,5
$GPRMC,111549.000,A,5130.2918,N,00000.2245,E,2.89,282.84,200416,,,A*65,51.5048675537,0.0037416000,11:15:49,20/4/2016,7,13,14.10,198,18.36,58.76,0,5
$GPRMC,111550.000,A,5130.2920,N,00000.2232,E,3.01,283.38,200416,,,A*61,51.5048675537,0.0037200000,11:15:50,20/4/2016,7,14,16.56,201,17.38,58.84,0,5
$GPRMC,111551.000,A,5130.2922,N,00000.2219,E,3.08,283.79,200416,,,A*67,51.5048675537,0.0036983001,11:15:51,20/4/2016,7,9,12.12,196,16.89,58.92,0,5
$GPRMC,111552.000,A,5130.2924,N,00000.2206,E,2.71,285.88,200416,,,A*6B,51.5048751831,0.0036765999,11:15:52,20/4/2016,8,7,12.64,175,19.34,59.12,0,5
$GPRMC,111553.000,A,5130.2926,N,00000.2194,E,2.99,286.10,200416,,,A*64,51.5048751831,0.0036565999,11:15:53,20/4/2016,6,33,25.55,181,18.85,58.98,0,5
$GPRMC,111554.000,A,5130.2928,N,00000.2180,E,3.67,280.26,200416,,,A*6B,51.5048828125,0.0036333000,11:15:54,20/4/2016,7,9,11.94,195,17.38,58.04,0,5
$GPRMC,111555.000,A,5130.2929,N,00000.2165,E,2.63,285.72,200416,,,A*61,51.5048828125,0.0036083002,11:15:55,20/4/2016,5,4,18.53,160,15.92,57.53,0,5
$GPRMC,111556.000,A,5130.2931,N,00000.2153,E,2.37,288.39,200416,,,A*6D,51.5048828125,0.0035883002,11:15:56,20/4/2016,10,2,10.38,198,16.89,57.32,0,5
$GPRMC,111557.000,A,5130.2932,N,00000.2140,E,2.63,286.78,200416,,,A*67,51.5048828125,0.0035666000,11:15:57,20/4/2016,7,5,10.99,181,16.41,57.50,0,5
$GPRMC,111558.000,A,5130.2934,N,00000.2127,E,2.83,280.40,200416,,,A*6C,51.5048904418,0.0035450005,11:15:58,20/4/2016,7,4,10.80,195,16.89,57.39,0,5
$GPRMC,111559.000,A,5130.2935,N,00000.2114,E,3.03,276.87,200416,,,A*67,51.5048904418,0.0035233001,11:15:59,20/4/2016,9,1,15.27,179,17.87,57.33,0,5
$GPRMC,111600.000,A,5130.2935,N,00000.2101,E,2.73,273.16,200416,,,A*67,51.5048904418,0.0035016000,11:16:0,20/4/2016,8,15,10.35,185,20.31,57.24,0,5
$GPRMC,111601.000,A,5130.2936,N,00000.2088,E,3.19,275.34,200416,,,A*6E,51.5048904418,0.0034800000,11:16:1,20/4/2016,6,0,12.10,189,18.85,57.27,0,5
$GPRMC,111602.000,A,5130.2937,N,00000.2074,E,3.00,270.68,200416,,,A*6B,51.5048980712,0.0034565999,11:16:2,20/4/2016,11,9,13.31,173,16.89,57.05,0,5
$GPRMC,111603.000,A,5130.2937,N,00000.2062,E,2.98,268.79,200416,,,A*64,51.5048980712,0.0034365999,11:16:3,20/4/2016,7,5,14.10,164,16.89,57.09,0,5
$GPRMC,111604.000,A,5130.2939,N,00000.2049,E,2.86,288.21,200416,,,A*68,51.5048980712,0.0034150002,11:16:4,20/4/2016,6,6,15.85,194,17.38,57.15,0,5
$GPRMC,111605.000,A,5130.2941,N,00000.2037,E,2.89,276.35,200416,,,A*64,51.5048980712,0.0033949999,11:16:5,20/4/2016,5,5,11.24,189,17.38,57.15,0,5
$GPRMC,111606.000,A,5130.2941,N,00000.2024,E,2.88,272.07,200416,,,A*61,51.5048980712,0.0033732998,11:16:6,20/4/2016,5,12,13.58,173,17.87,57.46,0,5
$GPRMC,111607.000,A,5130.2941,N,00000.2011,E,3.01,265.90,200416,,,A*6E,51.5048980712,0.0033516001,11:16:7,20/4/2016,8,10,14.81,190,18.36,57.54,0,5
$GPRMC,111608.000,A,5130.2944,N,00000.1997,E,3.07,285.47,200416,,,A*62,51.5049057006,0.0033282999,11:16:8,20/4/2016,6,10,11.16,190,18.36,57.54,0,5
$GPRMC,111609.000,A,5130.2947,N,00000.1984,E,2.74,296.50,200416,,,A*63,51.5049171447,0.0033066005,11:16:9,20/4/2016,9,7,11.06,176,17.38,57.48,0,5
$GPRMC,111610.000,A,5130.2951,N,00000.1972,E,2.33,293.23,200416,,,A*67,51.5049171447,0.0032866001,11:16:10,20/4/2016,8,11,12.43,188,18.36,57.39,0,5
$GPRMC,111611.000,A,5130.2952,N,00000.1961,E,2.19,289.78,200416,,,A*6A,51.5049247741,0.0032683000,11:16:11,20/4/2016,7,22,19.92,178,19.34,57.05,0,5
$GPRMC,111612.000,A,5130.2950,N,00000.1949,E,2.60,256.05,200416,,,A*67,51.5049171447,0.0032483000,11:16:12,20/4/2016,10,15,36.01,166,18.36,57.20,0,5
$GPRMC,111613.000,A,5130.2946,N,00000.1937,E,3.10,241.54,200416,,,A*6C,51.5049057006,0.0032283000,11:16:13,20/4/2016,8,14,28.07,180,17.87,57.26,0,5
$GPRMC,111614.000,A,5130.2942,N,00000.1923,E,2.99,260.50,200416,,,A*6D,51.5049057006,0.0032050001,11:16:14,20/4/2016,6,10,11.96,196,18.85,57.47,0,5
$GPRMC,111615.000,A,5130.2941,N,00000.1911,E,2.29,262.69,200416,,,A*6D,51.5048980712,0.0031849999,11:16:15,20/4/2016,12,353,147.64,457,20.31,59.74,0,5
$GPRMC,111616.000,A,5130.2941,N,00000.1902,E,2.20,268.68,200416,,,A*6E,51.5048980712,0.0031700000,11:16:16,20/4/2016,9,11,67.29,437,17.87,57.20,0,5
$GPRMC,111617.000,A,5130.2941,N,00000.1892,E,2.49,267.54,200416,,,A*68,51.5048980712,0.0031533002,11:16:17,20/4/2016,10,7,20.27,448,18.85,57.85,0,5
$GPRMC,111618.000,A,5130.2939,N,00000.1882,E,1.69,239.02,200416,,,A*60,51.5048980712,0.0031366002,11:16:18,20/4/2016,10,32,21.48,383,18.36,61.70,0,5
$GPRMC,111619.000,A,5130.2939,N,00000.1872,E,2.04,276.86,200416,,,A*61,51.5048980712,0.0031200003,11:16:19,20/4/2016,2,11,22.77,215,20.31,61.86,0,5
$GPRMC,111620.000,A,5130.2942,N,00000.1864,E,1.65,294.43,200416,,,A*61,51.5049057006,0.0031066000,11:16:20,20/4/2016,13,6,15.15,213,21.78,60.75,0,5
$GPRMC,111621.000,A,5130.2942,N,00000.1853,E,2.30,284.86,200416,,,A*6F,51.5049057006,0.0030883002,11:16:21,20/4/2016,25,8,19.26,221,22.75,60.13,0,5
$GPRMC,111622.000,A,5130.2941,N,00000.1839,E,3.30,287.09,200416,,,A*66,51.5048980712,0.0030650000,11:16:22,20/4/2016,10,9,14.99,246,21.29,58.45,0,5
$GPRMC,111623.000,A,5130.2942,N,00000.1824,E,2.53,287.90,200416,,,A*6C,51.5049057006,0.0030400002,11:16:23,20/4/2016,4,18,15.25,200,19.34,58.22,0,5
$GPRMC,111624.000,A,5130.2941,N,00000.1812,E,2.73,265.61,200416,,,A*6D,51.5048980712,0.0030200002,11:16:24,20/4/2016,6,14,18.40,239,18.36,58.24,0,5
$GPRMC,111625.000,A,5130.2940,N,00000.1798,E,3.24,273.03,200416,,,A*60,51.5048980712,0.0029966001,11:16:25,20/4/2016,5,19,18.63,228,22.27,58.36,0,5
$GPRMC,111626.000,A,5130.2940,N,00000.1785,E,2.86,271.59,200416,,,A*6B,51.5048980712,0.0029750001,11:16:26,20/4/2016,10,15,19.02,325,21.29,58.30,0,5
$GPRMC,111627.000,A,5130.2941,N,00000.1774,E,2.79,282.15,200416,,,A*61,51.5048980712,0.0029565999,11:16:27,20/4/2016,11,6,18.26,294,21.78,58.81,0,5
$GPRMC,111628.000,A,5130.2941,N,00000.1760,E,3.17,267.90,200416,,,A*64,51.5048980712,0.0029333000,11:16:28,20/4/2016,12,28,19.65,241,20.80,58.83,0,5
$GPRMC,111629.000,A,5130.2939,N,00000.1746,E,3.04,259.54,200416,,,A*69,51.5048980712,0.0029100000,11:16:29,20/4/2016,9,10,17.93,227,22.75,58.57,0,5
$GPRMC,111630.000,A,5130.2939,N,00000.1734,E,2.80,269.55,200416,,,A*6B,51.5048980712,0.0028900001,11:16:30,20/4/2016,9,14,20.80,200,20.80,58.45,0,5
$GPRMC,111631.000,A,5130.2940,N,00000.1722,E,2.34,276.92,200416,,,A*69,51.5048980712,0.0028699998,11:16:31,20/4/2016,5,24,18.14,225,19.82,58.52,0,5
$GPRMC,111632.000,A,5130.2939,N,00000.1710,E,3.38,263.36,200416,,,A*62,51.5048980712,0.0028499999,11:16:32,20/4/2016,6,19,19.23,224,20.31,58.60,0,5
$GPRMC,111633.000,A,5130.2940,N,00000.1696,E,3.35,274.26,200416,,,A*68,51.5048980712,0.0028266000,11:16:33,20/4/2016,4,4,19.90,189,18.36,58.22,0,5
$GPRMC,111634.000,A,5130.2940,N,00000.1681,E,2.93,264.66,200416,,,A*61,51.5048980712,0.0028015999,11:16:34,20/4/2016,12,20,21.04,229,18.36,57.83,0,5
$GPRMC,111635.000,A,5130.2938,N,00000.1666,E,3.17,257.08,200416,,,A*63,51.5048980712,0.0027766001,11:16:35,20/4/2016,9,28,23.83,230,21.78,58.06,0,5
$GPRMC,111636.000,A,5130.2937,N,00000.1653,E,2.74,271.69,200416,,,A*6E,51.5048980712,0.0027550003,11:16:36,20/4/2016,9,17,27.12,216,24.22,58.26,0,5
$GPRMC,111637.000,A,5130.2937,N,00000.1641,E,3.20,264.96,200416,,,A*68,51.5048980712,0.0027350001,11:16:37,20/4/2016,12,8,17.64,205,20.31,58.23,0,5
$GPRMC,111638.000,A,5130.2937,N,00000.1627,E,2.95,268.05,200416,,,A*6E,51.5048980712,0.0027116000,11:16:38,20/4/2016,2,21,17.28,224,20.31,58.20,0,5
$GPRMC,111639.000,A,5130.2935,N,00000.1613,E,2.93,257.90,200416,,,A*6C,51.5048904418,0.0026883001,11:16:39,20/4/2016,4,10,15.08,232,18.85,58.22,0,5
$GPRMC,111640.000,A,5130.2933,N,00000.1600,E,2.94,253.61,200416,,,A*6B,51.5048904418,0.0026665999,11:16:40,20/4/2016,3,19,16.88,212,21.78,58.23,0,5
$GPRMC,111641.000,A,5130.2931,N,00000.1588,E,3.26,260.83,200416,,,A*6F,51.5048828125,0.0026466000,11:16:41,20/4/2016,9,6,13.60,228,22.27,57.66,0,5
$GPRMC,111642.000,A,5130.2930,N,00000.1575,E,2.88,253.70,200416,,,A*66,51.5048828125,0.0026250000,11:16:42,20/4/2016,2,9,14.06,235,21.29,57.35,0,5
$GPRMC,111643.000,A,5130.2927,N,00000.1562,E,2.81,252.28,200416,,,A*62,51.5048751831,0.0026033000,11:16:43,20/4/2016,3,7,14.55,223,24.22,57.13,0,5
$GPRMC,111644.000,A,5130.2926,N,00000.1550,E,2.90,264.00,200416,,,A*6A,51.5048751831,0.0025832998,11:16:44,20/4/2016,9,27,16.31,200,22.27,57.38,0,5
$GPRMC,111645.000,A,5130.2925,N,00000.1536,E,2.96,258.96,200416,,,A*6E,51.5048751831,0.0025600001,11:16:45,20/4/2016,6,33,25.74,231,20.31,57.29,0,5
$GPRMC,111646.000,A,5130.2924,N,00000.1522,E,2.88,265.11,200416,,,A*67,51.5048751831,0.0025366001,11:16:46,20/4/2016,3,8,29.53,222,20.80,56.86,0,5
$GPRMC,111647.000,A,5130.2923,N,00000.1508,E,3.48,258.97,200416,,,A*64,51.5048751831,0.0025133001,11:16:47,20/4/2016,3,10,15.30,200,22.27,56.79,0,5
$GPRMC,111648.000,A,5130.2921,N,00000.1493,E,3.14,262.20,200416,,,A*66,51.5048675537,0.0024883003,11:16:48,20/4/2016,2,14,18.82,226,20.80,56.74,0,5
$GPRMC,111649.000,A,5130.2920,N,00000.1478,E,3.19,258.52,200416,,,A*62,51.5048675537,0.0024632999,11:16:49,20/4/2016,7,13,11.52,221,17.38,56.87,0,5
$GPRMC,111650.000,A,5130.2918,N,00000.1465,E,2.99,249.84,200416,,,A*6F,51.5048675537,0.0024415998,11:16:50,20/4/2016,12,10,12.41,231,21.29,56.62,0,5
$GPRMC,111651.000,A,5130.2916,N,00000.1452,E,2.82,257.33,200416,,,A*6D,51.5048599243,0.0024200000,11:16:51,20/4/2016,9,12,12.75,206,20.80,56.76,0,5
$GPRMC,111652.000,A,5130.2913,N,00000.1439,E,3.02,265.00,200416,,,A*6E,51.5048599243,0.0023983001,11:16:52,20/4/2016,9,17,12.73,225,22.27,56.91,0,5
$GPRMC,111653.000,A,5130.2911,N,00000.1425,E,2.90,255.09,200416,,,A*60,51.5048484802,0.0023750000,11:16:53,20/4/2016,12,15,20.62,228,17.87,57.52,0,5
$GPRMC,111654.000,A,5130.2909,N,00000.1412,E,2.95,257.02,200416,,,A*66,51.5048484802,0.0023533000,11:16:54,20/4/2016,9,14,38.39,196,22.27,57.48,0,5
$GPRMC,111655.000,A,5130.2906,N,00000.1399,E,2.80,247.11,200416,,,A*6B,51.5048408508,0.0023315999,11:16:55,20/4/2016,12,33,35.63,225,17.87,57.42,0,5
$GPRMC,111656.000,A,5130.2903,N,00000.1388,E,2.71,247.30,200416,,,A*60,51.5048408508,0.0023133001,11:16:56,20/4/2016,12,15,34.22,248,20.31,57.20,0,5
$GPRMC,111657.000,A,5130.2901,N,00000.1376,E,2.72,258.22,200416,,,A*6C,51.5048332214,0.0022933001,11:16:57,20/4/2016,12,16,36.30,202,17.87,57.02,0,5
$GPRMC,111658.000,A,5130.2900,N,00000.1363,E,2.88,258.63,200416,,,A*66,51.5048332214,0.0022716000,11:16:58,20/4/2016,8,24,20.38,238,19.34,56.97,0,5
$GPRMC,111659.000,A,5130.2900,N,00000.1350,E,2.61,264.79,200416,,,A*64,51.5048332214,0.0022500000,11:16:59,20/4/2016,6,16,13.90,243,20.80,56.56,0,5
$GPRMC,111700.000,A,5130.2898,N,00000.1336,E,3.13,257.70,200416,,,A*64,51.5048332214,0.0022266001,11:17:0,20/4/2016,9,11,32.27,196,20.31,56.28,0,5
$GPRMC,111701.000,A,5130.2895,N,00000.1323,E,2.86,253.68,200416,,,A*6C,51.5048255920,0.0022050001,11:17:1,20/4/2016,12,6,28.60,177,17.87,57.04,0,5
$GPRMC,111702.000,A,5130.2891,N,00000.1312,E,2.84,231.94,200416,,,A*6C,51.5048179626,0.0021866002,11:17:2,20/4/2016,9,8,15.65,216,20.31,56.82,0,5
$GPRMC,111703.000,A,5130.2885,N,00000.1301,E,3.28,222.36,200416,,,A*67,51.5048103332,0.0021682999,11:17:3,20/4/2016,10,8,26.52,262,17.87,56.21,0,5
$GPRMC,111704.000,A,5130.2880,N,00000.1290,E,2.79,236.32,200416,,,A*68,51.5048027038,0.0021500000,11:17:4,20/4/2016,7,6,20.11,215,21.29,55.77,0,5
$GPRMC,111705.000,A,5130.2876,N,00000.1281,E,3.20,220.00,200416,,,A*6B,51.5047950744,0.0021350002,11:17:5,20/4/2016,1,12,14.55,223,21.29,55.89,0,5
$GPRMC,111706.000,A,5130.2870,N,00000.1272,E,3.01,220.37,200416,,,A*65,51.5047836303,0.0021200001,11:17:6,20/4/2016,0,24,18.46,210,18.36,55.37,0,5
$GPRMC,111707.000,A,5130.2864,N,00000.1264,E,2.68,223.40,200416,,,A*6B,51.5047760009,0.0021065998,11:17:7,20/4/2016,8,19,18.18,229,17.87,55.42,0,5
$GPRMC,111708.000,A,5130.2859,N,00000.1256,E,2.60,219.33,200416,,,A*6E,51.5047683715,0.0020933001,11:17:8,20/4/2016,10,6,12.31,197,21.29,55.64,0,5
$GPRMC,111709.000,A,5130.2853,N,00000.1250,E,2.74,207.65,200416,,,A*6A,51.5047531127,0.0020833001,11:17:9,20/4/2016,7,14,13.10,225,20.80,56.14,0,5
$GPRMC,111710.000,A,5130.2846,N,00000.1245,E,2.43,202.31,200416,,,A*62,51.5047454833,0.0020750000,11:17:10,20/4/2016,4,12,13.69,213,21.78,55.98,0,5
$GPRMC,111711.000,A,5130.2840,N,00000.1239,E,3.34,219.42,200416,,,A*61,51.5047378540,0.0020650000,11:17:11,20/4/2016,8,12,12.90,195,18.85,55.64,0,5
$GPRMC,111712.000,A,5130.2834,N,00000.1231,E,3.07,210.75,200416,,,A*64,51.5047187805,0.0020515999,11:17:12,20/4/2016,9,9,12.24,216,21.29,55.51,0,5
$GPRMC,111713.000,A,5130.2826,N,00000.1225,E,2.80,206.33,200416,,,A*68,51.5047111511,0.0020415999,11:17:13,20/4/2016,16,20,24.69,219,20.80,55.14,0,5
$GPRMC,111714.000,A,5130.2818,N,00000.1219,E,2.80,206.05,200416,,,A*68,51.5046958923,0.0020316002,11:17:14,20/4/2016,4,24,27.94,242,19.82,55.03,0,5
$GPRMC,111715.000,A,5130.2810,N,00000.1213,E,3.27,208.60,200416,,,A*6A,51.5046806335,0.0020216000,11:17:15,20/4/2016,9,1,23.75,189,21.29,55.06,0,5
$GPRMC,111716.000,A,5130.2802,N,00000.1206,E,2.67,218.12,200416,,,A*6F,51.5046730041,0.0020099999,11:17:16,20/4/2016,7,31,18.44,209,21.29,55.27,0,5
$GPRMC,111717.000,A,5130.2794,N,00000.1199,E,3.08,210.53,200416,,,A*6E,51.5046539306,0.0019983000,11:17:17,20/4/2016,16,12,26.45,215,17.87,54.86,0,5
$GPRMC,111718.000,A,5130.2787,N,00000.1191,E,2.83,223.05,200416,,,A*6A,51.5046463012,0.0019850001,11:17:18,20/4/2016,4,36,36.24,202,19.82,55.13,0,5
$GPRMC,111719.000,A,5130.2780,N,00000.1181,E,3.52,218.13,200416,,,A*6F,51.5046310424,0.0019683002,11:17:19,20/4/2016,4,13,14.66,232,21.29,55.05,0,5
$GPRMC,111720.000,A,5130.2772,N,00000.1171,E,3.32,227.15,200416,,,A*6B,51.5046234130,0.0019516000,11:17:20,20/4/2016,16,7,17.74,219,19.82,54.93,0,5
$GPRMC,111721.000,A,5130.2768,N,00000.1159,E,3.09,242.66,200416,,,A*64,51.5046157836,0.0019316000,11:17:21,20/4/2016,9,24,14.19,226,18.36,55.29,0,5
$GPRMC,111722.000,A,5130.2764,N,00000.1147,E,3.05,237.82,200416,,,A*60,51.5046043395,0.0019115999,11:17:22,20/4/2016,9,6,20.27,335,20.80,55.08,0,5
$GPRMC,111723.000,A,5130.2761,N,00000.1134,E,3.03,251.22,200416,,,A*6C,51.5045967102,0.0018900001,11:17:23,20/4/2016,1,7,12.19,229,19.82,55.13,0,5
$GPRMC,111724.000,A,5130.2757,N,00000.1121,E,3.34,240.43,200416,,,A*69,51.5045967102,0.0018682999,11:17:24,20/4/2016,6,13,12.26,212,21.78,55.21,0,5
$GPRMC,111725.000,A,5130.2754,N,00000.1108,E,2.98,250.84,200416,,,A*6D,51.5045890808,0.0018466001,11:17:25,20/4/2016,9,20,13.22,203,19.34,55.43,0,5
$GPRMC,111726.000,A,5130.2751,N,00000.1094,E,2.96,250.89,200416,,,A*6C,51.5045814514,0.0018233001,11:17:26,20/4/2016,7,6,12.57,224,18.85,55.37,0,5
$GPRMC,111727.000,A,5130.2749,N,00000.1081,E,3.27,252.04,200416,,,A*6C,51.5045814514,0.0018016002,11:17:27,20/4/2016,10,5,12.15,218,20.31,55.21,0,5
$GPRMC,111728.000,A,5130.2747,N,00000.1068,E,3.09,248.95,200416,,,A*65,51.5045814514,0.0017799999,11:17:28,20/4/2016,7,2,12.82,231,21.29,55.25,0,5
$GPRMC,111729.000,A,5130.2744,N,00000.1054,E,3.10,254.44,200416,,,A*61,51.5045738220,0.0017565999,11:17:29,20/4/2016,8,15,12.82,206,21.29,55.25,0,5
$GPRMC,111730.000,A,5130.2742,N,00000.1040,E,2.80,246.66,200416,,,A*61,51.5045738220,0.0017333001,11:17:30,20/4/2016,4,15,12.96,230,21.78,55.40,0,5
$GPRMC,111731.000,A,5130.2739,N,00000.1026,E,3.44,251.64,200416,,,A*61,51.5045661926,0.0017099999,11:17:31,20/4/2016,4,17,12.71,225,24.22,55.09,0,5
