
$GPRMC,115006.926,V,,,,,0.41,161.51,200416,,,N*45,0.0000000000,0.0000000000,11:50:6,0/0/200,7,7,2.25,13,18.36,76.27,0,0
$GPGGA,115007.923,,,,,0,04,,,M,,M,,*76,0.0000000000,0.0000000000,11:50:7,0/0/200,7,0,2.67,17,18.36,94.54,0,0
$GPRMC,115007.923,V,,,,,0.48,167.51,200416,,,N*4E,0.0000000000,0.0000000000,11:50:7,20/4/2016,7,0,0.00,0,18.36,103.00,0,0
$GPRMC,115008.930,A,5129.6637,N,00000.5473,E,0.46,112.34,200416,,,A*61,51.4943923950,0.0091216001,11:50:8,20/4/2016,5,4,1.40,12,18.36,106.20,0,0
$GPRMC,115009.923,A,5129.6574,N,00000.5432,E,0.68,98.91,200416,,,A*53,51.4942855834,0.0090533008,11:50:9,20/4/2016,7,8,2.37,14,18.36,107.33,0,0
$GPRMC,115010.921,A,5129.6596,N,00000.5403,E,1.04,102.55,200416,,,A*66,51.4943275451,0.0090049991,11:50:10,20/4/2016,7,5,2.99,16,18.36,102.36,0,0
$GPRMC,115011.922,A,5129.6594,N,00000.5411,E,0.92,120.04,200416,,,A*6F,51.4943199157,0.0090183010,11:50:11,20/4/2016,9,73,6.58,73,36.43,97.17,0,0
$GPRMC,115012.922,A,5129.6591,N,00000.5403,E,0.84,108.72,200416,,,A*66,51.4943199157,0.0090049991,11:50:12,20/4/2016,36,72,87.82,325,36.91,114.00,0,0
$GPRMC,115013.920,A,5129.6581,N,00000.5380,E,0.79,114.53,200416,,,A*64,51.4943046569,0.0089665994,11:50:13,20/4/2016,25,147,95.26,241,37.89,97.71,0,0
$GPRMC,115014.922,A,5129.6580,N,00000.5378,E,0.83,103.86,200416,,,A*6C,51.4943046569,0.0089633007,11:50:14,20/4/2016,10,90,99.47,302,39.84,88.98,0,0
$GPRMC,115016.000,A,5129.6575,N,00000.5371,E,0.80,140.57,200416,,,A*6C,51.4942970275,0.0089516010,11:50:16,20/4/2016,26,97,98.16,273,40.82,81.30,0,0
$GPRMC,115017.000,A,5129.6571,N,00000.5372,E,0.97,157.95,200416,,,A*64,51.4942855834,0.0089533004,11:50:17,20/4/2016,17,122,102.45,269,40.33,81.11,0,0
$GPRMC,115018.000,A,5129.6568,N,00000.5375,E,1.01,158.01,200416,,,A*68,51.4942779541,0.0089582996,11:50:18,20/4/2016,12,127,101.03,260,41.31,76.38,0,0
$GPRMC,115019.000,A,5129.6563,N,00000.5378,E,1.21,155.19,200416,,,A*69,51.4942703247,0.0089633007,11:50:19,20/4/2016,6,77,101.72,274,37.89,71.16,0,0
$GPRMC,115020.000,A,5129.6559,N,00000.5390,E,1.47,149.34,200416,,,A*6E,51.4942626953,0.0089832992,11:50:20,20/4/2016,4,94,92.23,236,39.84,68.02,0,0
$GPRMC,115021.000,A,5129.6556,N,00000.5398,E,1.64,146.71,200416,,,A*67,51.4942626953,0.0089966001,11:50:21,20/4/2016,8,75,96.34,255,38.87,66.37,0,0
$GPRMC,115022.000,A,5129.6550,N,00000.5410,E,1.88,140.21,200416,,,A*64,51.4942474365,0.0090166006,11:50:22,20/4/2016,12,79,93.35,283,39.36,63.99,0,0
$GPRMC,115023.000,A,5129.6547,N,00000.5421,E,1.96,135.60,200416,,,A*69,51.4942474365,0.0090349998,11:50:23,20/4/2016,11,52,94.23,240,40.82,62.52,0,0
$GPRMC,115024.000,A,5129.6542,N,00000.5429,E,2.15,139.00,200416,,,A*61,51.4942398071,0.0090482997,11:50:24,20/4/2016,8,102,93.81,232,38.87,61.33,0,0
$GPRMC,115025.000,A,5129.6537,N,00000.5440,E,2.29,137.11,200416,,,A*6C,51.4942283630,0.0090665998,11:50:25,20/4/2016,4,70,91.93,272,39.36,60.02,0,0
$GPRMC,115026.000,A,5129.6529,N,00000.5452,E,2.55,141.76,200416,,,A*68,51.4942131042,0.0090866003,11:50:26,20/4/2016,11,79,92.62,261,39.84,59.25,0,0
$GPRMC,115027.000,A,5129.6524,N,00000.5462,E,2.58,142.84,200416,,,A*64,51.4942054748,0.0091032991,11:50:27,20/4/2016,12,58,95.30,249,37.40,58.34,0,0
$GPRMC,115028.000,A,5129.6519,N,00000.5475,E,2.66,143.22,200416,,,A*63,51.4941978454,0.0091250000,11:50:28,20/4/2016,8,106,89.63,229,38.87,58.40,0,0
$GPRMC,115029.000,A,5129.6514,N,00000.5483,E,2.63,141.19,200416,,,A*69,51.4941902160,0.0091382999,11:50:29,20/4/2016,4,77,91.95,250,38.87,57.47,0,0
$GPRMC,115030.000,A,5129.6508,N,00000.5492,E,2.59,142.35,200416,,,A*68,51.4941825866,0.0091533002,11:50:30,20/4/2016,9,92,89.75,256,40.33,56.91,0,0
$GPRMC,115031.000,A,5129.6502,N,00000.5502,E,2.72,140.35,200416,,,A*60,51.4941749572,0.0091700000,11:50:31,20/4/2016,9,72,90.09,240,39.36,57.19,0,0
$GPRMC,115032.000,A,5129.6493,N,00000.5512,E,2.89,141.09,200416,,,A*61,51.4941558837,0.0091866006,11:50:32,20/4/2016,12,98,90.10,255,40.82,57.12,0,0
$GPRMC,115033.000,A,5129.6485,N,00000.5520,E,3.03,144.88,200416,,,A*69,51.4941406250,0.0092000007,11:50:33,20/4/2016,9,89,131.95,494,41.80,57.17,0,0
$GPRMC,115034.000,A,5129.6477,N,00000.5530,E,3.87,147.28,200416,,,A*67,51.4941253662,0.0092166004,11:50:34,20/4/2016,8,448,147.99,494,41.31,57.50,0,0
$GPRMC,115035.000,A,5129.6471,N,00000.5540,E,2.98,136.48,200416,,,A*68,51.4941177368,0.0092332992,11:50:35,20/4/2016,11,85,134.02,494,39.36,56.64,0,0
$GPRMC,115036.000,A,5129.6465,N,00000.5550,E,2.96,138.93,200416,,,A*69,51.4941062927,0.0092500000,11:50:36,20/4/2016,11,83,145.67,494,38.87,56.46,0,0
$GPRMC,115037.000,A,5129.6459,N,00000.5558,E,2.53,137.91,200416,,,A*6B,51.4940986633,0.0092632999,11:50:37,20/4/2016,26,98,175.55,494,38.38,56.69,0,0
$GPRMC,115038.000,A,5129.6455,N,00000.5565,E,2.29,148.67,200416,,,A*6A,51.4940910339,0.0092750005,11:50:38,20/4/2016,11,88,164.06,494,40.82,56.45,0,0
$GPRMC,115039.000,A,5129.6450,N,00000.5573,E,2.38,137.01,200416,,,A*61,51.4940834045,0.0092882995,11:50:39,20/4/2016,12,71,161.06,494,39.36,55.64,0,0
$GPRMC,115040.000,A,5129.6447,N,00000.5581,E,1.94,115.40,200416,,,A*64,51.4940757751,0.0093015995,11:50:40,20/4/2016,8,44,151.93,495,40.82,51.71,0,0
$GPRMC,115041.000,A,5129.6443,N,00000.5588,E,1.69,108.45,200416,,,A*63,51.4940757751,0.0093133001,11:50:41,20/4/2016,9,114,104.11,383,39.84,53.88,0,0
$GPRMC,115042.000,A,5129.6440,N,00000.5597,E,2.33,125.52,200416,,,A*68,51.4940681457,0.0093283004,11:50:42,20/4/2016,27,83,164.46,494,41.80,55.32,0,0
$GPRMC,115043.000,A,5129.6433,N,00000.5604,E,2.55,137.70,200416,,,A*67,51.4940528869,0.0093400001,11:50:43,20/4/2016,21,303,184.48,494,41.31,55.45,0,0
$GPRMC,115044.000,A,5129.6424,N,00000.5608,E,3.39,164.93,200416,,,A*6A,51.4940414428,0.0093466005,11:50:44,20/4/2016,9,444,184.07,494,41.80,58.79,0,0
$GPRMC,115045.000,A,5129.6413,N,00000.5610,E,4.63,171.21,200416,,,A*63,51.4940185546,0.0093500013,11:50:45,20/4/2016,8,181,176.01,494,44.73,54.42,0,0
$GPRMC,115046.000,A,5129.6404,N,00000.5617,E,4.72,159.93,200416,,,A*62,51.4940109252,0.0093615999,11:50:46,20/4/2016,5,76,176.70,494,40.82,54.08,0,0
$GPRMC,115047.000,A,5129.6395,N,00000.5625,E,3.20,154.17,200416,,,A*6C,51.4939956665,0.0093750000,11:50:47,20/4/2016,6,483,181.08,494,41.31,53.88,0,0
$GPRMC,115048.000,A,5129.6387,N,00000.5630,E,2.30,136.30,200416,,,A*65,51.4939765930,0.0093832998,11:50:48,20/4/2016,10,76,186.71,494,39.84,53.89,0,0
$GPRMC,115049.000,A,5129.6383,N,00000.5639,E,2.34,120.39,200416,,,A*63,51.4939689636,0.0093983001,11:50:49,20/4/2016,11,446,193.30,494,40.82,54.15,0,0
$GPRMC,115050.000,A,5129.6381,N,00000.5650,E,2.50,112.17,200416,,,A*69,51.4939689636,0.0094165992,11:50:50,20/4/2016,9,70,176.34,494,41.31,53.99,0,0
$GPRMC,115051.000,A,5129.6376,N,00000.5657,E,2.13,125.37,200416,,,A*66,51.4939613342,0.0094283008,11:50:51,20/4/2016,10,83,183.64,494,39.36,54.01,0,0
$GPRMC,115052.000,A,5129.6372,N,00000.5664,E,2.08,128.59,200416,,,A*6E,51.4939537048,0.0094400005,11:50:52,20/4/2016,10,231,160.06,494,40.82,53.82,0,0
$GPRMC,115053.000,A,5129.6368,N,00000.5674,E,2.28,135.78,200416,,,A*68,51.4939460754,0.0094566011,11:50:53,20/4/2016,11,487,144.35,494,41.31,53.85,0,0
$GPRMC,115054.000,A,5129.6359,N,00000.5682,E,2.33,137.50,200416,,,A*66,51.4939308166,0.0094700002,11:50:54,20/4/2016,10,72,177.82,494,41.80,54.14,0,0
$GPRMC,115055.000,A,5129.6353,N,00000.5688,E,2.73,150.70,200416,,,A*60,51.4939193725,0.0094800004,11:50:55,20/4/2016,9,208,173.55,494,41.80,54.12,0,0
$GPRMC,115056.000,A,5129.6346,N,00000.5696,E,2.94,143.74,200416,,,A*67,51.4939117431,0.0094933004,11:50:56,20/4/2016,9,66,178.44,494,41.80,54.19,0,0
$GPRMC,115057.000,A,5129.6343,N,00000.5705,E,2.91,144.21,200416,,,A*6A,51.4939041137,0.0095083007,11:50:57,20/4/2016,9,114,172.47,494,41.80,53.89,0,0
$GPRMC,115058.000,A,5129.6338,N,00000.5716,E,2.78,140.20,200416,,,A*69,51.4938964843,0.0095265998,11:50:58,20/4/2016,6,179,137.56,494,37.89,53.64,0,0
$GPRMC,115059.000,A,5129.6333,N,00000.5728,E,2.88,127.16,200416,,,A*65,51.4938888549,0.0095466012,11:50:59,20/4/2016,8,88,177.62,494,41.80,53.83,0,0
$GPRMC,115100.000,A,5129.6327,N,00000.5737,E,2.99,137.49,200416,,,A*68,51.4938812255,0.0095615997,11:51:0,20/4/2016,9,417,157.49,494,40.33,53.65,0,0
$GPRMC,115101.000,A,5129.6321,N,00000.5748,E,3.23,134.47,200416,,,A*6A,51.4938735961,0.0095800008,11:51:1,20/4/2016,9,78,139.24,494,40.82,53.27,0,0
$GPRMC,115102.000,A,5129.6315,N,00000.5760,E,3.12,136.24,200416,,,A*61,51.4938545227,0.0096000003,11:51:2,20/4/2016,9,79,117.39,494,39.84,52.39,0,0
$GPRMC,115103.000,A,5129.6310,N,00000.5769,E,3.31,138.44,200416,,,A*65,51.4938468933,0.0096150007,11:51:3,20/4/2016,12,130,89.75,256,41.31,52.44,0,0
$GPRMC,115104.000,A,5129.6305,N,00000.5779,E,4.17,138.78,200416,,,A*6B,51.4938392639,0.0096316003,11:51:4,20/4/2016,10,63,144.48,494,41.80,52.94,0,0
$GPRMC,115105.000,A,5129.6298,N,00000.5793,E,5.31,136.07,200416,,,A*68,51.4938316345,0.0096549997,11:51:5,20/4/2016,12,351,137.40,494,41.80,53.21,0,0
$GPRMC,115106.000,A,5129.6291,N,00000.5806,E,3.39,132.24,200416,,,A*6A,51.4938163757,0.0096766004,11:51:6,20/4/2016,11,65,136.37,494,41.80,53.32,0,0
$GPRMC,115107.000,A,5129.6286,N,00000.5815,E,4.56,138.35,200416,,,A*6B,51.4938087463,0.0096915998,11:51:7,20/4/2016,11,403,177.33,494,42.29,53.61,1,1
$GPRMC,115108.000,A,5129.6283,N,00000.5837,E,6.84,96.68,200416,,,A*51,51.4938087463,0.0097283000,11:51:8,20/4/2016,11,71,85.62,438,41.80,52.36,0,1
$GPRMC,115109.000,A,5129.6287,N,00000.5852,E,4.98,36.81,200416,,,A*55,51.4938163757,0.0097533016,11:51:9,20/4/2016,12,70,146.38,494,40.33,52.49,0,1
$GPRMC,115110.000,A,5129.6283,N,00000.5865,E,2.81,45.97,200416,,,A*50,51.4938087463,0.0097750005,11:51:10,20/4/2016,11,68,83.86,264,41.31,51.76,0,1
$GPRMC,115111.000,A,5129.6278,N,00000.5876,E,2.42,90.51,200416,,,A*5A,51.4937973022,0.0097932996,11:51:11,20/4/2016,12,99,138.23,494,41.80,52.74,0,1
$GPRMC,115112.000,A,5129.6274,N,00000.5886,E,3.38,118.87,200416,,,A*6C,51.4937896728,0.0098100004,11:51:12,20/4/2016,12,87,141.14,494,41.80,52.77,0,1
$GPRMC,115113.000,A,5129.6270,N,00000.5899,E,3.86,117.56,200416,,,A*61,51.4937820434,0.0098316011,11:51:13,20/4/2016,12,105,107.68,494,41.31,52.23,0,1
$GPRMC,115114.000,A,5129.6267,N,00000.5912,E,3.39,106.03,200416,,,A*66,51.4937744140,0.0098533000,11:51:14,20/4/2016,11,494,148.68,494,41.80,52.66,0,1
$GPRMC,115115.000,A,5129.6264,N,00000.5926,E,3.52,103.34,200416,,,A*6F,51.4937744140,0.0098766002,11:51:15,20/4/2016,11,93,143.73,494,41.31,52.56,0,1
$GPRMC,115116.000,A,5129.6258,N,00000.5940,E,3.89,122.96,200416,,,A*6E,51.4937667846,0.0099000005,11:51:16,20/4/2016,13,209,140.99,494,41.31,52.73,0,1
$GPRMC,115117.000,A,5129.6253,N,00000.5955,E,4.32,121.00,200416,,,A*6B,51.4937591552,0.0099249992,11:51:17,20/4/2016,12,92,140.32,494,41.31,52.74,0,1
$GPRMC,115118.000,A,5129.6252,N,00000.5969,E,3.88,110.06,200416,,,A*68,51.4937515258,0.0099483003,11:51:18,20/4/2016,12,95,140.73,494,41.31,52.40,0,1
$GPRMC,115119.000,A,5129.6249,N,00000.5980,E,2.76,94.78,200416,,,A*50,51.4937515258,0.0099666004,11:51:19,20/4/2016,11,103,84.89,250,39.84,51.99,0,1
$GPRMC,115120.000,A,5129.6250,N,00000.5990,E,2.84,76.62,200416,,,A*59,51.4937515258,0.0099833002,11:51:20,20/4/2016,12,196,136.67,494,41.31,52.07,0,1
$GPRMC,115121.000,A,5129.6251,N,00000.5999,E,2.39,60.38,200416,,,A*5E,51.4937515258,0.0099983005,11:51:21,20/4/2016,10,74,144.08,494,41.80,52.40,0,1
$GPRMC,115122.000,A,5129.6253,N,00000.6006,E,2.28,58.86,200416,,,A*5D,51.4937591552,0.0100100004,11:51:22,20/4/2016,11,74,141.19,494,41.80,52.49,0,1
$GPRMC,115123.000,A,5129.6258,N,00000.6013,E,2.17,51.10,200416,,,A*59,51.4937667846,0.0100216007,11:51:23,20/4/2016,11,85,83.38,224,41.80,51.91,0,1
$GPRMC,115124.000,A,5129.6263,N,00000.6018,E,2.46,23.75,200416,,,A*5F,51.4937744140,0.0100300002,11:51:24,20/4/2016,11,69,86.81,258,41.31,51.29,0,1
$GPRMC,115125.000,A,5129.6269,N,00000.6022,E,2.67,15.06,200416,,,A*5F,51.4937820434,0.0100366008,11:51:25,20/4/2016,13,86,85.98,288,40.82,51.56,0,1
$GPRMC,115126.000,A,5129.6274,N,00000.6026,E,2.77,16.36,200416,,,A*55,51.4937896728,0.0100433003,11:51:26,20/4/2016,11,79,83.17,247,39.36,51.70,0,1
$GPRMC,115127.000,A,5129.6276,N,00000.6035,E,2.50,38.20,200416,,,A*5A,51.4937896728,0.0100583004,11:51:27,20/4/2016,12,104,130.38,494,41.31,52.48,0,1
$GPRMC,115128.000,A,5129.6277,N,00000.6047,E,2.62,71.52,200416,,,A*58,51.4937973022,0.0100783002,11:51:28,20/4/2016,13,37,84.67,247,41.80,52.13,0,1
$GPRMC,115129.000,A,5129.6279,N,00000.6058,E,2.26,55.00,200416,,,A*58,51.4937973022,0.0100966000,11:51:29,20/4/2016,12,60,83.88,256,41.80,52.28,0,1
$GPRMC,115130.000,A,5129.6283,N,00000.6068,E,2.52,64.18,200416,,,A*5E,51.4938087463,0.0101133000,11:51:30,20/4/2016,11,70,84.20,223,41.80,52.85,0,1
$GPRMC,115131.000,A,5129.6287,N,00000.6079,E,2.69,86.30,200416,,,A*55,51.4938163757,0.0101315999,11:51:31,20/4/2016,14,92,86.43,256,38.87,52.95,0,1
$GPRMC,115132.000,A,5129.6289,N,00000.6091,E,2.60,74.17,200416,,,A*5F,51.4938163757,0.0101516008,11:51:32,20/4/2016,14,95,84.56,261,40.82,52.12,0,1
$GPRMC,115133.000,A,5129.6292,N,00000.6103,E,2.85,66.62,200416,,,A*54,51.4938240051,0.0101716005,11:51:33,20/4/2016,14,73,81.62,239,40.82,51.45,0,1
$GPRMC,115134.000,A,5129.6297,N,00000.6112,E,2.68,41.49,200416,,,A*59,51.4938316345,0.0101866006,11:51:34,20/4/2016,12,60,82.86,246,40.82,51.35,0,1
$GPRMC,115135.000,A,5129.6303,N,00000.6123,E,3.18,20.85,200416,,,A*57,51.4938392639,0.0102050006,11:51:35,20/4/2016,12,98,85.16,254,40.82,51.23,0,1
$GPRMC,115136.000,A,5129.6309,N,00000.6130,E,2.95,11.59,200416,,,A*5B,51.4938468933,0.0102166008,11:51:36,20/4/2016,13,92,83.92,245,40.82,51.58,0,1
$GPRMC,115137.000,A,5129.6315,N,00000.6138,E,3.47,18.59,200416,,,A*58,51.4938545227,0.0102300012,11:51:37,20/4/2016,13,106,86.64,264,39.36,51.40,0,1
$GPRMC,115138.000,A,5129.6322,N,00000.6145,E,3.06,27.94,200416,,,A*51,51.4938735961,0.0102415990,11:51:38,20/4/2016,13,101,82.82,250,40.82,51.20,0,1
$GPRMC,115139.000,A,5129.6326,N,00000.6154,E,2.43,47.46,200416,,,A*5D,51.4938812255,0.0102566003,11:51:39,20/4/2016,10,65,87.39,258,40.33,51.41,0,1
$GPRMC,115140.000,A,5129.6330,N,00000.6166,E,2.66,54.67,200416,,,A*53,51.4938812255,0.0102766013,11:51:40,20/4/2016,11,51,87.26,286,40.33,50.90,0,1
$GPRMC,115141.000,A,5129.6334,N,00000.6179,E,2.84,48.69,200416,,,A*57,51.4938888549,0.0102983009,11:51:41,20/4/2016,11,87,97.85,267,40.33,50.88,0,1
$GPRMC,115142.000,A,5129.6337,N,00000.6197,E,4.19,47.18,200416,,,A*5C,51.4938964843,0.0103283011,11:51:42,20/4/2016,12,68,83.45,270,39.84,50.86,0,1
$GPRMC,115143.000,A,5129.6338,N,00000.6212,E,2.25,79.85,200416,,,A*5C,51.4938964843,0.0103533005,11:51:43,20/4/2016,26,85,83.75,244,39.36,50.96,0,1
$GPRMC,115144.000,A,5129.6337,N,00000.6222,E,1.99,106.23,200416,,,A*66,51.4938964843,0.0103700006,11:51:44,20/4/2016,27,77,84.07,242,39.36,50.82,0,1
$GPRMC,115145.000,A,5129.6333,N,00000.6233,E,2.23,109.98,200416,,,A*6E,51.4938888549,0.0103883004,11:51:45,20/4/2016,12,88,82.74,274,38.87,50.71,0,1
$GPRMC,115146.000,A,5129.6330,N,00000.6241,E,1.93,110.48,200416,,,A*66,51.4938812255,0.0104016005,11:51:46,20/4/2016,16,84,83.75,233,39.36,50.96,0,1
$GPRMC,115147.000,A,5129.6330,N,00000.6249,E,2.16,90.21,200416,,,A*57,51.4938812255,0.0104150009,11:51:47,20/4/2016,13,72,83.24,233,39.36,51.00,0,1
$GPRMC,115148.000,A,5129.6332,N,00000.6258,E,2.95,69.78,200416,,,A*5B,51.4938888549,0.0104299998,11:51:48,20/4/2016,27,78,85.10,261,39.36,51.00,0,1
$GPRMC,115149.000,A,5129.6334,N,00000.6270,E,2.59,66.23,200416,,,A*57,51.4938888549,0.0104500007,11:51:49,20/4/2016,12,66,87.93,285,38.87,50.95,0,1
$GPRMC,115150.000,A,5129.6333,N,00000.6278,E,1.90,104.08,200416,,,A*6A,51.4938888549,0.0104632997,11:51:50,20/4/2016,10,57,84.71,238,39.36,50.91,0,1
$GPRMC,115151.000,A,5129.6328,N,00000.6288,E,2.40,132.69,200416,,,A*62,51.4938812255,0.0104800009,11:51:51,20/4/2016,10,46,84.79,251,39.84,51.00,0,1
$GPRMC,115152.000,A,5129.6322,N,00000.6297,E,2.86,133.48,200416,,,A*6D,51.4938735961,0.0104949998,11:51:52,20/4/2016,11,91,84.65,256,40.33,51.00,0,1
$GPRMC,115153.000,A,5129.6318,N,00000.6306,E,2.63,126.90,200416,,,A*66,51.4938621520,0.0105100011,11:51:53,20/4/2016,6,83,87.80,261,39.84,50.99,0,1
$GPRMC,115154.000,A,5129.6312,N,00000.6316,E,2.61,129.55,200416,,,A*6E,51.4938545227,0.0105265998,11:51:54,20/4/2016,9,91,88.57,425,39.84,51.00,0,1
$GPRMC,115155.000,A,5129.6306,N,00000.6325,E,2.86,140.44,200416,,,A*6C,51.4938392639,0.0105415999,11:51:55,20/4/2016,9,88,89.00,417,39.84,51.00,0,1
$GPRMC,115156.000,A,5129.6295,N,00000.6334,E,3.93,157.88,200416,,,A*67,51.4938240051,0.0105566000,11:51:56,20/4/2016,9,79,89.96,386,39.84,51.00,0,1
$GPRMC,115157.000,A,5129.6277,N,00000.6350,E,3.72,166.24,200416,,,A*63,51.4937973022,0.0105833005,11:51:57,20/4/2016,8,80,84.32,247,39.84,51.00,0,1
$GPRMC,115158.000,A,5129.6260,N,00000.6357,E,4.07,186.43,200416,,,A*67,51.4937667846,0.0105950009,11:51:58,20/4/2016,9,89,84.73,252,40.33,51.00,0,1
$GPRMC,115159.000,A,5129.6248,N,00000.6355,E,3.90,201.44,200416,,,A*6C,51.4937515258,0.0105915999,11:51:59,20/4/2016,8,72,85.11,249,40.33,51.00,0,1
$GPRMC,115200.000,A,5129.6237,N,00000.6350,E,3.59,207.63,200416,,,A*68,51.4937248229,0.0105833005,11:52:0,20/4/2016,8,83,84.48,252,40.82,51.00,0,1
$GPRMC,115201.000,A,5129.6226,N,00000.6342,E,4.48,212.63,200416,,,A*69,51.4937095642,0.0105700004,11:52:1,20/4/2016,9,75,84.64,255,40.82,51.01,0,1
$GPRMC,115202.000,A,5129.6217,N,00000.6335,E,4.37,216.76,200416,,,A*60,51.4936943054,0.0105583000,11:52:2,20/4/2016,9,68,84.88,254,41.31,51.28,0,1
$GPRMC,115203.000,A,5129.6209,N,00000.6324,E,4.57,220.87,200416,,,A*63,51.4936866760,0.0105400002,11:52:3,20/4/2016,9,83,83.97,256,41.31,51.65,0,1
$GPRMC,115204.000,A,5129.6204,N,00000.6316,E,4.00,219.63,200416,,,A*6A,51.4936752319,0.0105265998,11:52:4,20/4/2016,9,85,86.70,356,40.82,51.43,0,1
$GPRMC,115205.000,A,5129.6198,N,00000.6309,E,3.80,220.53,200416,,,A*65,51.4936599731,0.0105150008,11:52:5,20/4/2016,9,96,83.76,270,40.82,51.19,0,1
$GPRMC,115206.000,A,5129.6192,N,00000.6297,E,4.05,229.99,200416,,,A*6F,51.4936523437,0.0104949998,11:52:6,20/4/2016,9,101,87.14,260,39.84,51.25,0,1
$GPRMC,115207.000,A,5129.6186,N,00000.6288,E,3.50,219.52,200416,,,A*66,51.4936447143,0.0104800009,11:52:7,20/4/2016,8,65,83.11,259,40.33,51.00,0,1
$GPRMC,115208.000,A,5129.6178,N,00000.6280,E,3.00,218.38,200416,,,A*68,51.4936294555,0.0104666006,11:52:8,20/4/2016,9,88,82.50,238,40.82,51.02,0,1
$GPRMC,115209.000,A,5129.6170,N,00000.6274,E,3.21,223.36,200416,,,A*6F,51.4936180114,0.0104566001,11:52:9,20/4/2016,9,67,83.49,251,40.82,51.26,0,1
$GPRMC,115210.000,A,5129.6163,N,00000.6267,E,2.82,219.08,200416,,,A*6B,51.4936027526,0.0104449999,11:52:10,20/4/2016,9,70,86.56,253,40.33,51.33,0,1
$GPRMC,115211.000,A,5129.6156,N,00000.6258,E,2.95,216.85,200416,,,A*6C,51.4935951232,0.0104299998,11:52:11,20/4/2016,9,76,81.27,239,40.33,51.00,0,1
$GPRMC,115212.000,A,5129.6150,N,00000.6252,E,2.82,214.03,200416,,,A*69,51.4935874938,0.0104200005,11:52:12,20/4/2016,9,65,82.12,254,40.82,51.01,0,1
$GPRMC,115213.000,A,5129.6142,N,00000.6246,E,2.64,205.11,200416,,,A*65,51.4935722351,0.0104100000,11:52:13,20/4/2016,9,88,82.29,238,41.31,51.31,0,1
$GPRMC,115214.000,A,5129.6134,N,00000.6242,E,3.16,197.70,200416,,,A*6C,51.4935531616,0.0104033005,11:52:14,20/4/2016,9,78,82.79,262,41.80,51.96,0,1
$GPRMC,115215.000,A,5129.6124,N,00000.6236,E,3.41,198.13,200416,,,A*67,51.4935379028,0.0103933000,11:52:15,20/4/2016,9,76,83.39,244,41.80,52.01,0,1
$GPRMC,115216.000,A,5129.6113,N,00000.6231,E,3.75,195.45,200416,,,A*6E,51.4935226440,0.0103850007,11:52:16,20/4/2016,9,82,84.15,258,41.31,52.04,0,1
$GPRMC,115217.000,A,5129.6106,N,00000.6226,E,2.90,208.69,200416,,,A*6E,51.4935150146,0.0103766012,11:52:17,20/4/2016,9,82,81.99,250,41.80,52.17,0,1
$GPRMC,115218.000,A,5129.6100,N,00000.6219,E,3.02,217.90,200416,,,A*69,51.4934959411,0.0103649997,11:52:18,20/4/2016,9,69,156.28,494,41.80,52.60,0,1
$GPRMC,115219.000,A,5129.6094,N,00000.6213,E,2.93,217.01,200416,,,A*6F,51.4934883117,0.0103550004,11:52:19,20/4/2016,9,70,156.84,494,42.29,52.63,0,1
$GPRMC,115220.000,A,5129.6087,N,00000.6213,E,2.89,194.36,200416,,,A*60,51.4934806823,0.0103550004,11:52:20,20/4/2016,9,93,154.40,494,42.29,52.68,0,1
$GPRMC,115221.000,A,5129.6077,N,00000.6211,E,3.43,188.67,200416,,,A*62,51.4934654235,0.0103515994,11:52:21,20/4/2016,9,77,158.20,494,42.29,52.68,0,1
$GPRMC,115222.000,A,5129.6066,N,00000.6211,E,3.49,189.53,200416,,,A*6D,51.4934425354,0.0103515994,11:52:22,20/4/2016,9,89,156.53,494,42.77,52.77,0,1
$GPRMC,115223.000,A,5129.6058,N,00000.6210,E,2.25,167.57,200416,,,A*6F,51.4934310913,0.0103500008,11:52:23,20/4/2016,9,47,149.31,494,42.77,52.59,0,1
$GPRMC,115224.000,A,5129.6052,N,00000.6212,E,1.83,103.55,200416,,,A*6F,51.4934158325,0.0103533005,11:52:24,20/4/2016,9,79,157.84,494,42.77,52.57,0,1
$GPRMC,115225.000,A,5129.6047,N,00000.6216,E,1.71,125.58,200416,,,A*6A,51.4934082031,0.0103600013,11:52:25,20/4/2016,9,73,152.31,494,42.77,52.49,0,1
$GPRMC,115226.000,A,5129.6040,N,00000.6218,E,1.61,157.05,200416,,,A*6C,51.4934005737,0.0103632998,11:52:26,20/4/2016,9,191,146.76,494,47.17,52.43,0,1
$GPRMC,115227.000,A,5129.6032,N,00000.6218,E,2.63,191.48,200416,,,A*6A,51.4933853149,0.0103632998,11:52:27,20/4/2016,9,448,134.68,494,43.26,52.48,0,1
$GPRMC,115228.000,A,5129.6024,N,00000.6218,E,2.73,188.41,200416,,,A*62,51.4933738708,0.0103632998,11:52:28,20/4/2016,9,85,152.68,494,43.26,52.15,0,1
$GPRMC,115229.000,A,5129.6015,N,00000.6219,E,3.43,194.01,200416,,,A*6B,51.4933586120,0.0103649997,11:52:29,20/4/2016,10,90,154.98,494,43.26,52.40,0,1
$GPRMC,115230.000,A,5129.6005,N,00000.6219,E,3.34,187.17,200416,,,A*67,51.4933433532,0.0103649997,11:52:30,20/4/2016,10,71,203.13,494,43.26,52.68,0,1
$GPRMC,115231.000,A,5129.5995,N,00000.6217,E,3.60,189.39,200416,,,A*68,51.4933280944,0.0103615999,11:52:31,20/4/2016,9,76,151.12,494,43.26,52.56,0,1
$GPRMC,115232.000,A,5129.5985,N,00000.6217,E,3.79,190.62,200416,,,A*64,51.4933090209,0.0103615999,11:52:32,20/4/2016,9,87,182.60,494,43.75,52.58,0,1
$GPRMC,115233.000,A,5129.5975,N,00000.6215,E,3.41,190.76,200416,,,A*66,51.4932937622,0.0103583002,11:52:33,20/4/2016,9,85,158.30,494,43.75,52.47,0,1
$GPRMC,115234.000,A,5129.5961,N,00000.6214,E,3.75,183.60,200416,,,A*67,51.4932708740,0.0103566002,11:52:34,20/4/2016,9,88,150.23,494,43.75,52.28,0,1
$GPRMC,115235.000,A,5129.5951,N,00000.6213,E,3.35,172.15,200416,,,A*6A,51.4932518005,0.0103550004,11:52:35,20/4/2016,9,85,81.47,227,43.75,51.43,0,1
$GPRMC,115236.000,A,5129.5943,N,00000.6212,E,2.00,182.54,200416,,,A*66,51.4932365417,0.0103533005,11:52:36,20/4/2016,9,72,84.17,255,43.75,51.84,0,1
$GPRMC,115237.000,A,5129.5940,N,00000.6205,E,2.98,257.49,200416,,,A*64,51.4932365417,0.0103416001,11:52:37,20/4/2016,9,70,82.55,259,43.26,51.62,0,1
$GPRMC,115238.000,A,5129.5935,N,00000.6195,E,1.96,255.14,200416,,,A*64,51.4932212829,0.0103250002,11:52:38,20/4/2016,9,52,83.38,238,43.26,51.28,0,1
$GPRMC,115239.000,A,5129.5934,N,00000.6197,E,0.90,66.29,200416,,,A*5D,51.4932212829,0.0103283011,11:52:39,20/4/2016,9,111,84.39,251,43.26,51.25,0,1
$GPRMC,115240.000,A,5129.5927,N,00000.6202,E,2.88,124.69,200416,,,A*66,51.4932136535,0.0103366005,11:52:40,20/4/2016,9,63,82.14,227,43.75,51.18,0,1
$GPRMC,115241.000,A,5129.5921,N,00000.6207,E,1.77,115.26,200416,,,A*6E,51.4932060241,0.0103450000,11:52:41,20/4/2016,9,65,84.29,236,43.26,51.85,0,1
$GPRMC,115242.000,A,5129.5917,N,00000.6203,E,4.15,227.51,200416,,,A*6F,51.4931983947,0.0103383004,11:52:42,20/4/2016,9,56,83.13,250,43.75,51.05,0,1
$GPRMC,115243.000,A,5129.5906,N,00000.6201,E,4.52,179.94,200416,,,A*6E,51.4931793212,0.0103349995,11:52:43,20/4/2016,9,71,84.42,269,42.77,51.10,0,1
$GPRMC,115244.000,A,5129.5896,N,00000.6205,E,3.14,161.16,200416,,,A*63,51.4931640625,0.0103416001,11:52:44,20/4/2016,9,82,81.68,249,42.77,51.01,0,1
$GPRMC,115245.000,A,5129.5890,N,00000.6212,E,3.71,171.82,200416,,,A*6D,51.4931488037,0.0103533005,11:52:45,20/4/2016,9,58,81.97,268,42.77,51.00,0,1
$GPRMC,115246.000,A,5129.5880,N,00000.6215,E,4.82,176.73,200416,,,A*6A,51.4931297302,0.0103583002,11:52:46,20/4/2016,10,78,81.88,234,42.29,50.90,0,1
$GPRMC,115247.000,A,5129.5869,N,00000.6221,E,4.36,171.50,200416,,,A*62,51.4931144714,0.0103683006,11:52:47,20/4/2016,10,66,80.52,226,42.29,50.73,0,1
$GPRMC,115248.000,A,5129.5858,N,00000.6224,E,4.42,176.57,200416,,,A*69,51.4930992126,0.0103733003,11:52:48,20/4/2016,9,81,80.26,243,42.29,50.91,0,1
$GPRMC,115249.000,A,5129.5848,N,00000.6228,E,4.00,168.18,200416,,,A*67,51.4930839538,0.0103799998,11:52:49,20/4/2016,9,82,80.14,220,42.77,50.98,0,1
$GPRMC,115250.000,A,5129.5838,N,00000.6232,E,2.47,154.57,200416,,,A*62,51.4930648803,0.0103866004,11:52:50,20/4/2016,9,60,79.56,259,43.75,51.01,0,1
$GPRMC,115251.000,A,5129.5832,N,00000.6236,E,2.77,157.16,200416,,,A*68,51.4930496215,0.0103933000,11:52:51,20/4/2016,10,90,82.07,281,43.26,51.20,0,1
$GPRMC,115252.000,A,5129.5821,N,00000.6240,E,4.08,162.07,200416,,,A*60,51.4930343627,0.0103999996,11:52:52,20/4/2016,10,98,81.96,247,43.75,51.03,0,1
$GPRMC,115253.000,A,5129.5813,N,00000.6245,E,2.80,149.52,200416,,,A*6A,51.4930191040,0.0104083001,11:52:53,20/4/2016,9,75,82.11,247,43.75,51.01,0,1
$GPRMC,115254.000,A,5129.5806,N,00000.6252,E,2.54,130.91,200416,,,A*67,51.4930076599,0.0104200005,11:52:54,20/4/2016,11,79,90.35,249,43.75,51.00,0,1
$GPRMC,115255.000,A,5129.5803,N,00000.6260,E,2.61,89.78,200416,,,A*50,51.4930000305,0.0104333007,11:52:55,20/4/2016,9,67,91.36,269,42.29,50.74,0,1
$GPRMC,115256.000,A,5129.5800,N,00000.6266,E,1.55,106.68,200416,,,A*65,51.4930000305,0.0104433000,11:52:56,20/4/2016,9,128,93.83,321,43.26,51.29,0,1
$GPRMC,115257.000,A,5129.5798,N,00000.6267,E,0.22,64.79,200416,,,A*5F,51.4929924011,0.0104449999,11:52:57,20/4/2016,9,57,89.32,301,42.29,50.53,0,1
$GPRMC,115258.000,A,5129.5791,N,00000.6265,E,0.96,165.28,200416,,,A*60,51.4929847717,0.0104416000,11:52:58,20/4/2016,9,71,101.64,463,42.77,50.07,0,1
$GPRMC,115259.000,A,5129.5785,N,00000.6259,E,1.53,220.61,200416,,,A*6C,51.4929771423,0.0104316008,11:52:59,20/4/2016,9,83,83.32,258,42.77,50.67,0,1
$GPRMC,115300.000,A,5129.5783,N,00000.6250,E,2.47,256.50,200416,,,A*6B,51.4929695129,0.0104166007,11:53:0,20/4/2016,9,71,84.08,334,42.77,50.28,0,1
$GPRMC,115301.000,A,5129.5781,N,00000.6238,E,3.07,253.45,200416,,,A*62,51.4929695129,0.0103966009,11:53:1,20/4/2016,9,51,83.33,292,42.29,50.36,0,1
$GPRMC,115302.000,A,5129.5777,N,00000.6228,E,2.57,246.26,200416,,,A*6C,51.4929618835,0.0103799998,11:53:2,20/4/2016,9,49,109.04,357,42.29,50.07,0,1
$GPRMC,115303.000,A,5129.5774,N,00000.6218,E,2.83,247.14,200416,,,A*64,51.4929618835,0.0103632998,11:53:3,20/4/2016,9,134,88.56,237,42.29,50.21,0,1
$GPRMC,115304.000,A,5129.5769,N,00000.6207,E,2.24,257.78,200416,,,A*67,51.4929428100,0.0103450000,11:53:4,20/4/2016,8,114,99.08,343,41.80,50.08,0,1
$GPRMC,115305.000,A,5129.5768,N,00000.6201,E,1.06,258.53,200416,,,A*64,51.4929428100,0.0103349995,11:53:5,20/4/2016,8,71,82.26,256,41.80,50.04,0,1
$GPRMC,115306.000,A,5129.5762,N,00000.6200,E,2.54,168.88,200416,,,A*6E,51.4929351806,0.0103333008,11:53:6,20/4/2016,10,72,82.22,273,41.80,50.03,0,1
$GPRMC,115307.000,A,5129.5755,N,00000.6202,E,2.78,158.24,200416,,,A*62,51.4929275512,0.0103366005,11:53:7,20/4/2016,9,77,83.05,285,41.80,50.17,0,1
$GPRMC,115308.000,A,5129.5746,N,00000.6209,E,3.43,146.97,200416,,,A*6A,51.4929122924,0.0103483009,11:53:8,20/4/2016,9,47,86.04,268,41.31,50.09,0,1
$GPRMC,115309.000,A,5129.5738,N,00000.6214,E,2.37,127.87,200416,,,A*6A,51.4928970336,0.0103566002,11:53:9,20/4/2016,9,107,108.40,309,41.80,50.18,0,1
$GPRMC,115310.000,A,5129.5729,N,00000.6215,E,2.38,126.90,200416,,,A*6B,51.4928779602,0.0103583002,11:53:10,20/4/2016,8,52,96.53,264,41.31,50.00,0,1
$GPRMC,115311.000,A,5129.5726,N,00000.6220,E,1.41,119.03,200416,,,A*68,51.4928779602,0.0103666007,11:53:11,20/4/2016,9,72,89.23,275,40.82,50.00,0,1
$GPRMC,115312.000,A,5129.5724,N,00000.6216,E,1.04,273.94,200416,,,A*6C,51.4928703308,0.0103600013,11:53:12,20/4/2016,9,86,94.88,313,40.82,50.01,0,1
$GPRMC,115313.000,A,5129.5722,N,00000.6209,E,1.84,261.50,200416,,,A*66,51.4928703308,0.0103483009,11:53:13,20/4/2016,9,76,85.70,320,40.82,50.54,0,1
$GPRMC,115314.000,A,5129.5721,N,00000.6197,E,2.45,244.89,200416,,,A*6B,51.4928703308,0.0103283011,11:53:14,20/4/2016,9,92,83.10,325,40.82,51.01,0,1
$GPRMC,115315.000,A,5129.5716,N,00000.6182,E,3.51,234.92,200416,,,A*63,51.4928627014,0.0103033006,11:53:15,20/4/2016,9,90,96.16,313,40.33,50.98,0,1
$GPRMC,115316.000,A,5129.5710,N,00000.6174,E,2.45,231.41,200416,,,A*60,51.4928474426,0.0102900004,11:53:16,20/4/2016,9,76,83.54,280,40.33,50.92,0,1
$GPRMC,115317.000,A,5129.5708,N,00000.6170,E,1.45,205.49,200416,,,A*60,51.4928474426,0.0102833008,11:53:17,20/4/2016,10,74,82.93,260,39.84,50.20,0,1
$GPRMC,115318.000,A,5129.5695,N,00000.6159,E,2.45,193.64,200416,,,A*61,51.4928207397,0.0102650010,11:53:18,20/4/2016,10,71,81.38,274,40.33,50.15,0,1
$GPRMC,115319.000,A,5129.5682,N,00000.6150,E,2.82,198.14,200416,,,A*68,51.4928054809,0.0102500009,11:53:19,20/4/2016,10,72,80.75,285,40.82,50.22,0,1
$GPRMC,115320.000,A,5129.5673,N,00000.6142,E,2.74,201.20,200416,,,A*62,51.4927902221,0.0102365994,11:53:20,20/4/2016,10,139,85.57,233,39.84,50.09,0,1
$GPRMC,115321.000,A,5129.5666,N,00000.6137,E,2.93,204.10,200416,,,A*6A,51.4927749633,0.0102283000,11:53:21,20/4/2016,11,83,83.20,284,41.80,50.28,0,1
$GPRMC,115322.000,A,5129.5656,N,00000.6136,E,2.31,157.03,200416,,,A*64,51.4927558898,0.0102266001,11:53:22,20/4/2016,10,73,84.93,255,41.31,50.40,0,1
$GPRMC,115323.000,A,5129.5651,N,00000.6138,E,1.91,173.76,200416,,,A*61,51.4927482604,0.0102300012,11:53:23,20/4/2016,10,80,83.07,271,41.31,50.69,0,1
$GPRMC,115324.000,A,5129.5628,N,00000.6133,E,7.32,214.83,200416,,,A*64,51.4927177429,0.0102216005,11:53:24,20/4/2016,9,87,85.05,278,42.29,50.74,0,1
$GPRMC,115325.000,A,5129.5614,N,00000.6118,E,6.09,217.07,200416,,,A*65,51.4926910400,0.0101965999,11:53:25,20/4/2016,12,81,83.04,276,42.29,50.58,0,1
$GPRMC,115326.000,A,5129.5601,N,00000.6116,E,3.89,163.12,200416,,,A*65,51.4926681518,0.0101933002,11:53:26,20/4/2016,11,76,83.86,261,41.80,50.68,0,1
$GPRMC,115327.000,A,5129.5591,N,00000.6118,E,3.87,144.67,200416,,,A*69,51.4926528930,0.0101965999,11:53:27,20/4/2016,12,90,86.34,241,42.29,50.73,0,1
$GPRMC,115328.000,A,5129.5583,N,00000.6118,E,2.84,151.89,200416,,,A*63,51.4926338195,0.0101965999,11:53:28,20/4/2016,11,60,84.59,273,42.29,50.93,0,1
$GPRMC,115329.000,A,5129.5583,N,00000.6129,E,1.70,154.60,200416,,,A*6A,51.4926338195,0.0102149999,11:53:29,20/4/2016,11,67,84.62,244,41.31,50.84,0,1
$GPRMC,115330.000,A,5129.5581,N,00000.6139,E,1.59,122.25,200416,,,A*6A,51.4926338195,0.0102315998,11:53:30,20/4/2016,9,110,84.37,277,41.80,50.78,0,1
$GPRMC,115331.000,A,5129.5576,N,00000.6149,E,2.95,157.91,200416,,,A*6A,51.4926261901,0.0102483010,11:53:31,20/4/2016,9,51,84.77,292,41.80,50.94,0,1
$GPRMC,115332.000,A,5129.5569,N,00000.6157,E,2.49,168.17,200416,,,A*6B,51.4926185607,0.0102616000,11:53:32,20/4/2016,11,99,85.13,300,41.31,51.01,0,1
$GPRMC,115333.000,A,5129.5564,N,00000.6161,E,2.31,167.65,200416,,,A*67,51.4926109313,0.0102683007,11:53:33,20/4/2016,9,76,85.51,311,41.31,50.63,0,1
$GPRMC,115334.000,A,5129.5559,N,00000.6167,E,1.90,160.58,200416,,,A*69,51.4925956726,0.0102783000,11:53:34,20/4/2016,12,76,96.45,281,42.77,51.01,0,1
$GPRMC,115335.000,A,5129.5553,N,00000.6174,E,2.30,160.62,200416,,,A*60,51.4925880432,0.0102900004,11:53:35,20/4/2016,24,98,106.11,329,42.29,51.00,0,1
$GPRMC,115336.000,A,5129.5552,N,00000.6185,E,0.74,117.39,200416,,,A*60,51.4925880432,0.0103083002,11:53:36,20/4/2016,9,91,115.52,330,41.31,51.14,0,1
$GPRMC,115337.000,A,5129.5550,N,00000.6190,E,0.46,149.30,200416,,,A*64,51.4925880432,0.0103165996,11:53:37,20/4/2016,12,126,105.75,354,42.77,51.49,0,1
$GPRMC,115338.000,A,5129.5543,N,00000.6191,E,1.76,179.83,200416,,,A*61,51.4925689697,0.0103183007,11:53:38,20/4/2016,9,98,134.44,417,41.80,51.81,0,1
$GPRMC,115339.000,A,5129.5533,N,00000.6198,E,4.47,148.92,200416,,,A*6B,51.4925537109,0.0103299999,11:53:39,20/4/2016,9,144,117.76,286,43.26,52.23,1,2
$GPRMC,115340.000,A,5129.5523,N,00000.6207,E,4.63,146.42,200416,,,A*64,51.4925384521,0.0103450000,11:53:40,20/4/2016,11,98,122.81,339,41.80,51.87,0,2
$GPRMC,115341.000,A,5129.5520,N,00000.6229,E,6.55,107.59,200416,,,A*62,51.4925308227,0.0103816008,11:53:41,20/4/2016,10,97,91.65,299,41.80,51.76,1,3
$GPRMC,115342.000,A,5129.5511,N,00000.6252,E,6.01,121.21,200416,,,A*65,51.4925193786,0.0104200005,11:53:42,20/4/2016,10,89,83.22,322,42.29,52.21,0,3
$GPRMC,115343.000,A,5129.5503,N,00000.6266,E,3.83,134.34,200416,,,A*6F,51.4925041198,0.0104433000,11:53:43,20/4/2016,9,89,85.04,271,43.26,52.26,0,3
$GPRMC,115344.000,A,5129.5496,N,00000.6277,E,3.48,134.34,200416,,,A*62,51.4924964904,0.0104615998,11:53:44,20/4/2016,9,105,90.13,391,43.26,52.30,0,3
$GPRMC,115345.000,A,5129.5487,N,00000.6284,E,3.50,126.65,200416,,,A*61,51.4924812316,0.0104733002,11:53:45,20/4/2016,10,79,89.83,430,43.26,52.17,0,3
$GPRMC,115346.000,A,5129.5480,N,00000.6291,E,3.67,135.43,200416,,,A*63,51.4924659729,0.0104850006,11:53:46,20/4/2016,10,95,89.06,390,43.26,51.96,0,3
$GPRMC,115347.000,A,5129.5471,N,00000.6297,E,2.66,149.02,200416,,,A*64,51.4924468994,0.0104949998,11:53:47,20/4/2016,12,71,84.70,290,41.80,51.69,0,3
$GPRMC,115348.000,A,5129.5463,N,00000.6303,E,2.19,157.14,200416,,,A*64,51.4924392700,0.0105050015,11:53:48,20/4/2016,11,87,87.55,269,43.26,51.53,0,3
$GPRMC,115349.000,A,5129.5456,N,00000.6307,E,2.04,168.49,200416,,,A*6F,51.4924240112,0.0105115997,11:53:49,20/4/2016,11,85,83.36,316,43.26,51.37,0,3
$GPRMC,115350.000,A,5129.5448,N,00000.6307,E,2.14,170.37,200416,,,A*69,51.4924163818,0.0105115997,11:53:50,20/4/2016,10,86,83.16,289,42.77,51.66,0,3
$GPRMC,115351.000,A,5129.5439,N,00000.6310,E,2.26,157.92,200416,,,A*63,51.4923973083,0.0105166006,11:53:51,20/4/2016,11,72,85.03,250,43.26,51.56,0,3
$GPRMC,115352.000,A,5129.5433,N,00000.6320,E,2.32,133.70,200416,,,A*62,51.4923896789,0.0105332994,11:53:52,20/4/2016,12,72,82.69,277,42.77,51.65,0,3
$GPRMC,115353.000,A,5129.5425,N,00000.6325,E,1.99,139.28,200416,,,A*64,51.4923744201,0.0105415999,11:53:53,20/4/2016,11,73,84.46,280,43.26,51.93,0,3
$GPRMC,115354.000,A,5129.5417,N,00000.6329,E,3.60,152.67,200416,,,A*6C,51.4923591613,0.0105483007,11:53:54,20/4/2016,11,95,82.46,267,44.24,51.73,0,3
$GPRMC,115355.000,A,5129.5409,N,00000.6341,E,3.82,130.28,200416,,,A*6F,51.4923515319,0.0105682992,11:53:55,20/4/2016,12,92,83.46,277,43.75,51.72,0,3
$GPRMC,115356.000,A,5129.5403,N,00000.6353,E,2.51,135.01,200416,,,A*64,51.4923439025,0.0105883002,11:53:56,20/4/2016,7,81,85.16,323,42.77,51.41,0,3
$GPRMC,115357.000,A,5129.5397,N,00000.6364,E,2.24,135.32,200416,,,A*69,51.4923248291,0.0106066012,11:53:57,20/4/2016,11,81,83.63,329,43.75,51.32,0,3
$GPRMC,115358.000,A,5129.5390,N,00000.6374,E,2.84,143.56,200416,,,A*69,51.4923171997,0.0106233000,11:53:58,20/4/2016,11,82,83.05,264,42.77,51.25,0,3
$GPRMC,115359.000,A,5129.5384,N,00000.6384,E,3.06,136.20,200416,,,A*6A,51.4923095703,0.0106400001,11:53:59,20/4/2016,9,89,83.33,279,42.29,51.10,0,3
$GPRMC,115400.000,A,5129.5377,N,00000.6397,E,3.60,134.50,200416,,,A*6A,51.4922943115,0.0106616008,11:54:0,20/4/2016,14,74,82.01,279,42.29,51.03,0,3
$GPRMC,115401.000,A,5129.5372,N,00000.6409,E,3.50,132.93,200416,,,A*64,51.4922866821,0.0106816005,11:54:1,20/4/2016,11,64,82.11,248,43.75,50.63,0,3
$GPRMC,115402.000,A,5129.5367,N,00000.6418,E,2.87,134.93,200416,,,A*6E,51.4922752380,0.0106966006,11:54:2,20/4/2016,12,95,81.02,264,43.26,50.68,0,3
$GPRMC,115403.000,A,5129.5363,N,00000.6429,E,2.48,127.73,200416,,,A*66,51.4922676086,0.0107150006,11:54:3,20/4/2016,25,78,83.27,338,43.75,50.70,0,3
$GPRMC,115404.000,A,5129.5359,N,00000.6440,E,2.38,126.51,200416,,,A*61,51.4922676086,0.0107333004,11:54:4,20/4/2016,10,73,82.67,267,42.77,50.87,0,3
$GPRMC,115405.000,A,5129.5355,N,00000.6450,E,1.84,120.77,200416,,,A*6B,51.4922599792,0.0107500004,11:54:5,20/4/2016,12,73,83.79,267,42.29,51.04,0,3
$GPRMC,115406.000,A,5129.5351,N,00000.6457,E,1.19,148.84,200416,,,A*6D,51.4922523498,0.0107616007,11:54:6,20/4/2016,9,88,82.49,273,42.29,50.78,0,3
$GPRMC,115407.000,A,5129.5347,N,00000.6462,E,1.14,150.43,200416,,,A*62,51.4922447204,0.0107700002,11:54:7,20/4/2016,10,102,80.85,285,43.75,51.00,0,3
$GPRMC,115408.000,A,5129.5341,N,00000.6471,E,1.89,140.10,200416,,,A*6A,51.4922370910,0.0107850003,11:54:8,20/4/2016,9,100,82.92,254,43.75,50.79,0,3
$GPRMC,115409.000,A,5129.5336,N,00000.6479,E,2.02,138.78,200416,,,A*62,51.4922294616,0.0107983005,11:54:9,20/4/2016,11,86,81.77,274,43.75,50.30,0,3
$GPRMC,115410.000,A,5129.5333,N,00000.6488,E,1.89,131.44,200416,,,A*67,51.4922218322,0.0108133006,11:54:10,20/4/2016,12,54,92.29,296,43.26,50.24,0,3
$GPRMC,115411.000,A,5129.5328,N,00000.6499,E,1.82,123.07,200416,,,A*63,51.4922103881,0.0108316003,11:54:11,20/4/2016,13,73,82.11,287,42.29,50.36,0,3
$GPRMC,115412.000,A,5129.5331,N,00000.6506,E,22.45,4.39,200416,,,A*5C,51.4922218322,0.0108433008,11:54:12,20/4/2016,27,77,97.18,255,43.26,50.79,0,3
$GPRMC,115413.000,A,5129.5387,N,00000.6513,E,21.20,3.43,200416,,,A*5E,51.4923095703,0.0108550000,11:54:13,20/4/2016,13,91,81.69,236,42.77,50.87,0,3
$GPRMC,115414.000,A,5129.5414,N,00000.6544,E,17.75,10.38,200416,,,A*6D,51.4923591613,0.0109065998,11:54:14,20/4/2016,11,135,104.39,339,42.77,51.18,0,3
$GPRMC,115415.000,A,5129.5417,N,00000.6578,E,5.68,50.13,200416,,,A*52,51.4923591613,0.0109633016,11:54:15,20/4/2016,9,166,109.37,332,41.80,51.56,0,3
$GPRMC,115416.000,A,5129.5410,N,00000.6597,E,2.13,50.13,200416,,,A*5C,51.4923515319,0.0109950006,11:54:16,20/4/2016,11,134,108.07,371,41.31,51.72,0,3
$GPRMC,115417.000,A,5129.5398,N,00000.6607,E,3.17,137.66,200416,,,A*67,51.4923324584,0.0110116004,11:54:17,20/4/2016,7,64,90.25,301,41.31,52.16,0,3
$GPRMC,115418.000,A,5129.5389,N,00000.6618,E,5.64,117.01,200416,,,A*67,51.4923171997,0.0110300004,11:54:18,20/4/2016,11,102,83.59,294,40.82,52.13,0,3
$GPRMC,115419.000,A,5129.5381,N,00000.6639,E,6.95,107.77,200416,,,A*60,51.4923019409,0.0110650002,11:54:19,20/4/2016,11,91,83.13,242,41.80,52.18,0,3
$GPRMC,115420.000,A,5129.5366,N,00000.6642,E,6.40,131.96,200416,,,A*6D,51.4922752380,0.0110699999,11:54:20,20/4/2016,25,80,79.63,274,40.82,51.74,0,3
$GPRMC,115421.000,A,5129.5352,N,00000.6653,E,4.55,132.83,200416,,,A*6A,51.4922523498,0.0110883009,11:54:21,20/4/2016,12,83,82.36,270,40.82,51.49,0,3
$GPRMC,115422.000,A,5129.5338,N,00000.6666,E,3.06,143.50,200416,,,A*6A,51.4922294616,0.0111100006,11:54:22,20/4/2016,9,60,86.63,277,39.36,51.27,0,3
$GPRMC,115423.000,A,5129.5325,N,00000.6677,E,3.02,146.56,200416,,,A*60,51.4922103881,0.0111283004,11:54:23,20/4/2016,9,123,91.82,327,40.33,50.98,0,3
$GPRMC,115424.000,A,5129.5311,N,00000.6687,E,2.98,151.54,200416,,,A*69,51.4921875000,0.0111450004,11:54:24,20/4/2016,10,49,84.83,276,40.82,51.65,0,3
$GPRMC,115425.000,A,5129.5303,N,00000.6688,E,4.74,145.70,200416,,,A*63,51.4921722412,0.0111466002,11:54:25,20/4/2016,11,77,84.66,279,41.31,51.83,1,4
$GPRMC,115426.000,A,5129.5290,N,00000.6696,E,2.89,145.70,200416,,,A*60,51.4921455383,0.0111600005,11:54:26,20/4/2016,11,57,83.66,292,41.80,51.90,0,4
$GPRMC,115427.000,A,5129.5280,N,00000.6706,E,3.54,127.84,200416,,,A*66,51.4921302795,0.0111766004,11:54:27,20/4/2016,12,55,85.40,248,41.80,51.97,0,4
$GPRMC,115428.000,A,5129.5270,N,00000.6716,E,2.84,127.84,200416,,,A*6B,51.4921150207,0.0111933004,11:54:28,20/4/2016,14,80,89.57,293,41.80,51.61,0,4
$GPRMC,115429.000,A,5129.5262,N,00000.6721,E,2.64,127.84,200416,,,A*63,51.4921073913,0.0112016010,11:54:29,20/4/2016,12,68,82.83,275,41.31,51.61,0,4
$GPRMC,115430.000,A,5129.5256,N,00000.6728,E,2.84,127.84,200416,,,A*6B,51.4920883178,0.0112133014,11:54:30,20/4/2016,11,60,86.16,287,40.33,51.73,0,4
$GPRMC,115431.000,A,5129.5245,N,00000.6740,E,4.81,129.96,200416,,,A*68,51.4920730590,0.0112332999,11:54:31,20/4/2016,11,69,85.68,284,42.29,51.84,1,5
$GPRMC,115432.000,A,5129.5235,N,00000.6751,E,3.88,130.92,200416,,,A*6E,51.4920578002,0.0112515997,11:54:32,20/4/2016,11,77,79.89,253,40.82,51.16,0,5
$GPRMC,115433.000,A,5129.5224,N,00000.6761,E,0.16,130.92,200416,,,A*68,51.4920425415,0.0112683010,11:54:33,20/4/2016,13,76,81.52,264,40.82,51.27,0,5
$GPRMC,115434.000,A,5129.5216,N,00000.6769,E,0.12,130.92,200416,,,A*62,51.4920234680,0.0112815999,11:54:34,20/4/2016,14,81,81.81,260,40.82,51.25,0,5
$GPRMC,115435.000,A,5129.5209,N,00000.6779,E,0.22,130.92,200416,,,A*6F,51.4920158386,0.0112983000,11:54:35,20/4/2016,12,58,82.12,275,39.84,51.46,0,5
$GPRMC,115436.000,A,5129.5200,N,00000.6788,E,0.27,130.92,200416,,,A*6E,51.4920005798,0.0113133001,11:54:36,20/4/2016,11,122,85.06,228,39.84,51.51,0,5
$GPRMC,115437.000,A,5129.5192,N,00000.6800,E,0.31,130.92,200416,,,A*6F,51.4919853210,0.0113333010,11:54:37,20/4/2016,23,59,81.63,235,40.82,51.13,0,5
$GPRMC,115438.000,A,5129.5185,N,00000.6810,E,3.61,139.55,200416,,,A*63,51.4919776916,0.0113500010,11:54:38,20/4/2016,11,79,81.33,266,40.82,50.64,0,5
$GPRMC,115439.000,A,5129.5178,N,00000.6819,E,2.72,139.55,200416,,,A*6A,51.4919586181,0.0113650000,11:54:39,20/4/2016,9,142,105.92,385,40.82,50.73,0,5
$GPRMC,115440.000,A,5129.5170,N,00000.6827,E,2.26,139.55,200416,,,A*60,51.4919509887,0.0113783001,11:54:40,20/4/2016,11,234,132.86,464,40.82,50.84,0,5
$GPRMC,115441.000,A,5129.5160,N,00000.6832,E,2.44,139.55,200416,,,A*60,51.4919357299,0.0113865995,11:54:41,20/4/2016,10,63,106.88,372,40.82,51.53,0,5
$GPRMC,115442.000,A,5129.5152,N,00000.6839,E,3.49,138.90,200416,,,A*6D,51.4919204711,0.0113983011,11:54:42,20/4/2016,12,60,89.39,266,40.33,51.09,0,5
$GPRMC,115443.000,A,5129.5141,N,00000.6853,E,3.31,135.92,200416,,,A*62,51.4919013977,0.0114215993,11:54:43,20/4/2016,12,82,81.86,288,40.33,50.92,0,5
$GPRMC,115444.000,A,5129.5131,N,00000.6865,E,3.10,133.20,200416,,,A*6B,51.4918861389,0.0114416003,11:54:44,20/4/2016,12,71,78.99,257,41.31,51.26,0,5
$GPRMC,115445.000,A,5129.5124,N,00000.6875,E,3.43,131.84,200416,,,A*65,51.4918708801,0.0114583003,11:54:45,20/4/2016,12,73,81.08,291,40.82,50.94,0,5
$GPRMC,115446.000,A,5129.5116,N,00000.6885,E,3.03,122.16,200416,,,A*65,51.4918632507,0.0114750003,11:54:46,20/4/2016,11,75,82.52,271,40.82,50.80,0,5
$GPRMC,115447.000,A,5129.5111,N,00000.6896,E,2.99,124.55,200416,,,A*62,51.4918556213,0.0114933001,11:54:47,20/4/2016,12,93,80.39,285,41.31,51.13,0,5
$GPRMC,115448.000,A,5129.5105,N,00000.6906,E,2.41,124.55,200416,,,A*65,51.4918365478,0.0115100002,11:54:48,20/4/2016,11,116,86.74,260,41.80,51.47,0,5
$GPRMC,115449.000,A,5129.5100,N,00000.6914,E,2.00,124.55,200416,,,A*67,51.4918289184,0.0115233004,11:54:49,20/4/2016,12,65,83.17,280,41.80,51.62,0,5
$GPRMC,115450.000,A,5129.5096,N,00000.6924,E,3.47,135.29,200416,,,A*6B,51.4918289184,0.0115400004,11:54:50,20/4/2016,10,84,80.42,270,42.29,51.35,0,5
$GPRMC,115451.000,A,5129.5089,N,00000.6938,E,4.99,129.96,200416,,,A*64,51.4918136596,0.0115632998,11:54:51,20/4/2016,10,97,79.29,259,42.29,51.50,0,5
$GPRMC,115452.000,A,5129.5082,N,00000.6950,E,5.07,135.28,200416,,,A*6C,51.4918060302,0.0115832996,11:54:52,20/4/2016,8,58,82.20,370,42.29,51.64,0,5
$GPRMC,115453.000,A,5129.5074,N,00000.6960,E,4.14,136.58,200416,,,A*60,51.4917869567,0.0116000008,11:54:53,20/4/2016,8,74,82.31,242,42.29,53.19,0,5
$GPRMC,115454.000,A,5129.5069,N,00000.6968,E,3.11,135.16,200416,,,A*68,51.4917793273,0.0116132998,11:54:54,20/4/2016,9,76,80.52,342,42.29,53.33,0,5
$GPRMC,115455.000,A,5129.5063,N,00000.6976,E,3.61,137.32,200416,,,A*6F,51.4917716979,0.0116266000,11:54:55,20/4/2016,12,58,82.87,296,41.31,53.19,0,5
$GPRMC,115456.000,A,5129.5056,N,00000.6987,E,3.59,132.93,200416,,,A*61,51.4917564392,0.0116449999,11:54:56,20/4/2016,12,80,78.89,252,41.80,52.84,0,5
$GPRMC,115457.000,A,5129.5049,N,00000.6998,E,2.75,132.93,200416,,,A*6F,51.4917488098,0.0116633009,11:54:57,20/4/2016,11,105,82.89,275,42.29,52.71,0,5
$GPRMC,115458.000,A,5129.5044,N,00000.7007,E,0.12,132.93,200416,,,A*60,51.4917411804,0.0116782999,11:54:58,20/4/2016,11,67,97.67,311,42.29,52.67,0,5
$GPRMC,115459.000,A,5129.5044,N,00000.7017,E,0.16,132.93,200416,,,A*64,51.4917411804,0.0116950011,11:54:59,20/4/2016,12,144,95.79,401,41.31,52.91,0,5
$GPRMC,115500.000,A,5129.5040,N,00000.7028,E,0.20,132.93,200416,,,A*64,51.4917335510,0.0117132997,11:55:0,20/4/2016,11,82,81.32,246,41.80,53.30,0,5
$GPRMC,115501.000,A,5129.5035,N,00000.7038,E,0.23,132.93,200416,,,A*65,51.4917221069,0.0117300009,11:55:1,20/4/2016,9,52,88.11,315,40.82,52.87,0,5
$GPRMC,115502.000,A,5129.5029,N,00000.7049,E,0.28,132.93,200416,,,A*66,51.4917144775,0.0117482995,11:55:2,20/4/2016,9,64,77.75,266,42.77,53.28,0,5
$GPRMC,115503.000,A,5129.5022,N,00000.7060,E,0.35,132.93,200416,,,A*6B,51.4917068481,0.0117666006,11:55:3,20/4/2016,11,81,80.08,250,42.77,53.35,0,5
$GPRMC,115504.000,A,5129.5016,N,00000.7071,E,0.33,132.93,200416,,,A*6D,51.4916915893,0.0117850005,11:55:4,20/4/2016,20,89,81.66,270,42.77,53.47,0,5
$GPRMC,115505.000,A,5129.5011,N,00000.7082,E,0.30,132.93,200416,,,A*64,51.4916839599,0.0118033003,11:55:5,20/4/2016,13,92,79.22,271,42.29,52.77,0,5
$GPRMC,115506.000,A,5129.5005,N,00000.7091,E,0.25,132.93,200416,,,A*64,51.4916763305,0.0118183004,11:55:6,20/4/2016,9,72,79.76,290,41.80,52.70,0,5
$GPRMC,115507.000,A,5129.5001,N,00000.7099,E,0.28,132.93,200416,,,A*64,51.4916648864,0.0118316006,11:55:7,20/4/2016,9,82,79.37,258,42.29,52.65,0,5
$GPRMC,115508.000,A,5129.4996,N,00000.7108,E,4.99,130.47,200416,,,A*61,51.4916572570,0.0118466007,11:55:8,20/4/2016,7,102,84.85,304,40.33,52.60,2,7
$GPRMC,115509.000,A,5129.4987,N,00000.7125,E,0.11,130.47,200416,,,A*6B,51.4916419982,0.0118750000,11:55:9,20/4/2016,11,67,78.77,243,40.33,51.84,0,7
$GPRMC,115510.000,A,5129.4982,N,00000.7130,E,0.15,130.47,200416,,,A*66,51.4916343688,0.0118833005,11:55:10,20/4/2016,12,85,79.93,257,41.80,52.07,0,7
$GPRMC,115511.000,A,5129.4978,N,00000.7135,E,0.17,130.47,200416,,,A*65,51.4916267395,0.0118916010,11:55:11,20/4/2016,9,74,78.36,280,40.82,52.30,0,7
$GPRMC,115512.000,A,5129.4974,N,00000.7144,E,0.20,130.47,200416,,,A*68,51.4916267395,0.0119065999,11:55:12,20/4/2016,11,72,79.01,281,41.80,52.20,0,7
$GPRMC,115513.000,A,5129.4968,N,00000.7156,E,0.23,130.47,200416,,,A*64,51.4916114807,0.0119266009,11:55:13,20/4/2016,10,75,78.65,280,40.82,52.35,0,7
$GPRMC,115514.000,A,5129.4961,N,00000.7168,E,0.25,130.47,200416,,,A*61,51.4916000366,0.0119466007,11:55:14,20/4/2016,13,73,79.07,261,40.82,52.20,0,7
$GPRMC,115515.000,A,5129.4952,N,00000.7176,E,0.25,130.47,200416,,,A*6F,51.4915847778,0.0119600009,11:55:15,20/4/2016,10,73,78.67,270,41.31,52.02,0,7
$GPRMC,115516.000,A,5129.4944,N,00000.7187,E,0.26,130.47,200416,,,A*66,51.4915771484,0.0119782996,11:55:16,20/4/2016,10,77,77.78,265,41.31,51.99,0,7
$GPRMC,115517.000,A,5129.4935,N,00000.7196,E,0.29,130.47,200416,,,A*6E,51.4915618896,0.0119933009,11:55:17,20/4/2016,13,99,79.04,249,40.82,52.09,0,7
$GPRMC,115518.000,A,5129.4930,N,00000.7210,E,3.96,130.98,200416,,,A*6C,51.4915542602,0.0120166003,11:55:18,20/4/2016,12,80,78.05,283,40.82,52.06,0,7
$GPRMC,115519.000,A,5129.4924,N,00000.7221,E,3.43,130.10,200416,,,A*62,51.4915351867,0.0120350003,11:55:19,20/4/2016,10,69,78.27,272,41.31,51.91,0,7
$GPRMC,115520.000,A,5129.4921,N,00000.7234,E,3.13,129.76,200416,,,A*64,51.4915351867,0.0120565998,11:55:20,20/4/2016,10,71,78.63,254,41.80,52.00,0,7
$GPRMC,115521.000,A,5129.4915,N,00000.7245,E,2.56,129.76,200416,,,A*64,51.4915275573,0.0120749998,11:55:21,20/4/2016,11,66,79.35,279,41.80,52.22,0,7
$GPRMC,115522.000,A,5129.4910,N,00000.7254,E,3.91,131.64,200416,,,A*62,51.4915199279,0.0120900011,11:55:22,20/4/2016,10,64,78.15,277,41.80,52.04,0,7
$GPRMC,115523.000,A,5129.4904,N,00000.7266,E,4.51,131.02,200416,,,A*6C,51.4915046691,0.0121100008,11:55:23,20/4/2016,9,64,77.67,264,41.31,52.09,0,7
$GPRMC,115524.000,A,5129.4897,N,00000.7278,E,3.68,137.07,200416,,,A*61,51.4914970397,0.0121300005,11:55:24,20/4/2016,10,77,78.49,251,41.31,51.84,0,7
$GPRMC,115525.000,A,5129.4893,N,00000.7289,E,2.97,131.06,200416,,,A*6C,51.4914894104,0.0121483016,11:55:25,20/4/2016,12,69,80.47,287,41.31,52.03,0,7
$GPRMC,115526.000,A,5129.4889,N,00000.7300,E,2.94,131.06,200416,,,A*67,51.4914779663,0.0121666002,11:55:26,20/4/2016,8,69,78.69,250,42.29,52.03,0,7
$GPRMC,115527.000,A,5129.4884,N,00000.7309,E,2.27,131.06,200416,,,A*6A,51.4914703369,0.0121815991,11:55:27,20/4/2016,8,111,81.31,324,43.26,50.66,0,7
$GPRMC,115528.000,A,5129.4880,N,00000.7319,E,3.39,127.87,200416,,,A*60,51.4914627075,0.0121983003,11:55:28,20/4/2016,9,75,106.44,423,43.75,51.35,0,7
$GPRMC,115529.000,A,5129.4875,N,00000.7330,E,3.46,125.67,200416,,,A*64,51.4914550781,0.0122166013,11:55:29,20/4/2016,10,66,86.10,328,43.26,51.13,0,7
$GPRMC,115530.000,A,5129.4871,N,00000.7344,E,3.26,132.80,200416,,,A*62,51.4914550781,0.0122400009,11:55:30,20/4/2016,11,102,86.78,304,43.26,50.85,0,7
$GPRMC,115531.000,A,5129.4865,N,00000.7362,E,2.48,132.80,200416,,,A*6B,51.4914398193,0.0122699999,11:55:31,20/4/2016,11,63,100.11,269,42.77,50.61,0,7
$GPRMC,115532.000,A,5129.4859,N,00000.7373,E,1.49,132.80,200416,,,A*65,51.4914321899,0.0122883009,11:55:32,20/4/2016,10,91,84.19,295,43.26,50.49,0,7
$GPRMC,115533.000,A,5129.4855,N,00000.7378,E,1.13,132.80,200416,,,A*6C,51.4914207458,0.0122966003,11:55:33,20/4/2016,10,63,79.65,280,42.29,50.62,0,7
$GPRMC,115534.000,A,5129.4852,N,00000.7383,E,1.52,132.80,200416,,,A*6D,51.4914207458,0.0123049998,11:55:34,20/4/2016,9,68,87.90,446,42.77,50.51,0,7
$GPRMC,115535.000,A,5129.4847,N,00000.7390,E,1.81,132.80,200416,,,A*64,51.4914131164,0.0123166000,11:55:35,20/4/2016,10,88,85.54,435,41.80,50.49,0,7
$GPRMC,115536.000,A,5129.4843,N,00000.7396,E,2.41,132.80,200416,,,A*6A,51.4914054870,0.0123265993,11:55:36,20/4/2016,11,62,85.44,439,41.80,50.70,0,7
$GPRMC,115537.000,A,5129.4839,N,00000.7407,E,2.77,129.05,200416,,,A*6B,51.4913978576,0.0123450005,11:55:37,20/4/2016,25,88,79.47,283,41.31,50.37,0,7
$GPRMC,115538.000,A,5129.4834,N,00000.7414,E,2.81,131.46,200416,,,A*6C,51.4913902282,0.0123566007,11:55:38,20/4/2016,10,117,85.15,242,42.29,50.31,0,7
$GPRMC,115539.000,A,5129.4828,N,00000.7422,E,1.25,115.24,200416,,,A*6A,51.4913825988,0.0123700010,11:55:39,20/4/2016,9,112,103.20,319,42.29,50.13,0,7
$GPRMC,115540.000,A,5129.4823,N,00000.7425,E,1.54,148.43,200416,,,A*67,51.4913749694,0.0123749995,11:55:40,20/4/2016,9,57,79.10,266,41.80,50.34,0,7
$GPRMC,115541.000,A,5129.4817,N,00000.7428,E,2.02,154.93,200416,,,A*6C,51.4913673400,0.0123800003,11:55:41,20/4/2016,10,56,85.31,253,41.80,50.17,0,7
$GPRMC,115542.000,A,5129.4809,N,00000.7433,E,2.31,156.51,200416,,,A*66,51.4913482666,0.0123883008,11:55:42,20/4/2016,10,70,86.05,297,42.29,50.34,0,7
$GPRMC,115543.000,A,5129.4800,N,00000.7437,E,2.48,163.09,200416,,,A*6F,51.4913330078,0.0123950004,11:55:43,20/4/2016,10,98,82.21,251,42.29,50.44,0,7
$GPRMC,115544.000,A,5129.4791,N,00000.7440,E,2.45,168.84,200416,,,A*6C,51.4913177490,0.0124000000,11:55:44,20/4/2016,8,79,105.60,302,41.31,50.26,0,7
$GPRMC,115545.000,A,5129.4784,N,00000.7442,E,2.29,170.86,200416,,,A*6A,51.4913101196,0.0124032998,11:55:45,20/4/2016,10,204,130.41,305,40.33,50.26,0,7
$GPRMC,115546.000,A,5129.4771,N,00000.7445,E,2.28,162.53,200416,,,A*6E,51.4912834167,0.0124083006,11:55:46,20/4/2016,12,92,133.68,430,41.31,50.08,0,7
$GPRMC,115547.000,A,5129.4760,N,00000.7455,E,2.34,150.30,200416,,,A*67,51.4912681579,0.0124250006,11:55:47,20/4/2016,10,83,95.11,323,40.33,49.97,0,7
$GPRMC,115548.000,A,5129.4754,N,00000.7462,E,2.36,144.59,200416,,,A*63,51.4912605285,0.0124365997,11:55:48,20/4/2016,10,139,141.72,393,39.84,50.07,0,7
$GPRMC,115549.000,A,5129.4748,N,00000.7470,E,2.37,137.90,200416,,,A*6C,51.4912452697,0.0124500012,11:55:49,20/4/2016,10,157,112.09,272,40.33,50.24,0,7
$GPRMC,115550.000,A,5129.4742,N,00000.7476,E,2.45,138.84,200416,,,A*67,51.4912338256,0.0124600005,11:55:50,20/4/2016,24,76,117.61,399,40.33,50.22,0,7
$GPRMC,115551.000,A,5129.4736,N,00000.7483,E,2.48,142.56,200416,,,A*60,51.4912261962,0.0124716007,11:55:51,20/4/2016,9,90,113.39,306,38.87,50.23,0,7
$GPRMC,115552.000,A,5129.4726,N,00000.7492,E,2.53,152.82,200416,,,A*60,51.4912109375,0.0124866008,11:55:52,20/4/2016,10,95,96.69,268,39.36,50.62,0,7
$GPRMC,115553.000,A,5129.4719,N,00000.7497,E,2.53,168.87,200416,,,A*64,51.4911956787,0.0124950003,11:55:53,20/4/2016,9,45,91.17,258,39.36,51.11,0,7
$GPRMC,115554.000,A,5129.4712,N,00000.7501,E,2.87,169.30,200416,,,A*62,51.4911880493,0.0125015997,11:55:54,20/4/2016,7,105,80.40,289,37.89,51.72,2,9
$GPRMC,115555.000,A,5129.4707,N,00000.7505,E,2.57,144.23,200416,,,A*63,51.4911766052,0.0125082993,11:55:55,20/4/2016,10,93,82.43,337,40.33,51.36,1,10
$GPRMC,115556.000,A,5129.4700,N,00000.7512,E,2.23,131.87,200416,,,A*6E,51.4911689758,0.0125200009,11:55:56,20/4/2016,10,87,83.17,204,39.84,50.88,0,10
$GPRMC,115557.000,A,5129.4697,N,00000.7518,E,1.68,113.39,200416,,,A*63,51.4911613464,0.0125300002,11:55:57,20/4/2016,11,114,100.88,344,38.87,50.94,0,10
$GPRMC,115558.000,A,5129.4689,N,00000.7525,E,2.36,140.99,200416,,,A*69,51.4911460876,0.0125416016,11:55:58,20/4/2016,9,121,96.97,268,38.87,50.94,0,10
$GPRMC,115559.000,A,5129.4680,N,00000.7531,E,2.57,147.37,200416,,,A*60,51.4911308288,0.0125516009,11:55:59,20/4/2016,10,113,96.56,287,39.84,51.11,0,10
$GPRMC,115600.000,A,5129.4673,N,00000.7536,E,1.63,125.73,200416,,,A*64,51.4911231994,0.0125599992,11:56:0,20/4/2016,11,68,103.50,364,39.84,50.66,0,10
$GPRMC,115601.000,A,5129.4670,N,00000.7539,E,0.63,148.44,200416,,,A*67,51.4911117553,0.0125650000,11:56:1,20/4/2016,11,81,86.50,319,39.84,50.74,0,10
$GPRMC,115602.000,A,5129.4669,N,00000.7540,E,0.33,148.44,200416,,,A*67,51.4911117553,0.0125665998,11:56:2,20/4/2016,12,174,91.70,302,39.36,50.90,0,10
$GPRMC,115603.000,A,5129.4669,N,00000.7540,E,0.25,148.44,200416,,,A*61,51.4911117553,0.0125665998,11:56:3,20/4/2016,9,132,94.27,271,39.84,50.84,0,10
$GPRMC,115604.000,A,5129.4666,N,00000.7543,E,0.23,148.44,200416,,,A*6C,51.4911117553,0.0125715994,11:56:4,20/4/2016,11,163,177.61,430,38.87,51.12,0,10
$GPRMC,115605.000,A,5129.4661,N,00000.7549,E,0.50,148.44,200416,,,A*64,51.4911041259,0.0125815999,11:56:5,20/4/2016,9,94,137.72,362,39.36,51.42,0,10
$GPRMC,115606.000,A,5129.4661,N,00000.7551,E,0.60,94.31,200416,,,A*5F,51.4911041259,0.0125850009,11:56:6,20/4/2016,10,150,154.87,463,39.36,51.52,0,10
$GPRMC,115607.000,A,5129.4656,N,00000.7556,E,0.80,95.75,200416,,,A*52,51.4910964965,0.0125933003,11:56:7,20/4/2016,30,74,131.70,345,39.36,51.35,0,10
$GPRMC,115608.000,A,5129.4651,N,00000.7563,E,0.86,95.66,200416,,,A*58,51.4910888671,0.0126049995,11:56:8,20/4/2016,32,165,100.50,352,39.36,51.21,0,10
$GPRMC,115609.000,A,5129.4649,N,00000.7569,E,0.83,101.81,200416,,,A*6A,51.4910812377,0.0126150000,11:56:9,20/4/2016,33,60,82.36,300,38.87,51.01,0,10
$GPRMC,115610.000,A,5129.4636,N,00000.7582,E,0.89,134.04,200416,,,A*6E,51.4910545349,0.0126366007,11:56:10,20/4/2016,33,87,76.61,273,39.36,51.05,0,10
$GPRMC,115611.000,A,5129.4619,N,00000.7587,E,1.38,179.44,200416,,,A*61,51.4910316467,0.0126450002,11:56:11,20/4/2016,34,77,76.86,261,38.87,50.74,0,10
$GPRMC,115612.000,A,5129.4603,N,00000.7588,E,2.06,200.41,200416,,,A*60,51.4910087585,0.0126466012,11:56:12,20/4/2016,36,88,74.99,235,39.36,50.60,0,10
$GPRMC,115613.000,A,5129.4591,N,00000.7588,E,2.31,201.40,200416,,,A*6D,51.4909820556,0.0126466012,11:56:13,20/4/2016,39,70,76.63,257,38.87,50.43,0,10
$GPRMC,115614.000,A,5129.4578,N,00000.7588,E,2.53,200.41,200416,,,A*69,51.4909667968,0.0126466012,11:56:14,20/4/2016,37,67,79.28,281,39.36,50.46,0,10
$GPRMC,115615.000,A,5129.4569,N,00000.7585,E,2.56,201.94,200416,,,A*69,51.4909515380,0.0126415991,11:56:15,20/4/2016,39,70,82.11,274,38.38,50.53,0,10
$GPRMC,115616.000,A,5129.4558,N,00000.7582,E,2.61,203.46,200416,,,A*66,51.4909248352,0.0126366007,11:56:16,20/4/2016,40,77,77.79,280,38.38,50.46,0,10
$GPRMC,115617.000,A,5129.4547,N,00000.7570,E,2.81,212.68,200416,,,A*66,51.4909095764,0.0126166009,11:56:17,20/4/2016,37,69,76.41,270,38.38,50.35,0,10
$GPRMC,115618.000,A,5129.4533,N,00000.7561,E,2.96,218.27,200416,,,A*6D,51.4908866882,0.0126016008,11:56:18,20/4/2016,40,106,75.97,278,38.38,50.20,0,10
$GPRMC,115619.000,A,5129.4523,N,00000.7551,E,3.43,246.58,200416,,,A*64,51.4908676147,0.0125850009,11:56:19,20/4/2016,37,74,78.86,251,37.40,50.27,0,10
$GPRMC,115620.000,A,5129.4515,N,00000.7537,E,3.77,255.48,200416,,,A*6F,51.4908599853,0.0125616014,11:56:20,20/4/2016,37,88,75.69,273,39.36,50.36,0,10
$GPRMC,115621.000,A,5129.4502,N,00000.7527,E,3.22,245.35,200416,,,A*62,51.4908370971,0.0125450015,11:56:21,20/4/2016,36,83,77.39,270,38.38,50.17,0,10
$GPRMC,115622.000,A,5129.4496,N,00000.7514,E,3.06,218.43,200416,,,A*62,51.4908294677,0.0125232994,11:56:22,20/4/2016,38,70,77.41,259,37.89,50.04,0,10
$GPRMC,115623.000,A,5129.4491,N,00000.7506,E,2.35,219.48,200416,,,A*6C,51.4908218383,0.0125100004,11:56:23,20/4/2016,37,82,77.64,271,37.89,50.15,0,10
$GPRMC,115624.000,A,5129.4486,N,00000.7501,E,2.10,226.24,200416,,,A*6B,51.4908103942,0.0125015997,11:56:24,20/4/2016,39,75,77.96,262,37.89,49.68,0,10
$GPRMC,115625.000,A,5129.4487,N,00000.7493,E,2.96,227.73,200416,,,A*6C,51.4908103942,0.0124883008,11:56:25,20/4/2016,38,41,77.12,273,38.87,49.57,0,10
$GPRMC,115626.000,A,5129.4489,N,00000.7481,E,3.76,231.51,200416,,,A*6A,51.4908103942,0.0124682998,11:56:26,20/4/2016,37,65,74.36,242,39.36,49.67,0,10
$GPRMC,115627.000,A,5129.4488,N,00000.7470,E,3.98,231.66,200416,,,A*60,51.4908103942,0.0124500012,11:56:27,20/4/2016,38,49,75.83,275,38.87,49.87,0,10
$GPRMC,115628.000,A,5129.4482,N,00000.7458,E,3.46,225.68,200416,,,A*67,51.4908027648,0.0124300003,11:56:28,20/4/2016,39,76,77.60,269,38.87,50.05,0,10
$GPRMC,115629.000,A,5129.4476,N,00000.7446,E,3.17,216.53,200416,,,A*6E,51.4907951354,0.0124099993,11:56:29,20/4/2016,37,72,79.07,258,39.36,50.15,0,10
$GPRMC,115630.000,A,5129.4470,N,00000.7437,E,2.79,206.09,200416,,,A*61,51.4907798767,0.0123950004,11:56:30,20/4/2016,33,84,78.45,268,39.84,50.27,0,10
$GPRMC,115631.000,A,5129.4462,N,00000.7430,E,3.57,208.46,200416,,,A*6C,51.4907722473,0.0123833000,11:56:31,20/4/2016,33,83,78.89,215,38.87,50.17,0,10
$GPRMC,115632.000,A,5129.4455,N,00000.7421,E,3.63,228.09,200416,,,A*65,51.4907569885,0.0123682999,11:56:32,20/4/2016,30,65,76.93,240,38.38,50.01,0,10
$GPRMC,115633.000,A,5129.4449,N,00000.7411,E,3.11,225.68,200416,,,A*65,51.4907455444,0.0123516011,11:56:33,20/4/2016,28,73,77.04,280,39.36,49.99,0,10
$GPRMC,115634.000,A,5129.4444,N,00000.7401,E,2.69,224.07,200416,,,A*68,51.4907379150,0.0123350012,11:56:34,20/4/2016,26,69,78.31,327,39.36,49.99,0,10
$GPRMC,115635.000,A,5129.4439,N,00000.7392,E,3.09,231.38,200416,,,A*61,51.4907302856,0.0123200011,11:56:35,20/4/2016,8,71,76.88,274,39.84,50.32,0,10
$GPRMC,115636.000,A,5129.4433,N,00000.7381,E,4.22,244.02,200416,,,A*6F,51.4907226562,0.0123015999,11:56:36,20/4/2016,10,75,79.58,253,39.84,50.55,0,10
$GPRMC,115637.000,A,5129.4427,N,00000.7372,E,3.95,229.10,200416,,,A*64,51.4907150268,0.0122866010,11:56:37,20/4/2016,10,68,78.68,270,40.33,50.41,0,10
$GPRMC,115638.000,A,5129.4421,N,00000.7361,E,4.43,236.64,200416,,,A*6E,51.4906997680,0.0122683012,11:56:38,20/4/2016,10,95,78.00,274,39.36,50.12,0,10
$GPRMC,115639.000,A,5129.4414,N,00000.7350,E,5.24,233.04,200416,,,A*68,51.4906883239,0.0122500002,11:56:39,20/4/2016,9,73,72.86,218,40.33,49.67,0,10
$GPRMC,115640.000,A,5129.4407,N,00000.7346,E,4.00,220.38,200416,,,A*69,51.4906806945,0.0122433006,11:56:40,20/4/2016,7,120,76.65,322,40.82,49.85,0,10
$GPRMC,115641.000,A,5129.4400,N,00000.7337,E,3.93,221.11,200416,,,A*6E,51.4906654357,0.0122282993,11:56:41,20/4/2016,7,80,76.97,271,41.31,49.81,0,10
$GPRMC,115642.000,A,5129.4392,N,00000.7328,E,3.95,220.48,200416,,,A*64,51.4906501770,0.0122133004,11:56:42,20/4/2016,8,77,77.35,277,40.33,49.71,0,10
$GPRMC,115643.000,A,5129.4384,N,00000.7322,E,3.74,224.70,200416,,,A*68,51.4906425476,0.0122032999,11:56:43,20/4/2016,9,68,78.84,343,41.31,49.78,0,10
$GPRMC,115644.000,A,5129.4377,N,00000.7312,E,2.95,216.56,200416,,,A*6B,51.4906234741,0.0121866011,11:56:44,20/4/2016,9,74,77.92,267,40.82,49.68,0,10
$GPRMC,115645.000,A,5129.4368,N,00000.7303,E,2.90,187.40,200416,,,A*6D,51.4906158447,0.0121715998,11:56:45,20/4/2016,8,67,75.64,274,41.31,49.81,0,10
$GPRMC,115646.000,A,5129.4360,N,00000.7301,E,3.07,194.82,200416,,,A*67,51.4906005859,0.0121683001,11:56:46,20/4/2016,9,75,77.40,257,41.80,49.59,0,10
$GPRMC,115647.000,A,5129.4353,N,00000.7301,E,2.69,191.88,200416,,,A*60,51.4905853271,0.0121683001,11:56:47,20/4/2016,10,57,77.14,272,41.80,49.40,0,10
$GPRMC,115648.000,A,5129.4347,N,00000.7301,E,2.53,207.51,200416,,,A*6B,51.4905776977,0.0121683001,11:56:48,20/4/2016,10,116,78.06,269,42.29,49.54,0,10
