
$GPRMC,120939.000,A,5130.0877,N,00000.2735,E,0.93,53.44,290716,,,A*55,51.5014648437,0.0045583004,12:9:39,29/7/2016,14,21,35.44,260,25.20,504.50,0,0
$GPRMC,120940.000,A,5130.0875,N,00000.2737,E,0.29,32.68,290716,,,A*53,51.5014572143,0.0045616002,12:9:40,29/7/2016,6,26,38.07,335,25.68,511.60,0,0
$GPRMC,120941.000,A,5130.0873,N,00000.2739,E,0.61,131.07,290716,,,A*6D,51.5014572143,0.0045650000,12:9:41,29/7/2016,15,18,32.84,344,24.71,513.95,0,0
$GPRMC,120942.000,A,5130.0878,N,00000.2740,E,0.50,67.26,290716,,,A*58,51.5014648437,0.0045666003,12:9:42,29/7/2016,15,25,38.91,377,25.20,514.51,0,0
$GPRMC,120943.000,A,5130.0882,N,00000.2741,E,0.65,49.06,290716,,,A*55,51.5014724731,0.0045683002,12:9:43,29/7/2016,16,46,35.52,341,25.20,510.85,0,0
$GPRMC,120944.000,A,5130.0888,N,00000.2744,E,0.68,63.26,290716,,,A*5A,51.5014801025,0.0045733003,12:9:44,29/7/2016,16,35,37.26,355,25.20,510.71,0,0
$GPRMC,120945.000,A,5130.0894,N,00000.2749,E,0.71,81.17,290716,,,A*5D,51.5014877319,0.0045816001,12:9:45,29/7/2016,16,24,31.61,356,24.71,515.05,0,0
$GPRMC,120946.000,A,5130.0895,N,00000.2753,E,1.38,116.94,290716,,,A*6C,51.5014877319,0.0045882997,12:9:46,29/7/2016,16,31,46.37,355,24.71,513.02,0,0
$GPRMC,120947.000,A,5130.0896,N,00000.2755,E,2.08,136.80,290716,,,A*6F,51.5014991760,0.0045915994,12:9:47,29/7/2016,16,33,36.82,343,24.71,510.95,0,0
$GPRMC,120948.000,A,5130.0904,N,00000.2759,E,0.76,124.50,290716,,,A*63,51.5015068054,0.0045982999,12:9:48,29/7/2016,14,35,30.15,340,25.20,511.24,0,0
$GPRMC,120949.000,A,5130.0917,N,00000.2763,E,0.44,45.16,290716,,,A*5C,51.5015296936,0.0046050004,12:9:49,29/7/2016,15,12,17.15,333,24.22,513.33,0,0
$GPRMC,120950.000,A,5130.0926,N,00000.2762,E,0.89,88.43,290716,,,A*57,51.5015449523,0.0046032996,12:9:50,29/7/2016,15,4,11.87,261,23.73,509.95,0,0
$GPRMC,120951.000,A,5130.0934,N,00000.2766,E,1.55,99.45,290716,,,A*57,51.5015525817,0.0046100001,12:9:51,29/7/2016,14,2,8.15,239,23.73,509.47,0,0
$GPRMC,120952.000,A,5130.0948,N,00000.2770,E,1.52,60.37,290716,,,A*5C,51.5015792846,0.0046166000,12:9:52,29/7/2016,12,7,9.91,239,24.22,509.61,0,0
$GPRMC,120953.000,A,5130.0964,N,00000.2775,E,1.88,355.49,290716,,,A*6D,51.5016021728,0.0046250000,12:9:53,29/7/2016,12,20,19.34,269,24.22,509.44,0,0
$GPRMC,120954.000,A,5130.0980,N,00000.2781,E,1.50,347.73,290716,,,A*64,51.5016365051,0.0046350002,12:9:54,29/7/2016,12,6,16.47,305,24.22,511.51,0,0
$GPRMC,120955.000,A,5130.0990,N,00000.2779,E,0.36,276.65,290716,,,A*66,51.5016517639,0.0046316003,12:9:55,29/7/2016,9,18,21.48,290,23.73,510.58,0,0
$GPRMC,120956.000,A,5130.0997,N,00000.2781,E,1.28,208.50,290716,,,A*64,51.5016593933,0.0046350002,12:9:56,29/7/2016,10,24,18.69,245,23.73,509.30,0,0
$GPRMC,120957.000,A,5130.1010,N,00000.2788,E,1.16,236.32,290716,,,A*6F,51.5016860961,0.0046465997,12:9:57,29/7/2016,5,11,17.09,263,24.22,509.02,0,0
$GPRMC,120958.000,A,5130.1032,N,00000.2810,E,1.44,287.49,290716,,,A*6F,51.5017166137,0.0046833004,12:9:58,29/7/2016,11,16,21.13,301,24.22,510.70,0,0
$GPRMC,120959.000,A,5130.1042,N,00000.2815,E,1.60,279.41,290716,,,A*63,51.5017318725,0.0046916003,12:9:59,29/7/2016,11,16,20.12,294,24.22,511.74,0,0
$GPRMC,121000.000,A,5130.1069,N,00000.2846,E,0.61,340.66,290716,,,A*66,51.5017814636,0.0047433004,12:10:0,29/7/2016,11,12,19.91,271,24.22,509.78,0,0
$GPRMC,121001.000,A,5130.1079,N,00000.2856,E,0.80,33.01,290716,,,A*5E,51.5017967224,0.0047600002,12:10:1,29/7/2016,11,31,22.64,256,24.71,509.28,0,0
$GPRMC,121002.000,A,5130.1098,N,00000.2874,E,2.70,29.60,290716,,,A*53,51.5018310546,0.0047900004,12:10:2,29/7/2016,11,17,30.41,293,24.22,511.49,0,0
$GPRMC,121003.000,A,5130.1117,N,00000.2890,E,2.94,18.54,290716,,,A*51,51.5018653869,0.0048165998,12:10:3,29/7/2016,11,11,21.28,287,24.22,511.16,0,0
$GPRMC,121004.000,A,5130.1128,N,00000.2899,E,2.24,22.16,290716,,,A*57,51.5018806457,0.0048316001,12:10:4,29/7/2016,6,13,17.08,261,24.71,508.79,0,0
$GPRMC,121005.000,A,5130.1138,N,00000.2905,E,2.35,20.82,290716,,,A*5C,51.5018959045,0.0048416004,12:10:5,29/7/2016,11,22,16.99,255,24.71,509.46,0,0
$GPRMC,121006.000,A,5130.1149,N,00000.2915,E,3.08,30.13,290716,,,A*5E,51.5019111633,0.0048583002,12:10:6,29/7/2016,12,16,16.59,265,24.71,509.16,0,0
$GPRMC,121007.000,A,5130.1161,N,00000.2925,E,3.20,32.76,290716,,,A*5D,51.5019378662,0.0048750000,12:10:7,29/7/2016,5,27,18.34,303,24.71,511.80,0,0
$GPRMC,121008.000,A,5130.1172,N,00000.2943,E,2.70,29.23,290716,,,A*5E,51.5019531250,0.0049050002,12:10:8,29/7/2016,5,11,15.91,253,24.71,509.65,0,0
$GPRMC,121009.000,A,5130.1177,N,00000.2971,E,1.83,50.70,290716,,,A*5C,51.5019607543,0.0049516005,12:10:9,29/7/2016,5,10,21.89,259,24.71,510.48,0,0
$GPRMC,121010.000,A,5130.1179,N,00000.2980,E,2.27,88.01,290716,,,A*5A,51.5019607543,0.0049666004,12:10:10,29/7/2016,5,13,16.58,256,24.71,509.74,0,0
$GPRMC,121011.000,A,5130.1181,N,00000.2992,E,2.07,104.63,290716,,,A*6C,51.5019683837,0.0049865999,12:10:11,29/7/2016,16,15,23.53,296,24.71,512.03,0,0
$GPRMC,121012.000,A,5130.1185,N,00000.3008,E,2.96,88.80,290716,,,A*50,51.5019760131,0.0050132999,12:10:12,29/7/2016,16,35,54.51,276,24.22,510.99,0,0
$GPRMC,121013.000,A,5130.1189,N,00000.3028,E,2.37,81.90,290716,,,A*5C,51.5019874572,0.0050466003,12:10:13,29/7/2016,16,40,39.85,299,23.73,510.13,0,0
$GPRMC,121014.000,A,5130.1192,N,00000.3042,E,1.99,82.07,290716,,,A*57,51.5019874572,0.0050700001,12:10:14,29/7/2016,16,43,71.23,281,23.73,509.61,0,0
$GPRMC,121015.000,A,5130.1193,N,00000.3056,E,2.73,83.92,290716,,,A*58,51.5019874572,0.0050933003,12:10:15,29/7/2016,16,38,31.67,333,23.73,511.45,0,0
$GPRMC,121016.000,A,5130.1196,N,00000.3066,E,2.41,77.02,290716,,,A*5E,51.5019950866,0.0051100006,12:10:16,29/7/2016,13,11,16.13,361,23.73,510.60,0,0
$GPRMC,121017.000,A,5130.1200,N,00000.3077,E,2.09,42.40,290716,,,A*5F,51.5020027160,0.0051283001,12:10:17,29/7/2016,14,2,15.62,295,24.22,510.01,0,0
$GPRMC,121018.000,A,5130.1206,N,00000.3092,E,2.11,37.07,290716,,,A*55,51.5020103454,0.0051533002,12:10:18,29/7/2016,12,0,15.92,294,23.73,512.12,0,0
$GPRMC,121019.000,A,5130.1211,N,00000.3101,E,1.99,31.47,290716,,,A*58,51.5020179748,0.0051683001,12:10:19,29/7/2016,13,16,15.71,248,23.24,506.98,0,0
$GPRMC,121020.000,A,5130.1214,N,00000.3135,E,2.46,51.51,290716,,,A*50,51.5020256042,0.0052250003,12:10:20,29/7/2016,12,4,12.76,291,23.73,509.00,0,0
$GPRMC,121021.000,A,5130.1215,N,00000.3164,E,2.03,57.84,290716,,,A*5B,51.5020256042,0.0052733001,12:10:21,29/7/2016,12,9,14.88,225,23.73,509.10,0,0
$GPRMC,121022.000,A,5130.1221,N,00000.3179,E,1.32,35.24,290716,,,A*5C,51.5020332336,0.0052982997,12:10:22,29/7/2016,11,1,17.98,211,24.22,507.68,0,0
$GPRMC,121023.000,A,5130.1212,N,00000.3189,E,0.85,86.70,290716,,,A*56,51.5020179748,0.0053150005,12:10:23,29/7/2016,12,7,16.71,265,23.73,509.78,0,0
$GPRMC,121024.000,A,5130.1213,N,00000.3203,E,0.64,61.82,290716,,,A*5A,51.5020179748,0.0053383007,12:10:24,29/7/2016,5,3,12.70,288,24.22,511.66,0,0
$GPRMC,121025.000,A,5130.1213,N,00000.3216,E,0.36,54.31,290716,,,A*56,51.5020179748,0.0053600001,12:10:25,29/7/2016,5,9,13.04,260,24.22,510.01,0,0
$GPRMC,121026.000,A,5130.1216,N,00000.3226,E,0.87,77.95,290716,,,A*56,51.5020256042,0.0053766002,12:10:26,29/7/2016,5,18,34.62,268,24.22,509.26,0,0
$GPRMC,121027.000,A,5130.1221,N,00000.3238,E,1.09,70.18,290716,,,A*59,51.5020332336,0.0053965997,12:10:27,29/7/2016,5,18,34.55,181,24.22,508.18,0,0
$GPRMC,121028.000,A,5130.1228,N,00000.3245,E,1.80,352.87,290716,,,A*61,51.5020408630,0.0054083003,12:10:28,29/7/2016,5,42,39.21,209,24.22,508.26,0,0
$GPRMC,121029.000,A,5130.1230,N,00000.3248,E,1.57,24.77,290716,,,A*53,51.5020523071,0.0054133005,12:10:29,29/7/2016,5,14,29.80,259,24.22,508.73,0,0
$GPRMC,121030.000,A,5130.1233,N,00000.3257,E,1.96,50.31,290716,,,A*5A,51.5020599365,0.0054282999,12:10:30,29/7/2016,12,9,43.42,286,23.73,509.31,0,0
$GPRMC,121031.000,A,5130.1238,N,00000.3266,E,1.15,41.87,290716,,,A*54,51.5020675659,0.0054433002,12:10:31,29/7/2016,7,6,21.39,296,23.73,511.12,0,0
$GPRMC,121032.000,A,5130.1259,N,00000.3289,E,1.52,29.41,290716,,,A*56,51.5020980834,0.0054816002,12:10:32,29/7/2016,5,23,18.56,281,24.22,509.10,0,0
$GPRMC,121033.000,A,5130.1274,N,00000.3310,E,1.39,66.83,290716,,,A*51,51.5021247863,0.0055166001,12:10:33,29/7/2016,5,20,15.10,256,23.73,509.52,0,0
$GPRMC,121034.000,A,5130.1289,N,00000.3326,E,0.97,21.86,290716,,,A*52,51.5021476745,0.0055432996,12:10:34,29/7/2016,5,13,16.73,259,23.73,508.19,0,0
$GPRMC,121035.000,A,5130.1309,N,00000.3344,E,0.75,38.66,290716,,,A*54,51.5021820068,0.0055733003,12:10:35,29/7/2016,4,10,13.32,273,23.73,508.18,0,0
$GPRMC,121036.000,A,5130.1324,N,00000.3362,E,0.72,16.44,290716,,,A*57,51.5022048950,0.0056033000,12:10:36,29/7/2016,4,23,14.10,313,24.22,510.15,0,0
$GPRMC,121037.000,A,5130.1336,N,00000.3370,E,1.14,357.44,290716,,,A*61,51.5022315979,0.0056166000,12:10:37,29/7/2016,15,6,22.19,262,23.73,500.98,0,0
$GPRMC,121038.000,A,5130.1345,N,00000.3376,E,1.20,3.80,290716,,,A*61,51.5022392272,0.0056265997,12:10:38,29/7/2016,4,7,11.50,255,23.73,513.42,0,0
$GPRMC,121039.000,A,5130.1354,N,00000.3380,E,1.30,349.70,290716,,,A*6A,51.5022544860,0.0056332998,12:10:39,29/7/2016,12,3,11.13,301,24.22,511.98,0,0
$GPRMC,121040.000,A,5130.1364,N,00000.3390,E,1.57,2.95,290716,,,A*60,51.5022697448,0.0056500005,12:10:40,29/7/2016,4,51,21.34,315,23.73,510.85,0,0
$GPRMC,121041.000,A,5130.1376,N,00000.3399,E,1.92,13.09,290716,,,A*57,51.5022964477,0.0056649999,12:10:41,29/7/2016,4,8,17.13,241,24.22,507.19,0,0
$GPRMC,121042.000,A,5130.1391,N,00000.3413,E,2.32,21.55,290716,,,A*59,51.5023193359,0.0056883001,12:10:42,29/7/2016,5,3,9.75,272,24.22,508.86,0,0
$GPRMC,121043.000,A,5130.1411,N,00000.3435,E,2.96,17.67,290716,,,A*59,51.5023536682,0.0057250003,12:10:43,29/7/2016,5,16,13.27,324,23.73,509.14,0,0
$GPRMC,121044.000,A,5130.1421,N,00000.3441,E,2.92,10.83,290716,,,A*57,51.5023689270,0.0057350006,12:10:44,29/7/2016,5,4,17.25,277,24.22,509.47,0,0
$GPRMC,121045.000,A,5130.1428,N,00000.3445,E,2.74,19.77,290716,,,A*51,51.5023765563,0.0057416005,12:10:45,29/7/2016,13,10,15.77,274,24.22,509.30,0,0
$GPRMC,121046.000,A,5130.1435,N,00000.3450,E,2.82,16.36,290716,,,A*59,51.5023918151,0.0057500000,12:10:46,29/7/2016,13,4,16.44,343,24.22,508.44,0,0
$GPRMC,121047.000,A,5130.1440,N,00000.3456,E,2.68,23.48,290716,,,A*57,51.5023994445,0.0057599997,12:10:47,29/7/2016,5,12,13.23,321,23.73,510.51,0,0
$GPRMC,121048.000,A,5130.1445,N,00000.3467,E,2.78,19.78,290716,,,A*54,51.5024070739,0.0057783002,12:10:48,29/7/2016,18,6,13.40,274,24.22,506.16,0,0
$GPRMC,121049.000,A,5130.1449,N,00000.3471,E,2.58,22.25,290716,,,A*5C,51.5024185180,0.0057850003,12:10:49,29/7/2016,20,9,11.27,261,24.22,509.29,0,0
$GPRMC,121050.000,A,5130.1449,N,00000.3476,E,2.31,6.60,290716,,,A*6B,51.5024185180,0.0057933001,12:10:50,29/7/2016,7,9,12.40,367,24.22,509.42,0,0
$GPRMC,121051.000,A,5130.1449,N,00000.3480,E,2.97,21.26,290716,,,A*58,51.5024185180,0.0058000001,12:10:51,29/7/2016,18,7,16.90,277,23.73,508.67,0,0
$GPRMC,121052.000,A,5130.1452,N,00000.3483,E,2.98,19.14,290716,,,A*57,51.5024185180,0.0058050003,12:10:52,29/7/2016,13,0,12.63,231,23.73,508.50,0,0
$GPRMC,121053.000,A,5130.1456,N,00000.3482,E,3.25,8.18,290716,,,A*68,51.5024261474,0.0058032999,12:10:53,29/7/2016,13,36,14.06,277,24.22,510.29,0,0
$GPRMC,121054.000,A,5130.1455,N,00000.3479,E,2.82,10.99,290716,,,A*54,51.5024261474,0.0057983007,12:10:54,29/7/2016,13,9,11.33,311,24.22,510.08,1,1
$GPRMC,121055.000,A,5130.1466,N,00000.3482,E,3.30,4.05,290716,,,A*69,51.5024414062,0.0058032999,12:10:55,29/7/2016,17,6,11.98,353,24.22,504.49,0,1
$GPRMC,121056.000,A,5130.1473,N,00000.3486,E,3.32,15.51,290716,,,A*59,51.5024566650,0.0058099994,12:10:56,29/7/2016,20,3,11.80,260,24.22,511.80,0,1
$GPRMC,121057.000,A,5130.1473,N,00000.3479,E,2.36,5.67,290716,,,A*69,51.5024566650,0.0057983007,12:10:57,29/7/2016,20,6,10.59,278,24.22,510.33,0,1
$GPRMC,121058.000,A,5130.1476,N,00000.3479,E,2.91,16.35,290716,,,A*5B,51.5024566650,0.0057983007,12:10:58,29/7/2016,17,5,11.59,267,24.22,503.06,0,1
$GPRMC,121059.000,A,5130.1481,N,00000.3482,E,2.33,32.33,290716,,,A*5E,51.5024642944,0.0058032999,12:10:59,29/7/2016,9,8,13.49,278,24.22,513.14,0,1
$GPRMC,121100.000,A,5130.1482,N,00000.3482,E,1.74,19.13,290716,,,A*5B,51.5024757385,0.0058032999,12:11:0,29/7/2016,17,6,15.52,289,24.22,506.98,0,1
$GPRMC,121101.000,A,5130.1487,N,00000.3487,E,1.91,22.49,290716,,,A*56,51.5024833679,0.0058116006,12:11:1,29/7/2016,16,7,12.19,297,24.22,509.81,0,1
$GPRMC,121102.000,A,5130.1493,N,00000.3491,E,2.01,17.36,290716,,,A*53,51.5024909973,0.0058183002,12:11:2,29/7/2016,14,3,10.32,292,24.22,510.50,0,1
$GPRMC,121103.000,A,5130.1502,N,00000.3494,E,3.75,18.24,290716,,,A*50,51.5025062561,0.0058232998,12:11:3,29/7/2016,15,1,10.49,267,24.22,508.76,0,1
$GPRMC,121104.000,A,5130.1511,N,00000.3495,E,3.20,15.03,290716,,,A*5C,51.5025138854,0.0058249998,12:11:4,29/7/2016,15,9,12.49,336,24.22,509.98,0,1
$GPRMC,121105.000,A,5130.1526,N,00000.3501,E,4.34,8.92,290716,,,A*63,51.5025482177,0.0058350000,12:11:5,29/7/2016,15,14,13.13,343,24.22,512.86,0,1
$GPRMC,121106.000,A,5130.1536,N,00000.3501,E,3.89,5.24,290716,,,A*60,51.5025634765,0.0058350000,12:11:6,29/7/2016,15,5,15.71,279,24.22,510.58,0,1
$GPRMC,121107.000,A,5130.1547,N,00000.3504,E,3.34,12.12,290716,,,A*57,51.5025787353,0.0058400001,12:11:7,29/7/2016,13,5,19.02,300,24.22,509.25,0,1
$GPRMC,121108.000,A,5130.1558,N,00000.3507,E,3.25,12.60,290716,,,A*50,51.5025978088,0.0058450007,12:11:8,29/7/2016,15,2,14.47,345,24.22,512.85,2,3
$GPRMC,121109.000,A,5130.1565,N,00000.3511,E,2.71,9.63,290716,,,A*61,51.5026130676,0.0058516001,12:11:9,29/7/2016,15,8,16.71,339,24.22,511.96,0,3
$GPRMC,121110.000,A,5130.1575,N,00000.3515,E,3.08,9.17,290716,,,A*60,51.5026283264,0.0058583002,12:11:10,29/7/2016,6,4,14.47,269,24.71,509.77,0,3
$GPRMC,121111.000,A,5130.1584,N,00000.3518,E,2.38,13.92,290716,,,A*56,51.5026359558,0.0058632998,12:11:11,29/7/2016,5,10,19.97,445,24.22,510.28,0,3
$GPRMC,121112.000,A,5130.1590,N,00000.3523,E,2.27,24.51,290716,,,A*5D,51.5026512145,0.0058716006,12:11:12,29/7/2016,6,1,12.50,347,24.22,509.30,0,3
$GPRMC,121113.000,A,5130.1596,N,00000.3526,E,2.25,14.90,290716,,,A*53,51.5026626586,0.0058766002,12:11:13,29/7/2016,6,2,13.98,290,23.73,508.04,0,3
$GPRMC,121114.000,A,5130.1605,N,00000.3530,E,2.50,12.62,290716,,,A*53,51.5026779174,0.0058833003,12:11:14,29/7/2016,16,0,13.75,284,24.22,507.50,0,3
$GPRMC,121115.000,A,5130.1613,N,00000.3535,E,2.62,15.26,290716,,,A*56,51.5026855468,0.0058916001,12:11:15,29/7/2016,17,1,10.84,349,24.22,509.41,0,3
$GPRMC,121116.000,A,5130.1620,N,00000.3541,E,2.32,21.90,290716,,,A*59,51.5027008056,0.0059015998,12:11:16,29/7/2016,14,1,12.49,344,24.71,512.50,0,3
$GPRMC,121117.000,A,5130.1629,N,00000.3550,E,2.49,24.01,290716,,,A*50,51.5027198791,0.0059166007,12:11:17,29/7/2016,5,9,12.40,297,24.71,508.18,0,3
$GPRMC,121118.000,A,5130.1639,N,00000.3559,E,2.71,18.97,290716,,,A*5C,51.5027351379,0.0059316005,12:11:18,29/7/2016,12,9,10.74,310,24.71,510.12,0,3
$GPRMC,121119.000,A,5130.1650,N,00000.3565,E,3.03,9.39,290716,,,A*6D,51.5027503967,0.0059416003,12:11:19,29/7/2016,14,8,13.39,349,24.71,510.63,0,3
$GPRMC,121120.000,A,5130.1655,N,00000.3568,E,2.68,14.59,290716,,,A*59,51.5027580261,0.0059466004,12:11:20,29/7/2016,15,13,17.33,277,24.22,508.15,0,3
$GPRMC,121121.000,A,5130.1658,N,00000.3568,E,2.01,2.68,290716,,,A*6F,51.5027656555,0.0059466004,12:11:21,29/7/2016,19,2,13.39,308,23.73,508.63,0,3
$GPRMC,121122.000,A,5130.1664,N,00000.3571,E,2.19,8.72,290716,,,A*63,51.5027732849,0.0059516000,12:11:22,29/7/2016,14,2,12.48,311,24.22,509.78,0,3
$GPRMC,121123.000,A,5130.1672,N,00000.3575,E,2.41,16.58,290716,,,A*5B,51.5027847290,0.0059583001,12:11:23,29/7/2016,4,9,12.77,271,24.71,511.64,0,3
$GPRMC,121124.000,A,5130.1680,N,00000.3578,E,2.55,10.89,290716,,,A*53,51.5027999877,0.0059633007,12:11:24,29/7/2016,13,14,13.15,311,25.20,509.28,0,3
$GPRMC,121125.000,A,5130.1688,N,00000.3583,E,2.84,14.20,290716,,,A*55,51.5028152465,0.0059715995,12:11:25,29/7/2016,31,13,16.28,359,24.71,503.94,0,3
$GPRMC,121126.000,A,5130.1700,N,00000.3592,E,2.67,3.20,290716,,,A*6C,51.5028305053,0.0059866003,12:11:26,29/7/2016,18,26,17.85,353,25.20,505.60,0,3
$GPRMC,121127.000,A,5130.1711,N,00000.3597,E,2.30,356.10,290716,,,A*6A,51.5028495788,0.0059949998,12:11:27,29/7/2016,24,33,45.93,440,26.17,511.56,0,3
$GPRMC,121128.000,A,5130.1738,N,00000.3612,E,4.80,5.30,290716,,,A*6A,51.5028953552,0.0060199999,12:11:28,29/7/2016,11,53,45.47,383,26.17,512.61,0,3
$GPRMC,121129.000,A,5130.1753,N,00000.3624,E,3.73,358.15,290716,,,A*64,51.5029220581,0.0060400004,12:11:29,29/7/2016,12,53,41.23,360,26.17,512.71,0,3
$GPRMC,121130.000,A,5130.1752,N,00000.3628,E,2.07,352.42,290716,,,A*6B,51.5029220581,0.0060466003,12:11:30,29/7/2016,11,62,34.96,302,26.17,512.80,0,3
$GPRMC,121131.000,A,5130.1760,N,00000.3634,E,1.97,26.77,290716,,,A*5A,51.5029296875,0.0060566000,12:11:31,29/7/2016,4,35,45.62,371,26.17,512.38,0,3
$GPRMC,121132.000,A,5130.1762,N,00000.3635,E,1.95,5.70,290716,,,A*6E,51.5029373168,0.0060583000,12:11:32,29/7/2016,13,39,40.82,352,26.17,512.33,0,3
$GPRMC,121133.000,A,5130.1766,N,00000.3635,E,1.82,358.25,290716,,,A*66,51.5029449462,0.0060583000,12:11:33,29/7/2016,5,36,35.93,358,26.17,513.31,0,3
$GPRMC,121134.000,A,5130.1769,N,00000.3637,E,1.01,40.42,290716,,,A*5C,51.5029449462,0.0060616006,12:11:34,29/7/2016,5,55,39.93,343,26.17,512.98,0,3
$GPRMC,121135.000,A,5130.1772,N,00000.3635,E,1.23,356.10,290716,,,A*66,51.5029525756,0.0060583000,12:11:35,29/7/2016,14,38,39.58,355,26.66,510.18,0,3
$GPRMC,121136.000,A,5130.1776,N,00000.3636,E,1.35,10.43,290716,,,A*52,51.5029640197,0.0060599999,12:11:36,29/7/2016,17,53,37.82,328,26.17,511.56,0,3
$GPRMC,121137.000,A,5130.1780,N,00000.3639,E,1.44,29.29,290716,,,A*55,51.5029716491,0.0060650005,12:11:37,29/7/2016,12,49,39.53,346,26.17,513.46,0,3
$GPRMC,121138.000,A,5130.1784,N,00000.3640,E,1.35,24.90,290716,,,A*59,51.5029716491,0.0060665998,12:11:38,29/7/2016,13,50,33.73,368,26.17,512.97,1,4
$GPRMC,121139.000,A,5130.1790,N,00000.3644,E,1.76,36.65,290716,,,A*57,51.5029869079,0.0060733003,12:11:39,29/7/2016,13,61,42.24,355,26.17,513.16,1,5
$GPRMC,121140.000,A,5130.1796,N,00000.3648,E,1.89,29.67,290716,,,A*5F,51.5029945373,0.0060800004,12:11:40,29/7/2016,13,36,38.21,360,25.68,512.75,0,5
$GPRMC,121141.000,A,5130.1798,N,00000.3649,E,0.25,22.02,290716,,,A*5E,51.5029945373,0.0060816001,12:11:41,29/7/2016,13,64,33.75,305,25.68,513.20,1,6
$GPRMC,121142.000,A,5130.1801,N,00000.3650,E,0.32,7.56,290716,,,A*6A,51.5030021667,0.0060833001,12:11:42,29/7/2016,14,37,39.63,347,26.17,513.11,2,8
$GPRMC,121143.000,A,5130.1806,N,00000.3651,E,1.28,14.37,290716,,,A*52,51.5030097961,0.0060850005,12:11:43,29/7/2016,14,29,40.00,353,26.17,512.04,2,10
$GPRMC,121144.000,A,5130.1815,N,00000.3650,E,2.32,5.83,290716,,,A*61,51.5030288696,0.0060833001,12:11:44,29/7/2016,13,34,39.92,328,26.17,511.28,0,10
$GPRMC,121145.000,A,5130.1825,N,00000.3649,E,3.20,5.57,290716,,,A*60,51.5030441284,0.0060816001,12:11:45,29/7/2016,13,39,54.01,369,26.17,516.31,0,10
$GPRMC,121146.000,A,5130.1834,N,00000.3646,E,3.20,352.76,290716,,,A*6E,51.5030593872,0.0060766000,12:11:46,29/7/2016,4,32,37.10,386,25.68,513.08,0,10
$GPRMC,121147.000,A,5130.1840,N,00000.3644,E,2.34,348.28,290716,,,A*6A,51.5030670166,0.0060733003,12:11:47,29/7/2016,4,42,39.08,356,26.17,512.38,0,10
$GPRMC,121148.000,A,5130.1848,N,00000.3641,E,1.63,4.24,290716,,,A*6E,51.5030746459,0.0060683002,12:11:48,29/7/2016,4,87,38.90,316,25.68,513.31,0,10
$GPRMC,121149.000,A,5130.1853,N,00000.3641,E,1.51,14.23,290716,,,A*52,51.5030860900,0.0060683002,12:11:49,29/7/2016,14,52,37.29,381,26.17,512.73,0,10
$GPRMC,121150.000,A,5130.1859,N,00000.3641,E,1.48,9.19,290716,,,A*6D,51.5031013488,0.0060683002,12:11:50,29/7/2016,5,50,38.04,380,25.68,512.49,0,10
$GPRMC,121151.000,A,5130.1862,N,00000.3642,E,1.45,12.53,290716,,,A*5E,51.5031013488,0.0060700006,12:11:51,29/7/2016,5,38,36.89,300,26.17,512.98,0,10
$GPRMC,121152.000,A,5130.1861,N,00000.3646,E,1.09,29.98,290716,,,A*5D,51.5031013488,0.0060766000,12:11:52,29/7/2016,5,57,38.41,362,26.17,512.71,0,10
$GPRMC,121153.000,A,5130.1859,N,00000.3646,E,0.38,158.89,290716,,,A*63,51.5031013488,0.0060766000,12:11:53,29/7/2016,6,48,39.33,358,26.66,512.67,0,10
$GPRMC,121154.000,A,5130.1861,N,00000.3645,E,0.37,239.37,290716,,,A*62,51.5031013488,0.0060750002,12:11:54,29/7/2016,5,41,38.76,309,27.15,513.49,0,10
$GPRMC,121155.000,A,5130.1865,N,00000.3646,E,0.78,12.16,290716,,,A*57,51.5031089782,0.0060766000,12:11:55,29/7/2016,6,37,35.91,343,27.15,512.42,0,10
$GPRMC,121156.000,A,5130.1869,N,00000.3651,E,1.47,30.58,290716,,,A*59,51.5031166076,0.0060850005,12:11:56,29/7/2016,5,47,36.95,357,27.15,512.61,0,10
$GPRMC,121157.000,A,5130.1871,N,00000.3658,E,1.38,48.09,290716,,,A*5B,51.5031166076,0.0060966005,12:11:57,29/7/2016,5,46,37.33,363,27.15,512.57,0,10
$GPRMC,121158.000,A,5130.1872,N,00000.3664,E,1.49,64.68,290716,,,A*57,51.5031166076,0.0061066002,12:11:58,29/7/2016,5,37,37.30,297,27.64,512.99,0,10
$GPRMC,121159.000,A,5130.1877,N,00000.3672,E,2.09,53.32,290716,,,A*58,51.5031242370,0.0061200003,12:11:59,29/7/2016,5,34,36.79,359,27.64,512.46,0,10
$GPRMC,121200.000,A,5130.1878,N,00000.3679,E,1.73,71.17,290716,,,A*5A,51.5031318664,0.0061316003,12:12:0,29/7/2016,5,63,36.45,372,27.15,512.65,0,10
$GPRMC,121201.000,A,5130.1883,N,00000.3685,E,1.82,48.76,290716,,,A*5F,51.5031394958,0.0061416001,12:12:1,29/7/2016,6,41,39.12,323,27.64,512.93,0,10
$GPRMC,121202.000,A,5130.1887,N,00000.3689,E,1.70,56.97,290716,,,A*59,51.5031394958,0.0061483001,12:12:2,29/7/2016,5,61,37.68,367,27.15,514.14,0,10
$GPRMC,121203.000,A,5130.1891,N,00000.3695,E,1.99,65.30,290716,,,A*58,51.5031509399,0.0061582999,12:12:3,29/7/2016,6,34,38.66,376,27.15,512.69,0,10
$GPRMC,121204.000,A,5130.1887,N,00000.3704,E,3.41,124.84,290716,,,A*6D,51.5031394958,0.0061733002,12:12:4,29/7/2016,6,44,37.48,348,27.64,512.70,0,10
$GPRMC,121205.000,A,5130.1880,N,00000.3713,E,2.50,143.96,290716,,,A*6E,51.5031318664,0.0061883001,12:12:5,29/7/2016,5,50,39.88,319,28.13,516.52,0,10
$GPRMC,121206.000,A,5130.1880,N,00000.3721,E,1.55,110.35,290716,,,A*65,51.5031318664,0.0062016005,12:12:6,29/7/2016,5,46,38.95,374,28.13,643.79,0,10
$GPRMC,121207.000,A,5130.1881,N,00000.3727,E,1.42,102.61,290716,,,A*67,51.5031318664,0.0062116003,12:12:7,29/7/2016,5,45,39.55,414,27.64,543.66,0,10
$GPRMC,121208.000,A,5130.1880,N,00000.3733,E,1.39,101.89,290716,,,A*65,51.5031318664,0.0062216000,12:12:8,29/7/2016,5,36,39.26,371,27.64,513.14,0,10
$GPRMC,121209.000,A,5130.1881,N,00000.3740,E,1.94,94.61,290716,,,A*5D,51.5031318664,0.0062333002,12:12:9,29/7/2016,5,66,45.41,355,28.13,512.86,0,10
$GPRMC,121210.000,A,5130.1881,N,00000.3748,E,2.05,97.20,290716,,,A*50,51.5031318664,0.0062466001,12:12:10,29/7/2016,5,61,50.03,339,28.61,526.20,0,10
$GPRMC,121211.000,A,5130.1875,N,00000.3757,E,2.46,117.26,290716,,,A*6C,51.5031242370,0.0062616004,12:12:11,29/7/2016,5,56,42.47,345,28.61,821.11,0,10
$GPRMC,121212.000,A,5130.1873,N,00000.3759,E,2.04,156.35,290716,,,A*66,51.5031242370,0.0062650003,12:12:12,29/7/2016,4,53,44.91,338,28.61,511.61,0,10
$GPRMC,121213.000,A,5130.1870,N,00000.3763,E,2.01,145.43,290716,,,A*6B,51.5031166076,0.0062716002,12:12:13,29/7/2016,4,53,39.71,333,28.61,506.62,0,10
$GPRMC,121214.000,A,5130.1869,N,00000.3767,E,1.86,137.32,290716,,,A*6F,51.5031166076,0.0062783002,12:12:14,29/7/2016,5,79,40.65,331,28.61,507.48,0,10
$GPRMC,121215.000,A,5130.1865,N,00000.3774,E,2.22,145.34,290716,,,A*6E,51.5031089782,0.0062900009,12:12:15,29/7/2016,16,54,39.38,373,29.10,517.91,0,10
$GPRMC,121216.000,A,5130.1860,N,00000.3787,E,2.69,136.02,290716,,,A*6A,51.5031013488,0.0063116006,12:12:16,29/7/2016,4,40,40.84,358,29.10,512.94,0,10
$GPRMC,121217.000,A,5130.1855,N,00000.3798,E,2.25,150.46,290716,,,A*6B,51.5030937194,0.0063299999,12:12:17,29/7/2016,5,26,37.50,367,29.10,512.35,0,10
$GPRMC,121218.000,A,5130.1852,N,00000.3806,E,2.73,141.04,290716,,,A*6E,51.5030860900,0.0063432998,12:12:18,29/7/2016,5,37,41.50,346,29.10,509.13,0,10
$GPRMC,121219.000,A,5130.1850,N,00000.3814,E,1.99,143.53,290716,,,A*69,51.5030860900,0.0063565998,12:12:19,29/7/2016,5,41,45.05,396,29.10,511.02,0,10
$GPRMC,121220.000,A,5130.1847,N,00000.3819,E,1.80,165.83,290716,,,A*69,51.5030746459,0.0063650007,12:12:20,29/7/2016,7,32,31.56,329,29.10,512.06,0,10
$GPRMC,121221.000,A,5130.1843,N,00000.3823,E,2.31,152.33,290716,,,A*63,51.5030670166,0.0063716006,12:12:21,29/7/2016,4,33,45.16,362,29.59,512.81,0,10
$GPRMC,121222.000,A,5130.1838,N,00000.3827,E,2.36,151.42,290716,,,A*6A,51.5030593872,0.0063782997,12:12:22,29/7/2016,5,44,41.85,336,29.10,513.07,2,12
$GPRMC,121223.000,A,5130.1833,N,00000.3835,E,2.71,140.13,290716,,,A*64,51.5030517578,0.0063916006,12:12:23,29/7/2016,5,49,31.52,346,29.10,511.51,0,12
$GPRMC,121224.000,A,5130.1827,N,00000.3846,E,3.24,132.18,290716,,,A*6D,51.5030441284,0.0064100003,12:12:24,29/7/2016,5,41,40.89,332,29.10,513.14,0,12
$GPRMC,121225.000,A,5130.1826,N,00000.3853,E,2.04,128.99,290716,,,A*68,51.5030441284,0.0064216003,12:12:25,29/7/2016,5,38,40.88,339,29.59,512.98,0,12
$GPRMC,121226.000,A,5130.1823,N,00000.3860,E,2.22,125.62,290716,,,A*63,51.5030364990,0.0064333000,12:12:26,29/7/2016,5,40,39.50,348,29.10,511.77,0,12
$GPRMC,121227.000,A,5130.1819,N,00000.3868,E,2.16,97.41,290716,,,A*5D,51.5030364990,0.0064466004,12:12:27,29/7/2016,5,47,41.82,359,29.10,512.91,0,12
$GPRMC,121228.000,A,5130.1816,N,00000.3877,E,1.74,106.94,290716,,,A*65,51.5030288696,0.0064616003,12:12:28,29/7/2016,10,51,45.09,376,29.10,509.21,0,12
$GPRMC,121229.000,A,5130.1809,N,00000.3889,E,2.18,100.48,290716,,,A*65,51.5030097961,0.0064816002,12:12:29,29/7/2016,9,34,43.90,339,29.59,515.55,0,12
$GPRMC,121230.000,A,5130.1805,N,00000.3900,E,2.50,102.10,290716,,,A*62,51.5030097961,0.0065000000,12:12:30,29/7/2016,7,44,40.20,360,29.59,513.01,0,12
$GPRMC,121231.000,A,5130.1808,N,00000.3908,E,2.41,74.26,290716,,,A*53,51.5030097961,0.0065132999,12:12:31,29/7/2016,5,38,43.41,369,29.59,512.16,0,12
$GPRMC,121232.000,A,5130.1814,N,00000.3916,E,2.51,55.00,290716,,,A*54,51.5030288696,0.0065265998,12:12:32,29/7/2016,5,35,42.39,338,29.59,511.02,0,12
$GPRMC,121233.000,A,5130.1821,N,00000.3918,E,1.53,45.55,290716,,,A*5D,51.5030364990,0.0065299997,12:12:33,29/7/2016,9,33,41.20,351,29.59,510.88,0,12
$GPRMC,121234.000,A,5130.1829,N,00000.3920,E,2.34,19.56,290716,,,A*51,51.5030517578,0.0065333008,12:12:34,29/7/2016,5,36,48.22,373,29.59,511.52,1,13
$GPRMC,121235.000,A,5130.1838,N,00000.3916,E,2.64,346.27,290716,,,A*6F,51.5030593872,0.0065265998,12:12:35,29/7/2016,3,42,39.85,352,29.59,513.50,1,14
$GPRMC,121236.000,A,5130.1846,N,00000.3911,E,1.79,337.90,290716,,,A*67,51.5030746459,0.0065182995,12:12:36,29/7/2016,6,39,36.51,337,29.10,513.22,0,14
$GPRMC,121237.000,A,5130.1853,N,00000.3905,E,1.67,339.40,290716,,,A*6B,51.5030860900,0.0065082998,12:12:37,29/7/2016,10,41,40.45,348,29.10,512.61,0,14
$GPRMC,121238.000,A,5130.1859,N,00000.3903,E,2.05,4.23,290716,,,A*67,51.5031013488,0.0065050001,12:12:38,29/7/2016,10,47,39.48,366,29.10,509.49,0,14
$GPRMC,121239.000,A,5130.1870,N,00000.3901,E,3.09,355.07,290716,,,A*63,51.5031166076,0.0065016002,12:12:39,29/7/2016,11,30,42.18,310,29.10,504.45,0,14
$GPRMC,121240.000,A,5130.1880,N,00000.3902,E,2.75,3.31,290716,,,A*6E,51.5031318664,0.0065033006,12:12:40,29/7/2016,12,42,40.35,354,29.10,508.34,0,14
$GPRMC,121241.000,A,5130.1890,N,00000.3902,E,2.40,336.55,290716,,,A*6F,51.5031509399,0.0065033006,12:12:41,29/7/2016,9,34,40.36,334,28.61,512.52,0,14
$GPRMC,121242.000,A,5130.1895,N,00000.3900,E,1.86,316.39,290716,,,A*6A,51.5031585693,0.0065000000,12:12:42,29/7/2016,6,35,41.04,343,28.61,512.75,0,14
$GPRMC,121243.000,A,5130.1900,N,00000.3894,E,2.02,322.16,290716,,,A*6F,51.5031661987,0.0064900007,12:12:43,29/7/2016,5,39,44.04,359,28.61,510.47,0,14
$GPRMC,121244.000,A,5130.1904,N,00000.3889,E,2.37,315.39,290716,,,A*6F,51.5031738281,0.0064816002,12:12:44,29/7/2016,6,42,40.49,345,28.61,513.16,0,14
$GPRMC,121245.000,A,5130.1909,N,00000.3885,E,2.81,328.10,290716,,,A*67,51.5031814575,0.0064750003,12:12:45,29/7/2016,7,48,41.11,353,28.61,513.10,0,14
$GPRMC,121246.000,A,5130.1915,N,00000.3879,E,2.77,316.67,290716,,,A*6E,51.5031890869,0.0064650006,12:12:46,29/7/2016,5,39,37.97,321,28.61,511.35,1,15
$GPRMC,121247.000,A,5130.1921,N,00000.3871,E,2.61,313.19,290716,,,A*6B,51.5031967163,0.0064516000,12:12:47,29/7/2016,4,55,40.90,326,28.13,511.65,0,15
$GPRMC,121248.000,A,5130.1927,N,00000.3864,E,2.71,325.77,290716,,,A*6A,51.5032157897,0.0064400005,12:12:48,29/7/2016,4,39,41.17,373,28.61,512.19,0,15
$GPRMC,121249.000,A,5130.1936,N,00000.3855,E,3.67,320.01,290716,,,A*6B,51.5032234191,0.0064249997,12:12:49,29/7/2016,4,47,41.25,322,28.13,512.76,0,15
$GPRMC,121250.000,A,5130.1944,N,00000.3845,E,2.81,320.42,290716,,,A*69,51.5032386779,0.0064082994,12:12:50,29/7/2016,4,50,38.87,350,28.61,512.02,0,15
$GPRMC,121251.000,A,5130.1953,N,00000.3837,E,2.97,322.25,290716,,,A*6F,51.5032539367,0.0063950004,12:12:51,29/7/2016,4,87,39.42,354,29.10,513.81,0,15
$GPRMC,121252.000,A,5130.1960,N,00000.3829,E,2.61,320.35,290716,,,A*69,51.5032615661,0.0063816003,12:12:52,29/7/2016,4,59,40.40,351,29.10,512.20,0,15
$GPRMC,121253.000,A,5130.1965,N,00000.3823,E,2.04,313.64,290716,,,A*60,51.5032730102,0.0063716006,12:12:53,29/7/2016,4,50,37.55,340,29.10,513.00,0,15
$GPRMC,121254.000,A,5130.1970,N,00000.3817,E,2.62,323.82,290716,,,A*6F,51.5032806396,0.0063616008,12:12:54,29/7/2016,4,40,41.71,353,29.59,512.73,0,15
$GPRMC,121255.000,A,5130.1976,N,00000.3812,E,2.63,330.16,290716,,,A*63,51.5032958984,0.0063533010,12:12:55,29/7/2016,4,47,40.29,336,29.10,512.33,0,15
$GPRMC,121256.000,A,5130.1982,N,00000.3808,E,2.69,329.88,290716,,,A*65,51.5033035278,0.0063466000,12:12:56,29/7/2016,4,24,38.80,347,29.59,512.97,0,15
$GPRMC,121257.000,A,5130.1987,N,00000.3801,E,2.91,326.03,290716,,,A*63,51.5033111572,0.0063350000,12:12:57,29/7/2016,4,40,40.50,350,29.59,512.58,0,15
$GPRMC,121258.000,A,5130.1994,N,00000.3793,E,3.69,325.25,290716,,,A*6B,51.5033187866,0.0063215999,12:12:58,29/7/2016,4,89,37.99,372,29.10,512.52,0,15
$GPRMC,121259.000,A,5130.2000,N,00000.3787,E,2.48,326.34,290716,,,A*69,51.5033378601,0.0063116006,12:12:59,29/7/2016,4,53,41.09,323,29.59,513.28,0,15
$GPRMC,121300.000,A,5130.2006,N,00000.3780,E,3.22,320.37,290716,,,A*6D,51.5033454895,0.0063000011,12:13:0,29/7/2016,4,42,41.62,355,29.59,512.56,0,15
$GPRMC,121301.000,A,5130.2013,N,00000.3770,E,3.18,315.96,290716,,,A*63,51.5033531188,0.0062832999,12:13:1,29/7/2016,4,88,39.35,365,29.10,513.61,0,15
$GPRMC,121302.000,A,5130.2015,N,00000.3764,E,2.73,326.12,290716,,,A*63,51.5033607482,0.0062733001,12:13:2,29/7/2016,4,40,40.33,336,29.59,512.60,0,15
$GPRMC,121303.000,A,5130.2020,N,00000.3758,E,3.24,325.96,290716,,,A*67,51.5033683776,0.0062632999,12:13:3,29/7/2016,5,41,41.18,362,29.59,514.90,0,15
$GPRMC,121304.000,A,5130.2027,N,00000.3749,E,3.08,326.79,290716,,,A*6B,51.5033760070,0.0062483005,12:13:4,29/7/2016,5,44,43.98,349,30.08,511.95,0,15
$GPRMC,121305.000,A,5130.2032,N,00000.3744,E,2.90,323.67,290716,,,A*69,51.5033836364,0.0062400007,12:13:5,29/7/2016,4,98,40.29,332,29.59,511.19,0,15
$GPRMC,121306.000,A,5130.2038,N,00000.3738,E,2.79,325.75,290716,,,A*69,51.5033950805,0.0062300004,12:13:6,29/7/2016,4,29,41.33,340,29.59,511.59,0,15
$GPRMC,121307.000,A,5130.2045,N,00000.3734,E,2.94,328.64,290716,,,A*60,51.5034103393,0.0062232999,12:13:7,29/7/2016,6,41,53.70,330,29.59,512.58,0,15
$GPRMC,121308.000,A,5130.2051,N,00000.3724,E,3.03,308.38,290716,,,A*6F,51.5034179687,0.0062066006,12:13:8,29/7/2016,10,92,74.27,349,29.10,511.71,0,15
$GPRMC,121309.000,A,5130.2057,N,00000.3716,E,2.23,325.40,290716,,,A*6A,51.5034255981,0.0061933002,12:13:9,29/7/2016,9,34,67.85,345,29.10,513.27,0,15
$GPRMC,121310.000,A,5130.2064,N,00000.3710,E,2.62,328.72,290716,,,A*6D,51.5034408569,0.0061833004,12:13:10,29/7/2016,6,37,44.85,327,28.61,512.40,0,15
$GPRMC,121311.000,A,5130.2070,N,00000.3705,E,2.76,327.93,290716,,,A*68,51.5034523010,0.0061750001,12:13:11,29/7/2016,4,71,39.36,353,28.13,513.63,0,15
$GPRMC,121312.000,A,5130.2077,N,00000.3699,E,2.76,329.79,290716,,,A*62,51.5034599304,0.0061649999,12:13:12,29/7/2016,9,86,42.23,347,28.61,512.39,1,16
$GPRMC,121313.000,A,5130.2084,N,00000.3695,E,2.83,331.87,290716,,,A*61,51.5034751892,0.0061582999,12:13:13,29/7/2016,4,32,39.37,349,28.61,511.73,0,16
$GPRMC,121314.000,A,5130.2090,N,00000.3689,E,2.86,318.75,290716,,,A*6D,51.5034828186,0.0061483001,12:13:14,29/7/2016,4,45,40.59,379,28.61,511.19,0,16
$GPRMC,121315.000,A,5130.2096,N,00000.3683,E,2.81,325.15,290716,,,A*6F,51.5034904479,0.0061383004,12:13:15,29/7/2016,4,42,45.56,396,28.61,512.71,0,16
$GPRMC,121316.000,A,5130.2102,N,00000.3677,E,2.78,324.52,290716,,,A*6F,51.5034980773,0.0061283006,12:13:16,29/7/2016,4,49,37.65,356,29.10,512.36,0,16
$GPRMC,121317.000,A,5130.2108,N,00000.3670,E,2.83,324.02,290716,,,A*62,51.5035171508,0.0061166000,12:13:17,29/7/2016,4,40,41.09,358,29.10,514.01,0,16
$GPRMC,121318.000,A,5130.2114,N,00000.3662,E,2.93,321.56,290716,,,A*66,51.5035247802,0.0061033000,12:13:18,29/7/2016,4,41,39.50,356,29.10,512.74,0,16
$GPRMC,121319.000,A,5130.2120,N,00000.3654,E,3.24,313.39,290716,,,A*60,51.5035324096,0.0060900001,12:13:19,29/7/2016,4,35,41.71,364,29.59,512.71,0,16
$GPRMC,121320.000,A,5130.2127,N,00000.3643,E,3.82,319.78,290716,,,A*68,51.5035476684,0.0060716004,12:13:20,29/7/2016,6,36,39.10,361,29.10,513.24,0,16
$GPRMC,121321.000,A,5130.2133,N,00000.3636,E,2.87,329.01,290716,,,A*67,51.5035552978,0.0060599999,12:13:21,29/7/2016,4,41,39.08,346,29.59,512.71,0,16
$GPRMC,121322.000,A,5130.2139,N,00000.3630,E,2.60,320.77,290716,,,A*69,51.5035629272,0.0060500001,12:13:22,29/7/2016,5,30,41.00,348,29.10,511.98,1,17
$GPRMC,121323.000,A,5130.2145,N,00000.3623,E,2.90,323.88,290716,,,A*6D,51.5035743713,0.0060383005,12:13:23,29/7/2016,4,29,43.59,332,29.10,511.98,0,17
$GPRMC,121324.000,A,5130.2150,N,00000.3616,E,2.48,322.50,290716,,,A*69,51.5035820007,0.0060266008,12:13:24,29/7/2016,5,83,40.14,375,29.59,513.03,0,17
$GPRMC,121325.000,A,5130.2156,N,00000.3610,E,2.93,320.89,290716,,,A*68,51.5035972595,0.0060166001,12:13:25,29/7/2016,4,44,40.50,353,29.10,512.23,0,17
$GPRMC,121326.000,A,5130.2161,N,00000.3604,E,2.73,328.49,290716,,,A*60,51.5036048889,0.0060066003,12:13:26,29/7/2016,4,44,39.55,341,29.59,512.79,0,17
$GPRMC,121327.000,A,5130.2167,N,00000.3597,E,2.99,322.48,290716,,,A*61,51.5036125183,0.0059949998,12:13:27,29/7/2016,4,33,39.71,338,29.59,512.75,0,17
$GPRMC,121328.000,A,5130.2174,N,00000.3589,E,3.41,319.90,290716,,,A*6A,51.5036201477,0.0059816002,12:13:28,29/7/2016,4,39,37.85,351,29.59,512.34,1,18
$GPRMC,121329.000,A,5130.2179,N,00000.3581,E,2.90,322.66,290716,,,A*62,51.5036277770,0.0059682998,12:13:29,29/7/2016,4,42,44.58,389,29.59,513.64,0,18
$GPRMC,121330.000,A,5130.2184,N,00000.3573,E,2.68,323.70,290716,,,A*64,51.5036392211,0.0059549999,12:13:30,29/7/2016,4,81,39.20,337,29.59,512.82,0,18
$GPRMC,121331.000,A,5130.2190,N,00000.3566,E,2.90,325.36,290716,,,A*67,51.5036544799,0.0059433002,12:13:31,29/7/2016,4,36,33.57,332,30.08,512.69,0,18
$GPRMC,121332.000,A,5130.2196,N,00000.3558,E,3.02,324.03,290716,,,A*62,51.5036621093,0.0059299998,12:13:32,29/7/2016,4,51,44.66,349,29.59,512.80,0,18
$GPRMC,121333.000,A,5130.2202,N,00000.3552,E,2.79,327.99,290716,,,A*6A,51.5036697387,0.0059200000,12:13:33,29/7/2016,4,44,40.91,357,30.08,512.38,0,18
$GPRMC,121334.000,A,5130.2209,N,00000.3543,E,3.72,319.05,290716,,,A*64,51.5036773681,0.0059050006,12:13:34,29/7/2016,4,32,36.97,319,30.08,513.40,0,18
$GPRMC,121335.000,A,5130.2216,N,00000.3536,E,2.95,323.92,290716,,,A*66,51.5036964416,0.0058932995,12:13:35,29/7/2016,5,78,39.73,346,30.08,512.72,0,18
$GPRMC,121336.000,A,5130.2222,N,00000.3529,E,3.16,325.08,290716,,,A*63,51.5037040710,0.0058816003,12:13:36,29/7/2016,4,45,38.67,333,30.08,513.09,0,18
$GPRMC,121337.000,A,5130.2230,N,00000.3521,E,3.31,323.89,290716,,,A*63,51.5037193298,0.0058683004,12:13:37,29/7/2016,5,50,40.92,331,30.08,513.10,0,18
$GPRMC,121338.000,A,5130.2237,N,00000.3512,E,3.37,319.34,290716,,,A*62,51.5037269592,0.0058533005,12:13:38,29/7/2016,4,66,40.27,358,30.57,512.71,0,18
$GPRMC,121339.000,A,5130.2243,N,00000.3506,E,3.17,324.36,290716,,,A*6B,51.5037345886,0.0058433003,12:13:39,29/7/2016,4,28,35.65,321,30.08,512.63,0,18
$GPRMC,121340.000,A,5130.2248,N,00000.3500,E,2.72,320.38,290716,,,A*60,51.5037422180,0.0058333005,12:13:40,29/7/2016,4,45,42.93,317,30.08,512.64,0,18
$GPRMC,121341.000,A,5130.2254,N,00000.3496,E,1.79,327.28,290716,,,A*6C,51.5037612915,0.0058266000,12:13:41,29/7/2016,4,51,38.50,361,30.08,512.61,0,18
$GPRMC,121342.000,A,5130.2259,N,00000.3491,E,2.51,321.72,290716,,,A*65,51.5037689208,0.0058183002,12:13:42,29/7/2016,4,42,31.65,357,30.08,513.23,0,18
$GPRMC,121343.000,A,5130.2266,N,00000.3484,E,3.50,325.83,290716,,,A*66,51.5037765502,0.0058066005,12:13:43,29/7/2016,4,16,13.00,349,29.59,510.49,0,18
$GPRMC,121344.000,A,5130.2273,N,00000.3478,E,3.14,330.78,290716,,,A*66,51.5037918090,0.0057966003,12:13:44,29/7/2016,4,21,15.64,323,29.59,511.32,0,18
$GPRMC,121345.000,A,5130.2281,N,00000.3465,E,3.12,329.12,290716,,,A*64,51.5037994384,0.0057749996,12:13:45,29/7/2016,4,14,15.52,348,29.59,511.25,0,18
$GPRMC,121346.000,A,5130.2288,N,00000.3457,E,2.62,326.38,290716,,,A*6E,51.5038185119,0.0057616000,12:13:46,29/7/2016,4,7,14.41,341,29.59,511.60,0,18
$GPRMC,121347.000,A,5130.2293,N,00000.3452,E,2.07,332.73,290716,,,A*69,51.5038261413,0.0057533001,12:13:47,29/7/2016,4,22,13.80,318,29.10,512.34,0,18
$GPRMC,121348.000,A,5130.2299,N,00000.3444,E,2.77,313.74,290716,,,A*68,51.5038337707,0.0057399997,12:13:48,29/7/2016,4,9,15.39,262,29.10,510.40,0,18
$GPRMC,121349.000,A,5130.2306,N,00000.3438,E,3.30,328.79,290716,,,A*62,51.5038414001,0.0057300000,12:13:49,29/7/2016,4,0,6.26,252,29.10,510.20,0,18
$GPRMC,121350.000,A,5130.2313,N,00000.3431,E,3.17,322.25,290716,,,A*61,51.5038566589,0.0057183003,12:13:50,29/7/2016,4,20,16.56,260,29.59,508.82,0,18
$GPRMC,121351.000,A,5130.2319,N,00000.3423,E,3.02,317.08,290716,,,A*64,51.5038642883,0.0057049994,12:13:51,29/7/2016,4,12,13.32,307,29.59,511.00,0,18
$GPRMC,121352.000,A,5130.2324,N,00000.3418,E,3.03,324.89,290716,,,A*69,51.5038719177,0.0056965999,12:13:52,29/7/2016,4,9,11.62,346,29.59,510.75,0,18
$GPRMC,121353.000,A,5130.2330,N,00000.3413,E,3.06,322.94,290716,,,A*69,51.5038833618,0.0056883001,12:13:53,29/7/2016,4,7,12.89,332,29.59,511.35,0,18
$GPRMC,121354.000,A,5130.2336,N,00000.3410,E,2.71,329.84,290716,,,A*60,51.5038909912,0.0056833004,12:13:54,29/7/2016,4,13,12.25,309,29.59,511.33,0,18
$GPRMC,121355.000,A,5130.2341,N,00000.3405,E,2.94,319.96,290716,,,A*6E,51.5038986206,0.0056750006,12:13:55,29/7/2016,4,6,12.53,339,29.59,510.81,0,18
$GPRMC,121356.000,A,5130.2346,N,00000.3399,E,2.96,317.98,290716,,,A*6A,51.5039062500,0.0056649999,12:13:56,29/7/2016,3,8,14.72,330,29.59,511.48,0,18
$GPRMC,121357.000,A,5130.2351,N,00000.3393,E,2.68,318.99,290716,,,A*68,51.5039138793,0.0056550002,12:13:57,29/7/2016,4,6,12.16,302,29.59,510.13,0,18
$GPRMC,121358.000,A,5130.2357,N,00000.3388,E,2.55,323.34,290716,,,A*6A,51.5039291381,0.0056466007,12:13:58,29/7/2016,4,3,14.28,462,29.59,513.85,0,18
$GPRMC,121359.000,A,5130.2362,N,00000.3382,E,3.13,316.16,290716,,,A*62,51.5039405822,0.0056366004,12:13:59,29/7/2016,4,8,12.37,391,29.59,512.41,0,18
$GPRMC,121400.000,A,5130.2367,N,00000.3374,E,2.64,314.33,290716,,,A*61,51.5039482116,0.0056233000,12:14:0,29/7/2016,4,5,11.50,350,29.59,511.18,0,18
$GPRMC,121401.000,A,5130.2374,N,00000.3368,E,3.15,326.98,290716,,,A*68,51.5039558410,0.0056133003,12:14:1,29/7/2016,4,9,11.94,285,30.08,511.28,0,18
$GPRMC,121402.000,A,5130.2381,N,00000.3361,E,3.19,318.89,290716,,,A*69,51.5039710998,0.0056016006,12:14:2,29/7/2016,4,7,14.15,338,30.08,510.80,0,18
$GPRMC,121403.000,A,5130.2386,N,00000.3356,E,2.43,330.06,290716,,,A*68,51.5039787292,0.0055933003,12:14:3,29/7/2016,4,7,11.82,321,30.08,510.96,0,18
$GPRMC,121404.000,A,5130.2391,N,00000.3351,E,2.18,316.75,290716,,,A*60,51.5039863586,0.0055850005,12:14:4,29/7/2016,4,4,8.88,315,29.59,513.16,0,18
$GPRMC,121405.000,A,5130.2397,N,00000.3342,E,2.51,311.12,290716,,,A*6E,51.5039939880,0.0055700006,12:14:5,29/7/2016,5,8,11.37,258,29.59,508.70,0,18
$GPRMC,121406.000,A,5130.2401,N,00000.3333,E,2.11,294.54,290716,,,A*69,51.5040054321,0.0055550003,12:14:6,29/7/2016,4,5,7.39,256,29.59,510.74,0,18
$GPRMC,121407.000,A,5130.2406,N,00000.3327,E,2.67,326.77,290716,,,A*62,51.5040130615,0.0055450000,12:14:7,29/7/2016,4,5,11.10,247,30.08,508.93,0,18
$GPRMC,121408.000,A,5130.2413,N,00000.3320,E,2.73,323.63,290716,,,A*6B,51.5040206909,0.0055333003,12:14:8,29/7/2016,4,0,7.61,295,29.59,512.09,0,18
$GPRMC,121409.000,A,5130.2419,N,00000.3312,E,3.29,320.86,290716,,,A*67,51.5040283203,0.0055200004,12:14:9,29/7/2016,4,2,10.02,248,30.08,509.03,0,18
$GPRMC,121410.000,A,5130.2426,N,00000.3304,E,2.93,316.01,290716,,,A*6E,51.5040435791,0.0055066003,12:14:10,29/7/2016,4,0,8.28,334,29.59,511.90,0,18
$GPRMC,121411.000,A,5130.2432,N,00000.3295,E,3.31,313.67,290716,,,A*6F,51.5040512084,0.0054916000,12:14:11,29/7/2016,4,9,8.76,261,30.08,509.32,0,18
$GPRMC,121412.000,A,5130.2439,N,00000.3285,E,2.65,314.49,290716,,,A*6D,51.5040702819,0.0054750003,12:14:12,29/7/2016,4,0,7.28,322,29.59,511.98,0,18
$GPRMC,121413.000,A,5130.2445,N,00000.3276,E,3.09,314.18,290716,,,A*64,51.5040779113,0.0054600000,12:14:13,29/7/2016,4,2,8.41,242,30.08,508.80,0,18
$GPRMC,121414.000,A,5130.2453,N,00000.3267,E,2.80,324.20,290716,,,A*6C,51.5040855407,0.0054449996,12:14:14,29/7/2016,5,0,7.07,312,30.08,512.07,0,18
$GPRMC,121415.000,A,5130.2461,N,00000.3257,E,3.06,320.49,290716,,,A*6B,51.5041007995,0.0054282999,12:14:15,29/7/2016,5,7,8.91,248,30.08,508.66,1,19
$GPRMC,121416.000,A,5130.2468,N,00000.3250,E,2.66,329.42,290716,,,A*63,51.5041084289,0.0054166007,12:14:16,29/7/2016,4,0,7.46,328,30.08,511.99,1,20
$GPRMC,121417.000,A,5130.2475,N,00000.3241,E,2.87,316.40,290716,,,A*6F,51.5041275024,0.0054016008,12:14:17,29/7/2016,4,9,10.16,250,30.08,509.25,0,20
$GPRMC,121418.000,A,5130.2482,N,00000.3231,E,2.77,322.40,290716,,,A*67,51.5041351318,0.0053850002,12:14:18,29/7/2016,5,0,5.66,289,30.08,510.98,0,20
$GPRMC,121419.000,A,5130.2489,N,00000.3222,E,3.03,320.39,290716,,,A*61,51.5041503906,0.0053699998,12:14:19,29/7/2016,5,2,8.80,244,30.57,508.70,0,20
$GPRMC,121420.000,A,5130.2496,N,00000.3212,E,2.91,319.50,290716,,,A*69,51.5041580200,0.0053533005,12:14:20,29/7/2016,5,0,5.02,247,30.08,510.31,0,20
$GPRMC,121421.000,A,5130.2502,N,00000.3202,E,2.83,320.37,290716,,,A*6D,51.5041656494,0.0053365998,12:14:21,29/7/2016,5,6,9.44,251,30.08,508.68,0,20
$GPRMC,121422.000,A,5130.2509,N,00000.3192,E,2.81,320.05,290716,,,A*6C,51.5041847229,0.0053200001,12:14:22,29/7/2016,5,0,5.05,250,30.08,510.27,0,20
$GPRMC,121423.000,A,5130.2515,N,00000.3182,E,2.81,316.97,290716,,,A*6F,51.5041923522,0.0053033008,12:14:23,29/7/2016,5,1,10.29,232,30.08,509.45,1,21
$GPRMC,121424.000,A,5130.2523,N,00000.3171,E,3.00,319.43,290716,,,A*6F,51.5042076110,0.0052850003,12:14:24,29/7/2016,4,0,5.10,242,30.08,509.94,1,22
$GPRMC,121425.000,A,5130.2531,N,00000.3158,E,3.02,318.46,290716,,,A*60,51.5042152404,0.0052632999,12:14:25,29/7/2016,4,0,9.55,246,30.08,509.78,0,22
$GPRMC,121426.000,A,5130.2540,N,00000.3144,E,3.09,316.49,290716,,,A*62,51.5042304992,0.0052400007,12:14:26,29/7/2016,4,0,4.56,239,30.57,509.76,0,22
$GPRMC,121427.000,A,5130.2547,N,00000.3133,E,2.97,317.31,290716,,,A*6C,51.5042495727,0.0052216000,12:14:27,29/7/2016,4,49,27.19,474,30.57,517.69,0,22
$GPRMC,121428.000,A,5130.2553,N,00000.3124,E,3.05,314.67,290716,,,A*6A,51.5042572021,0.0052066001,12:14:28,29/7/2016,4,40,41.79,376,31.05,512.00,0,22
$GPRMC,121429.000,A,5130.2558,N,00000.3116,E,2.44,309.86,290716,,,A*66,51.5042648315,0.0051933002,12:14:29,29/7/2016,5,49,39.47,329,31.05,513.00,0,22
$GPRMC,121430.000,A,5130.2564,N,00000.3107,E,2.86,323.81,290716,,,A*60,51.5042724609,0.0051782999,12:14:30,29/7/2016,5,44,35.00,361,31.05,512.71,0,22
$GPRMC,121431.000,A,5130.2571,N,00000.3098,E,2.86,321.20,290716,,,A*6B,51.5042877197,0.0051633000,12:14:31,29/7/2016,5,29,35.77,360,31.05,513.14,0,22
$GPRMC,121432.000,A,5130.2577,N,00000.3090,E,2.99,318.36,290716,,,A*65,51.5042953491,0.0051499996,12:14:32,29/7/2016,5,45,37.64,351,31.05,512.86,0,22
$GPRMC,121433.000,A,5130.2582,N,00000.3082,E,2.90,317.49,290716,,,A*63,51.5043067932,0.0051366000,12:14:33,29/7/2016,4,40,37.38,371,31.05,512.68,0,22
$GPRMC,121434.000,A,5130.2588,N,00000.3074,E,2.84,313.17,290716,,,A*6D,51.5043144226,0.0051233005,12:14:34,29/7/2016,4,46,36.09,336,31.05,513.11,0,22
$GPRMC,121435.000,A,5130.2594,N,00000.3065,E,3.06,311.56,290716,,,A*6D,51.5043220520,0.0051083002,12:14:35,29/7/2016,4,41,41.93,333,31.54,513.41,0,22
$GPRMC,121436.000,A,5130.2599,N,00000.3055,E,3.20,311.42,290716,,,A*61,51.5043296813,0.0050916004,12:14:36,29/7/2016,4,47,38.55,348,31.54,512.92,0,22
$GPRMC,121437.000,A,5130.2605,N,00000.3045,E,3.28,316.29,290716,,,A*65,51.5043373107,0.0050750007,12:14:37,29/7/2016,4,43,39.34,377,31.05,512.74,0,22
$GPRMC,121438.000,A,5130.2611,N,00000.3036,E,2.85,316.67,290716,,,A*67,51.5043525695,0.0050600004,12:14:38,29/7/2016,4,40,41.01,360,31.54,513.16,0,22
$GPRMC,121439.000,A,5130.2616,N,00000.3028,E,2.66,311.47,290716,,,A*66,51.5043601989,0.0050466003,12:14:39,29/7/2016,5,44,34.12,324,31.54,512.50,0,22
$GPRMC,121440.000,A,5130.2622,N,00000.3019,E,3.08,314.64,290716,,,A*60,51.5043716430,0.0050315999,12:14:40,29/7/2016,4,38,43.67,386,31.54,512.66,0,22
$GPRMC,121441.000,A,5130.2629,N,00000.3010,E,3.00,321.85,290716,,,A*62,51.5043792724,0.0050166006,12:14:41,29/7/2016,5,51,40.48,343,31.54,512.62,0,22
$GPRMC,121442.000,A,5130.2636,N,00000.3002,E,2.83,322.66,290716,,,A*68,51.5043945312,0.0050033001,12:14:42,29/7/2016,4,83,36.07,329,31.05,513.95,0,22
$GPRMC,121443.000,A,5130.2641,N,00000.2994,E,2.88,317.73,290716,,,A*67,51.5044021606,0.0049899997,12:14:43,29/7/2016,5,50,41.09,336,31.05,512.75,0,22
$GPRMC,121444.000,A,5130.2647,N,00000.2986,E,3.10,313.14,290716,,,A*60,51.5044097900,0.0049766006,12:14:44,29/7/2016,5,44,38.03,362,31.54,512.35,0,22
$GPRMC,121445.000,A,5130.2653,N,00000.2975,E,3.69,312.43,290716,,,A*65,51.5044174194,0.0049583001,12:14:45,29/7/2016,5,42,50.50,368,31.54,512.85,0,22
$GPRMC,121446.000,A,5130.2659,N,00000.2964,E,3.14,317.39,290716,,,A*6E,51.5044364929,0.0049400000,12:14:46,29/7/2016,5,50,42.78,344,31.54,512.61,0,22
$GPRMC,121447.000,A,5130.2665,N,00000.2955,E,3.09,314.26,290716,,,A*63,51.5044441223,0.0049250001,12:14:47,29/7/2016,4,103,39.28,351,31.54,513.27,0,22
$GPRMC,121448.000,A,5130.2672,N,00000.2945,E,3.31,324.07,290716,,,A*60,51.5044517517,0.0049082999,12:14:48,29/7/2016,4,51,43.91,333,32.03,512.46,1,23
$GPRMC,121449.000,A,5130.2679,N,00000.2936,E,2.94,312.51,290716,,,A*66,51.5044670104,0.0048933000,12:14:49,29/7/2016,4,36,40.46,341,31.54,512.70,0,23
$GPRMC,121450.000,A,5130.2682,N,00000.2928,E,1.83,291.41,290716,,,A*6B,51.5044670104,0.0048800001,12:14:50,29/7/2016,4,52,45.51,353,31.54,512.66,0,23
$GPRMC,121451.000,A,5130.2685,N,00000.2920,E,2.20,309.20,290716,,,A*68,51.5044746398,0.0048666000,12:14:51,29/7/2016,4,59,45.75,331,31.54,512.69,1,24
$GPRMC,121452.000,A,5130.2691,N,00000.2912,E,2.68,318.48,290716,,,A*6D,51.5044822692,0.0048533005,12:14:52,29/7/2016,5,37,44.52,348,31.54,513.02,0,24
$GPRMC,121453.000,A,5130.2696,N,00000.2904,E,2.39,312.87,290716,,,A*61,51.5044937133,0.0048400001,12:14:53,29/7/2016,4,27,42.56,319,31.05,509.94,0,24
$GPRMC,121454.000,A,5130.2700,N,00000.2894,E,2.36,303.76,290716,,,A*61,51.5045013427,0.0048233003,12:14:54,29/7/2016,4,37,42.80,446,31.05,516.06,0,24
$GPRMC,121455.000,A,5130.2704,N,00000.2884,E,2.79,309.29,290716,,,A*6E,51.5045089721,0.0048066000,12:14:55,29/7/2016,4,36,43.06,367,31.54,512.47,0,24
$GPRMC,121456.000,A,5130.2708,N,00000.2874,E,2.62,309.75,290716,,,A*6D,51.5045166015,0.0047900004,12:14:56,29/7/2016,4,36,41.15,345,31.54,512.64,0,24
$GPRMC,121457.000,A,5130.2712,N,00000.2864,E,2.57,311.96,290716,,,A*64,51.5045166015,0.0047733006,12:14:57,29/7/2016,5,37,33.53,361,31.54,512.58,0,24
$GPRMC,121458.000,A,5130.2717,N,00000.2855,E,2.65,303.97,290716,,,A*6F,51.5045242309,0.0047583003,12:14:58,29/7/2016,6,44,44.81,324,31.54,512.05,0,24
$GPRMC,121459.000,A,5130.2721,N,00000.2845,E,2.66,307.53,290716,,,A*65,51.5045318603,0.0047416000,12:14:59,29/7/2016,7,56,40.61,329,31.05,512.54,0,24
$GPRMC,121500.000,A,5130.2726,N,00000.2836,E,2.76,311.73,290716,,,A*6F,51.5045394897,0.0047266001,12:15:0,29/7/2016,7,42,34.52,359,31.05,513.44,0,24
$GPRMC,121501.000,A,5130.2729,N,00000.2826,E,2.36,289.41,290716,,,A*65,51.5045509338,0.0047100005,12:15:1,29/7/2016,7,16,22.51,366,30.08,512.82,0,24
$GPRMC,121502.000,A,5130.2735,N,00000.2814,E,2.74,303.94,290716,,,A*67,51.5045585632,0.0046899995,12:15:2,29/7/2016,7,23,21.19,337,30.08,511.53,0,24
$GPRMC,121503.000,A,5130.2741,N,00000.2803,E,2.76,310.94,290716,,,A*63,51.5045661926,0.0046716003,12:15:3,29/7/2016,8,15,21.01,295,30.08,511.96,0,24
$GPRMC,121504.000,A,5130.2746,N,00000.2791,E,2.77,295.08,290716,,,A*6F,51.5045738220,0.0046515998,12:15:4,29/7/2016,7,11,21.03,324,29.59,511.05,0,24
$GPRMC,121505.000,A,5130.2750,N,00000.2779,E,3.27,308.98,290716,,,A*67,51.5045814514,0.0046316003,12:15:5,29/7/2016,8,13,18.40,338,29.59,511.75,0,24
$GPRMC,121506.000,A,5130.2755,N,00000.2767,E,3.39,305.16,290716,,,A*6A,51.5045890808,0.0046115999,12:15:6,29/7/2016,7,14,24.11,378,29.59,512.67,0,24
$GPRMC,121507.000,A,5130.2760,N,00000.2754,E,3.07,311.65,290716,,,A*61,51.5045967102,0.0045900001,12:15:7,29/7/2016,8,20,20.23,327,29.59,511.21,0,24
$GPRMC,121508.000,A,5130.2765,N,00000.2741,E,3.14,304.00,290716,,,A*6A,51.5046043395,0.0045683002,12:15:8,29/7/2016,7,18,21.63,325,29.59,510.39,0,24
$GPRMC,121509.000,A,5130.2770,N,00000.2727,E,3.15,297.48,290716,,,A*69,51.5046157836,0.0045450000,12:15:9,29/7/2016,5,37,35.43,324,29.59,511.50,0,24
$GPRMC,121510.000,A,5130.2775,N,00000.2714,E,3.14,303.98,290716,,,A*64,51.5046234130,0.0045233001,12:15:10,29/7/2016,5,24,30.74,300,29.59,511.67,0,24
$GPRMC,121511.000,A,5130.2780,N,00000.2703,E,2.89,311.05,290716,,,A*6B,51.5046310424,0.0045050001,12:15:11,29/7/2016,4,34,29.11,312,30.08,510.59,0,24
$GPRMC,121512.000,A,5130.2785,N,00000.2693,E,3.18,310.40,290716,,,A*6C,51.5046386718,0.0044883003,12:15:12,29/7/2016,4,10,25.84,328,30.08,511.02,0,24
$GPRMC,121513.000,A,5130.2791,N,00000.2681,E,3.40,302.96,290716,,,A*6E,51.5046539306,0.0044682998,12:15:13,29/7/2016,4,23,26.43,300,30.08,511.20,1,25
$GPRMC,121514.000,A,5130.2796,N,00000.2669,E,3.24,305.15,290716,,,A*66,51.5046615600,0.0044483003,12:15:14,29/7/2016,4,24,17.22,319,30.08,510.97,1,26
$GPRMC,121515.000,A,5130.2799,N,00000.2659,E,2.65,301.46,290716,,,A*6D,51.5046615600,0.0044316000,12:15:15,29/7/2016,4,10,13.24,255,30.08,510.62,0,26
$GPRMC,121516.000,A,5130.2804,N,00000.2647,E,3.19,302.89,290716,,,A*60,51.5046730041,0.0044116001,12:15:16,29/7/2016,4,11,15.62,269,30.57,509.08,0,26
$GPRMC,121517.000,A,5130.2809,N,00000.2635,E,2.89,304.53,290716,,,A*60,51.5046806335,0.0043916001,12:15:17,29/7/2016,4,6,18.65,332,30.08,511.46,0,26
$GPRMC,121518.000,A,5130.2815,N,00000.2624,E,2.69,307.40,290716,,,A*6D,51.5046958923,0.0043733000,12:15:18,29/7/2016,5,14,14.90,322,30.57,510.83,0,26
$GPRMC,121519.000,A,5130.2820,N,00000.2613,E,3.09,301.36,290716,,,A*6E,51.5047035217,0.0043550000,12:15:19,29/7/2016,5,14,20.07,309,30.57,510.62,0,26
$GPRMC,121520.000,A,5130.2824,N,00000.2602,E,2.87,301.70,290716,,,A*65,51.5047035217,0.0043365998,12:15:20,29/7/2016,4,16,23.38,295,30.08,511.31,0,26
$GPRMC,121521.000,A,5130.2827,N,00000.2592,E,2.73,302.34,290716,,,A*65,51.5047111511,0.0043200001,12:15:21,29/7/2016,4,24,23.17,339,30.08,511.11,0,26
$GPRMC,121522.000,A,5130.2831,N,00000.2582,E,2.94,317.70,290716,,,A*6D,51.5047187805,0.0043033003,12:15:22,29/7/2016,5,21,16.42,320,30.08,510.92,0,26
$GPRMC,121523.000,A,5130.2836,N,00000.2574,E,2.83,302.57,290716,,,A*65,51.5047264099,0.0042899999,12:15:23,29/7/2016,6,14,14.86,298,30.08,511.35,0,26
$GPRMC,121524.000,A,5130.2839,N,00000.2564,E,2.92,301.09,290716,,,A*64,51.5047264099,0.0042733006,12:15:24,29/7/2016,6,17,14.24,336,30.08,510.99,0,26
$GPRMC,121525.000,A,5130.2843,N,00000.2553,E,3.04,305.83,290716,,,A*64,51.5047378540,0.0042550001,12:15:25,29/7/2016,6,10,13.10,334,30.08,510.88,0,26
$GPRMC,121526.000,A,5130.2847,N,00000.2541,E,3.05,299.77,290716,,,A*6E,51.5047454833,0.0042349996,12:15:26,29/7/2016,6,16,12.93,312,30.08,511.02,0,26
$GPRMC,121527.000,A,5130.2850,N,00000.2529,E,3.08,290.54,290716,,,A*62,51.5047531127,0.0042150001,12:15:27,29/7/2016,5,12,13.95,295,30.08,511.01,0,26
$GPRMC,121528.000,A,5130.2853,N,00000.2515,E,2.83,299.03,290716,,,A*68,51.5047531127,0.0041915998,12:15:28,29/7/2016,5,21,14.42,340,30.08,511.44,0,26
$GPRMC,121529.000,A,5130.2857,N,00000.2503,E,2.79,291.50,290716,,,A*61,51.5047607421,0.0041716003,12:15:29,29/7/2016,5,24,24.95,327,30.08,511.37,0,26
$GPRMC,121530.000,A,5130.2859,N,00000.2490,E,2.69,287.52,290716,,,A*68,51.5047683715,0.0041500000,12:15:30,29/7/2016,5,14,23.67,312,29.59,511.26,0,26
$GPRMC,121531.000,A,5130.2862,N,00000.2477,E,2.85,290.53,290716,,,A*6D,51.5047683715,0.0041282997,12:15:31,29/7/2016,5,9,16.92,327,29.59,511.99,0,26
$GPRMC,121532.000,A,5130.2865,N,00000.2464,E,2.90,296.78,290716,,,A*60,51.5047760009,0.0041066002,12:15:32,29/7/2016,5,14,8.19,252,29.59,510.10,0,26
$GPRMC,121533.000,A,5130.2868,N,00000.2450,E,2.75,291.29,290716,,,A*63,51.5047760009,0.0040833001,12:15:33,29/7/2016,5,1,12.50,260,29.59,509.94,0,26
$GPRMC,121534.000,A,5130.2872,N,00000.2437,E,2.61,290.51,290716,,,A*65,51.5047836303,0.0040616002,12:15:34,29/7/2016,5,2,8.68,235,29.59,509.99,0,26
$GPRMC,121535.000,A,5130.2874,N,00000.2424,E,2.78,281.45,290716,,,A*6D,51.5047950744,0.0040399999,12:15:35,29/7/2016,5,1,10.08,312,29.10,511.77,0,26
$GPRMC,121536.000,A,5130.2876,N,00000.2410,E,3.05,279.35,290716,,,A*60,51.5047950744,0.0040166001,12:15:36,29/7/2016,4,7,6.72,237,29.59,510.21,0,26
$GPRMC,121537.000,A,5130.2878,N,00000.2397,E,2.63,276.35,290716,,,A*69,51.5047950744,0.0039949998,12:15:37,29/7/2016,4,1,9.94,286,29.59,511.77,0,26
$GPRMC,121538.000,A,5130.2880,N,00000.2384,E,2.83,278.29,290716,,,A*6E,51.5048027038,0.0039732999,12:15:38,29/7/2016,4,8,9.98,225,30.08,508.84,0,26
$GPRMC,121539.000,A,5130.2882,N,00000.2371,E,3.12,288.95,290716,,,A*66,51.5048027038,0.0039516000,12:15:39,29/7/2016,4,1,8.62,308,29.59,511.22,0,26
$GPRMC,121540.000,A,5130.2886,N,00000.2359,E,3.01,288.90,290716,,,A*61,51.5048103332,0.0039316000,12:15:40,29/7/2016,3,24,14.82,260,30.08,509.28,0,26
$GPRMC,121541.000,A,5130.2889,N,00000.2349,E,2.51,283.41,290716,,,A*6D,51.5048179626,0.0039150001,12:15:41,29/7/2016,4,21,17.01,286,30.08,510.74,0,26
$GPRMC,121542.000,A,5130.2890,N,00000.2337,E,3.02,274.79,290716,,,A*6B,51.5048179626,0.0038949999,12:15:42,29/7/2016,4,18,15.74,310,30.08,510.79,0,26
$GPRMC,121543.000,A,5130.2892,N,00000.2323,E,3.13,283.84,290716,,,A*67,51.5048179626,0.0038716003,12:15:43,29/7/2016,4,19,22.41,335,30.08,511.16,0,26
$GPRMC,121544.000,A,5130.2894,N,00000.2309,E,3.10,279.69,290716,,,A*6B,51.5048255920,0.0038482999,12:15:44,29/7/2016,4,9,15.49,291,30.08,511.17,0,26
$GPRMC,121545.000,A,5130.2896,N,00000.2296,E,3.19,280.47,290716,,,A*6C,51.5048255920,0.0038266000,12:15:45,29/7/2016,4,6,9.71,322,30.08,511.90,0,26
$GPRMC,121546.000,A,5130.2898,N,00000.2284,E,2.93,286.22,290716,,,A*64,51.5048332214,0.0038066000,12:15:46,29/7/2016,4,0,13.52,254,30.08,510.02,0,26
$GPRMC,121547.000,A,5130.2900,N,00000.2271,E,2.77,280.51,290716,,,A*67,51.5048332214,0.0037849998,12:15:47,29/7/2016,4,28,13.46,226,30.08,509.60,0,26
$GPRMC,121548.000,A,5130.2903,N,00000.2259,E,3.34,286.50,290716,,,A*60,51.5048408508,0.0037650003,12:15:48,29/7/2016,4,8,15.63,330,30.08,510.71,0,26
$GPRMC,121549.000,A,5130.2904,N,00000.2247,E,2.96,278.49,290716,,,A*69,51.5048408508,0.0037450001,12:15:49,29/7/2016,4,5,17.28,331,30.08,511.14,0,26
$GPRMC,121550.000,A,5130.2905,N,00000.2235,E,2.98,278.07,290716,,,A*61,51.5048408508,0.0037249999,12:15:50,29/7/2016,3,20,20.18,445,30.08,513.95,1,27
$GPRMC,121551.000,A,5130.2906,N,00000.2223,E,2.97,274.08,290716,,,A*68,51.5048408508,0.0037050004,12:15:51,29/7/2016,4,10,16.60,309,30.08,511.28,0,27
$GPRMC,121552.000,A,5130.2908,N,00000.2210,E,3.31,284.68,290716,,,A*61,51.5048484802,0.0036833000,12:15:52,29/7/2016,4,16,12.51,333,30.08,511.16,0,27
$GPRMC,121553.000,A,5130.2910,N,00000.2198,E,2.64,285.18,290716,,,A*6D,51.5048484802,0.0036633002,12:15:53,29/7/2016,4,11,9.53,325,30.08,511.59,0,27
$GPRMC,121554.000,A,5130.2912,N,00000.2186,E,2.57,281.77,290716,,,A*6A,51.5048484802,0.0036433000,12:15:54,29/7/2016,4,6,11.25,267,30.08,508.84,0,27
$GPRMC,121555.000,A,5130.2913,N,00000.2175,E,2.97,278.50,290716,,,A*69,51.5048599243,0.0036250000,12:15:55,29/7/2016,4,11,7.17,298,30.08,510.93,0,27
$GPRMC,121556.000,A,5130.2914,N,00000.2164,E,2.47,275.24,290716,,,A*6E,51.5048599243,0.0036065998,12:15:56,29/7/2016,4,3,10.42,243,30.08,508.65,0,27
$GPRMC,121557.000,A,5130.2916,N,00000.2153,E,3.02,283.89,290716,,,A*67,51.5048599243,0.0035883002,12:15:57,29/7/2016,4,1,5.94,245,30.08,510.14,0,27
$GPRMC,121558.000,A,5130.2918,N,00000.2140,E,3.06,284.73,290716,,,A*62,51.5048675537,0.0035666000,12:15:58,29/7/2016,4,4,10.55,233,30.57,509.49,0,27
$GPRMC,121559.000,A,5130.2921,N,00000.2126,E,3.34,284.64,290716,,,A*6E,51.5048675537,0.0035433001,12:15:59,29/7/2016,4,1,5.89,250,30.57,510.14,0,27
$GPRMC,121600.000,A,5130.2923,N,00000.2112,E,3.29,278.74,290716,,,A*6A,51.5048751831,0.0035200002,12:16:0,29/7/2016,4,1,9.93,245,30.57,509.64,0,27
$GPRMC,121601.000,A,5130.2924,N,00000.2099,E,2.58,280.20,290716,,,A*6F,51.5048751831,0.0034983003,12:16:1,29/7/2016,4,0,6.25,241,30.57,509.86,0,27
$GPRMC,121602.000,A,5130.2925,N,00000.2087,E,3.27,277.23,290716,,,A*60,51.5048751831,0.0034783003,12:16:2,29/7/2016,4,4,10.78,244,30.57,509.96,0,27
$GPRMC,121603.000,A,5130.2927,N,00000.2073,E,2.98,279.41,290716,,,A*67,51.5048751831,0.0034550004,12:16:3,29/7/2016,4,1,7.29,243,30.57,509.83,1,28
$GPRMC,121604.000,A,5130.2928,N,00000.2060,E,2.82,279.40,290716,,,A*67,51.5048828125,0.0034332995,12:16:4,29/7/2016,4,5,15.53,299,30.57,512.21,0,28
$GPRMC,121605.000,A,5130.2931,N,00000.2046,E,2.94,286.43,290716,,,A*6E,51.5048828125,0.0034099998,12:16:5,29/7/2016,4,7,9.47,258,31.05,508.75,0,28
$GPRMC,121606.000,A,5130.2933,N,00000.2031,E,3.48,280.38,290716,,,A*65,51.5048904418,0.0033850002,12:16:6,29/7/2016,4,2,10.53,294,30.57,512.08,0,28
$GPRMC,121607.000,A,5130.2935,N,00000.2018,E,2.69,286.86,290716,,,A*68,51.5048904418,0.0033632998,12:16:7,29/7/2016,4,16,11.06,246,31.05,508.35,0,28
$GPRMC,121608.000,A,5130.2935,N,00000.2007,E,2.21,266.37,290716,,,A*61,51.5048904418,0.0033450002,12:16:8,29/7/2016,4,0,9.68,279,30.57,511.68,0,28
$GPRMC,121609.000,A,5130.2934,N,00000.1994,E,2.46,258.35,290716,,,A*6F,51.5048904418,0.0033233001,12:16:9,29/7/2016,4,6,7.23,231,31.05,508.69,0,28
$GPRMC,121610.000,A,5130.2933,N,00000.1980,E,2.82,269.26,290716,,,A*6D,51.5048904418,0.0033000004,12:16:10,29/7/2016,4,1,5.20,253,30.57,510.04,0,28
$GPRMC,121611.000,A,5130.2933,N,00000.1966,E,2.93,271.17,290716,,,A*6F,51.5048904418,0.0032766003,12:16:11,29/7/2016,4,1,8.28,265,31.05,509.33,0,28
$GPRMC,121612.000,A,5130.2932,N,00000.1952,E,2.68,257.33,290716,,,A*6C,51.5048828125,0.0032533001,12:16:12,29/7/2016,4,6,5.63,241,31.05,510.19,0,28
$GPRMC,121613.000,A,5130.2930,N,00000.1939,E,3.06,259.67,290716,,,A*64,51.5048828125,0.0032316002,12:16:13,29/7/2016,4,5,7.60,245,31.05,509.08,0,28
$GPRMC,121614.000,A,5130.2928,N,00000.1925,E,2.88,267.41,290716,,,A*69,51.5048828125,0.0032083005,12:16:14,29/7/2016,4,5,9.55,251,31.05,509.71,0,28
$GPRMC,121615.000,A,5130.2929,N,00000.1911,E,3.08,278.69,290716,,,A*63,51.5048828125,0.0031849999,12:16:15,29/7/2016,4,6,19.53,222,30.57,510.03,0,28
$GPRMC,121616.000,A,5130.2929,N,00000.1898,E,2.36,264.40,290716,,,A*6A,51.5048828125,0.0031633000,12:16:16,29/7/2016,5,0,8.87,240,30.57,509.80,0,28
$GPRMC,121617.000,A,5130.2927,N,00000.1885,E,2.39,243.28,290716,,,A*6D,51.5048751831,0.0031416001,12:16:17,29/7/2016,5,5,7.69,276,30.57,511.22,0,28
$GPRMC,121618.000,A,5130.2926,N,00000.1873,E,2.37,237.61,290716,,,A*6A,51.5048751831,0.0031215999,12:16:18,29/7/2016,4,13,12.15,250,30.57,509.23,0,28
$GPRMC,121619.000,A,5130.2926,N,00000.1860,E,2.85,271.24,290716,,,A*63,51.5048751831,0.0030999999,12:16:19,29/7/2016,4,21,13.56,318,30.57,510.46,0,28
$GPRMC,121620.000,A,5130.2927,N,00000.1848,E,2.89,281.88,290716,,,A*67,51.5048751831,0.0030800004,12:16:20,29/7/2016,5,43,26.62,299,30.57,510.90,0,28
