
$GPRMC,123651.000,A,5129.7003,N,00000.3192,E,0.99,217.63,290716,,,A*64,51.4950027465,0.0053200001,12:36:51,0/0/200,6,16,16.97,69,28.61,502.70,0,0
$GPRMC,123652.000,A,5129.6999,N,00000.3187,E,1.31,215.46,290716,,,A*6E,51.4949951171,0.0053116006,12:36:52,0/0/200,6,43,28.10,334,29.10,510.52,0,0
$GPRMC,123653.000,A,5129.6995,N,00000.3184,E,1.36,214.44,290716,,,A*64,51.4949951171,0.0053066005,12:36:53,0/0/200,6,20,25.30,303,28.61,510.10,0,0
$GPRMC,123654.000,A,5129.6991,N,00000.3180,E,1.41,214.17,290716,,,A*65,51.4949874877,0.0053000001,12:36:54,0/0/200,6,39,29.15,314,28.13,510.15,0,0
$GPRMC,123655.000,A,5129.6986,N,00000.3189,E,1.40,191.58,290716,,,A*6F,51.4949798583,0.0053150005,12:36:55,0/0/200,7,9,22.45,269,28.61,510.09,0,0
$GPRMC,123656.000,A,5129.6979,N,00000.3194,E,1.59,178.83,290716,,,A*69,51.4949607849,0.0053233003,12:36:56,0/0/200,7,15,21.87,317,28.61,510.19,0,0
$GPRMC,123657.000,A,5129.6974,N,00000.3196,E,1.66,175.07,290716,,,A*6A,51.4949531555,0.0053266000,12:36:57,0/0/200,7,16,23.35,317,29.59,508.09,0,0
$GPRMC,123658.000,A,5129.6970,N,00000.3200,E,1.53,165.15,290716,,,A*69,51.4949455261,0.0053333001,12:36:58,0/0/200,7,41,23.36,300,29.59,504.89,0,0
$GPRMC,123659.000,A,5129.6966,N,00000.3203,E,1.58,162.89,290716,,,A*65,51.4949455261,0.0053383007,12:36:59,0/0/200,7,30,27.31,306,28.61,511.41,0,0
$GPRMC,123700.000,A,5129.6961,N,00000.3208,E,1.66,157.41,290716,,,A*6B,51.4949378967,0.0053466005,12:37:0,0/0/200,7,21,22.58,320,27.64,509.07,0,0
$GPRMC,123701.000,A,5129.6952,N,00000.3218,E,2.13,145.97,290716,,,A*62,51.4949226379,0.0053632998,12:37:1,0/0/200,8,17,22.38,300,28.13,510.28,0,0
$GPRMC,123702.000,A,5129.6943,N,00000.3224,E,2.28,144.01,290716,,,A*68,51.4949073791,0.0053732995,12:37:2,0/0/200,8,30,27.47,270,28.61,509.96,0,0
$GPRMC,123703.000,A,5129.6935,N,00000.3231,E,2.40,143.71,290716,,,A*62,51.4948883056,0.0053850002,12:37:3,0/0/200,9,12,27.62,324,28.13,510.12,0,0
$GPRMC,123704.000,A,5129.6924,N,00000.3243,E,2.73,138.25,290716,,,A*6D,51.4948730468,0.0054050006,12:37:4,0/0/200,8,28,24.04,311,28.61,510.77,0,0
$GPRMC,123705.000,A,5129.6913,N,00000.3248,E,2.87,141.33,290716,,,A*61,51.4948577880,0.0054133005,12:37:5,0/0/200,8,25,25.30,274,28.13,510.69,0,0
$GPRMC,123706.000,A,5129.6903,N,00000.3257,E,2.94,144.97,290716,,,A*64,51.4948387145,0.0054282999,12:37:6,0/0/200,8,5,20.02,300,28.13,510.85,0,0
$GPRMC,123707.000,A,5129.6895,N,00000.3268,E,2.88,136.52,290716,,,A*66,51.4948234558,0.0054466004,12:37:7,0/0/200,8,8,18.21,302,28.61,511.07,0,0
$GPRMC,123708.000,A,5129.6888,N,00000.3279,E,3.31,129.13,290716,,,A*6D,51.4948158264,0.0054650001,12:37:8,0/0/200,9,2,17.49,306,28.61,510.32,0,0
$GPRMC,123709.000,A,5129.6881,N,00000.3291,E,3.76,132.79,290716,,,A*66,51.4948005676,0.0054850001,12:37:9,0/0/200,9,7,20.04,267,28.61,510.59,0,0
$GPRMC,123710.000,A,5129.6875,N,00000.3302,E,3.22,129.29,290716,,,A*60,51.4947929382,0.0055033006,12:37:10,0/0/200,9,19,19.11,303,28.61,510.59,0,0
$GPRMC,123711.000,A,5129.6868,N,00000.3314,E,3.19,131.57,290716,,,A*62,51.4947853088,0.0055233001,12:37:11,0/0/200,8,31,24.08,315,29.10,509.92,0,0
$GPRMC,123712.000,A,5129.6862,N,00000.3325,E,2.55,125.36,290716,,,A*62,51.4947662353,0.0055416002,12:37:12,0/0/200,7,11,22.02,404,29.10,514.33,0,0
$GPRMC,123713.000,A,5129.6855,N,00000.3331,E,2.65,163.26,290716,,,A*62,51.4947586059,0.0055515999,12:37:13,0/0/200,7,16,20.95,268,29.10,510.82,0,0
$GPRMC,123714.000,A,5129.6846,N,00000.3335,E,2.47,166.86,290716,,,A*6C,51.4947433471,0.0055583000,12:37:14,0/0/200,7,17,23.60,288,29.10,510.21,0,0
$GPRMC,123715.000,A,5129.6838,N,00000.3336,E,2.58,175.44,290716,,,A*65,51.4947280883,0.0055599999,12:37:15,0/0/200,7,39,23.94,280,29.10,510.65,0,0
$GPRMC,123716.000,A,5129.6829,N,00000.3336,E,2.68,184.51,290716,,,A*6F,51.4947166442,0.0055599999,12:37:16,0/0/200,8,16,28.11,286,29.59,510.45,0,0
$GPRMC,123717.000,A,5129.6822,N,00000.3338,E,2.80,167.41,290716,,,A*61,51.4947013854,0.0055633001,12:37:17,0/0/200,8,50,35.48,311,27.15,508.30,0,0
$GPRMC,123718.000,A,5129.6814,N,00000.3344,E,3.03,154.67,290716,,,A*6E,51.4946937561,0.0055733003,12:37:18,0/0/200,8,65,63.74,293,29.59,509.99,0,0
$GPRMC,123719.000,A,5129.6808,N,00000.3353,E,2.95,138.57,290716,,,A*63,51.4946784973,0.0055883002,12:37:19,0/0/200,8,48,38.58,304,29.10,510.63,0,0
$GPRMC,123720.000,A,5129.6803,N,00000.3364,E,2.82,129.18,290716,,,A*6B,51.4946708679,0.0056065998,12:37:20,0/0/200,8,20,27.21,302,29.10,510.72,0,0
$GPRMC,123721.000,A,5129.6798,N,00000.3373,E,2.60,135.02,290716,,,A*6B,51.4946632385,0.0056216001,12:37:21,0/0/200,8,21,21.92,300,29.10,510.08,0,0
$GPRMC,123722.000,A,5129.6794,N,00000.3380,E,2.32,144.86,290716,,,A*65,51.4946517944,0.0056332998,12:37:22,0/0/200,8,29,21.23,321,29.59,510.36,0,0
$GPRMC,123723.000,A,5129.6789,N,00000.3391,E,2.85,122.83,290716,,,A*61,51.4946441650,0.0056516003,12:37:23,0/0/200,8,17,21.16,269,29.10,510.61,0,0
$GPRMC,123724.000,A,5129.6785,N,00000.3403,E,3.07,118.65,290716,,,A*6C,51.4946441650,0.0056716003,12:37:24,0/0/200,8,9,25.29,308,29.59,510.04,0,0
$GPRMC,123725.000,A,5129.6781,N,00000.3415,E,2.85,123.23,290716,,,A*6F,51.4946365356,0.0056916003,12:37:25,0/0/200,8,0,20.07,299,29.10,510.22,0,0
$GPRMC,123726.000,A,5129.6777,N,00000.3424,E,2.51,129.97,290716,,,A*6B,51.4946289062,0.0057066006,12:37:26,0/0/200,8,11,24.91,275,29.10,510.49,0,0
$GPRMC,123727.000,A,5129.6771,N,00000.3431,E,2.42,125.44,290716,,,A*68,51.4946212768,0.0057183003,12:37:27,0/0/200,9,14,24.94,276,28.13,510.70,0,0
$GPRMC,123728.000,A,5129.6767,N,00000.3439,E,2.20,106.26,290716,,,A*69,51.4946136474,0.0057315998,12:37:28,0/0/200,9,35,29.00,287,29.10,510.25,0,0
$GPRMC,123729.000,A,5129.6761,N,00000.3446,E,2.23,123.75,290716,,,A*64,51.4946060180,0.0057433004,12:37:29,0/0/200,8,33,27.92,317,29.10,510.52,0,0
$GPRMC,123730.000,A,5129.6755,N,00000.3463,E,2.92,116.81,290716,,,A*6B,51.4945869445,0.0057715997,12:37:30,0/0/200,9,25,27.15,298,28.61,510.78,0,0
$GPRMC,123731.000,A,5129.6748,N,00000.3470,E,2.94,124.34,290716,,,A*6D,51.4945793151,0.0057833003,12:37:31,0/0/200,9,8,23.04,335,28.61,510.88,0,0
$GPRMC,123732.000,A,5129.6740,N,00000.3477,E,2.99,123.72,290716,,,A*69,51.4945640563,0.0057950000,12:37:32,0/0/200,8,8,20.29,302,28.61,509.03,0,0
$GPRMC,123733.000,A,5129.6733,N,00000.3483,E,2.55,126.70,290716,,,A*60,51.4945564270,0.0058050003,12:37:33,0/0/200,11,33,25.77,270,29.10,511.22,0,0
$GPRMC,123734.000,A,5129.6726,N,00000.3492,E,2.57,137.05,290716,,,A*63,51.4945411682,0.0058200001,12:37:34,0/0/200,25,16,26.99,289,28.61,509.25,0,0
$GPRMC,123735.000,A,5129.6719,N,00000.3503,E,2.92,132.48,290716,,,A*62,51.4945297241,0.0058382997,12:37:35,0/0/200,12,23,35.45,308,28.13,509.29,0,0
$GPRMC,123736.000,A,5129.6711,N,00000.3510,E,2.71,122.18,290716,,,A*62,51.4945144653,0.0058500003,12:37:36,0/0/200,20,15,35.51,282,25.20,509.40,0,0
$GPRMC,123737.000,A,5129.6701,N,00000.3517,E,2.85,126.79,290716,,,A*6D,51.4944992065,0.0058616008,12:37:37,0/0/200,23,23,40.12,265,27.15,510.68,0,0
$GPRMC,123738.000,A,5129.6692,N,00000.3529,E,3.06,123.47,290716,,,A*66,51.4944915771,0.0058816003,12:37:38,0/0/200,9,15,25.65,312,26.66,509.82,0,0
$GPRMC,123739.000,A,5129.6684,N,00000.3542,E,3.09,115.44,290716,,,A*64,51.4944725036,0.0059033002,12:37:39,0/0/200,9,11,27.17,290,27.15,510.13,0,0
$GPRMC,123740.000,A,5129.6684,N,00000.3552,E,2.69,99.07,290716,,,A*5E,51.4944725036,0.0059200000,12:37:40,0/0/200,9,25,22.44,287,27.15,510.13,0,0
$GPRMC,123741.000,A,5129.6682,N,00000.3563,E,2.35,107.80,290716,,,A*6B,51.4944648742,0.0059383001,12:37:41,0/0/200,8,24,24.14,327,27.15,510.17,0,0
$GPRMC,123742.000,A,5129.6680,N,00000.3571,E,1.64,101.43,290716,,,A*67,51.4944648742,0.0059516000,12:37:42,0/0/200,8,24,26.30,303,24.71,510.22,0,0
$GPRMC,123743.000,A,5129.6677,N,00000.3581,E,2.24,122.91,290716,,,A*68,51.4944572448,0.0059682998,12:37:43,0/0/200,9,11,20.47,297,26.17,509.97,0,0
$GPRMC,123744.000,A,5129.6673,N,00000.3590,E,2.35,128.38,290716,,,A*62,51.4944572448,0.0059833002,12:37:44,0/0/200,8,11,21.72,289,26.66,510.11,0,0
$GPRMC,123745.000,A,5129.6669,N,00000.3600,E,2.19,128.65,290716,,,A*64,51.4944496154,0.0060000000,12:37:45,0/0/200,9,13,22.82,297,27.64,511.09,0,0
$GPRMC,123746.000,A,5129.6662,N,00000.3616,E,1.91,131.14,290716,,,A*66,51.4944343566,0.0060266008,12:37:46,0/0/200,13,9,20.87,301,26.66,510.56,0,0
$GPRMC,123747.000,A,5129.6656,N,00000.3635,E,3.00,119.86,290716,,,A*6A,51.4944267272,0.0060583000,12:37:47,0/0/200,26,17,22.47,289,28.13,510.95,0,0
$GPRMC,123748.000,A,5129.6652,N,00000.3650,E,3.25,114.17,290716,,,A*60,51.4944190979,0.0060833001,12:37:48,0/0/200,35,18,19.85,296,27.64,510.48,0,0
$GPRMC,123749.000,A,5129.6649,N,00000.3666,E,3.39,104.41,290716,,,A*61,51.4944190979,0.0061100001,12:37:49,0/0/200,39,18,19.32,307,27.15,510.11,0,0
$GPRMC,123750.000,A,5129.6646,N,00000.3680,E,3.35,104.79,290716,,,A*69,51.4944076538,0.0061332998,12:37:50,0/0/200,10,5,16.94,309,27.64,510.01,0,0
$GPRMC,123751.000,A,5129.6643,N,00000.3695,E,3.28,104.70,290716,,,A*6C,51.4944000244,0.0061582999,12:37:51,0/0/200,9,14,18.17,274,27.15,510.14,0,0
$GPRMC,123752.000,A,5129.6640,N,00000.3706,E,2.97,105.47,290716,,,A*67,51.4944000244,0.0061766004,12:37:52,0/0/200,9,21,20.02,311,27.64,510.36,0,0
$GPRMC,123753.000,A,5129.6638,N,00000.3713,E,2.35,113.24,290716,,,A*67,51.4943923950,0.0061883001,12:37:53,0/0/200,9,33,23.28,308,27.64,509.89,0,0
$GPRMC,123754.000,A,5129.6635,N,00000.3717,E,1.63,128.99,290716,,,A*67,51.4943923950,0.0061950006,12:37:54,0/0/200,9,13,27.24,282,27.15,509.96,0,0
$GPRMC,123755.000,A,5129.6629,N,00000.3724,E,1.86,142.50,290716,,,A*69,51.4943847656,0.0062066006,12:37:55,0/0/200,10,18,24.73,304,27.64,509.93,0,0
$GPRMC,123756.000,A,5129.6624,N,00000.3738,E,2.25,135.00,290716,,,A*65,51.4943771362,0.0062300004,12:37:56,0/0/200,26,9,24.79,317,27.64,509.93,0,0
$GPRMC,123757.000,A,5129.6618,N,00000.3760,E,2.59,122.30,290716,,,A*68,51.4943618774,0.0062666006,12:37:57,0/0/200,31,15,19.51,324,27.64,510.52,0,0
$GPRMC,123758.000,A,5129.6610,N,00000.3769,E,2.84,135.35,290716,,,A*65,51.4943504333,0.0062815999,12:37:58,0/0/200,34,9,17.58,291,28.13,509.84,0,0
$GPRMC,123759.000,A,5129.6604,N,00000.3781,E,2.60,132.62,290716,,,A*68,51.4943351745,0.0063015995,12:37:59,0/0/200,27,11,19.81,323,27.64,510.57,0,0
$GPRMC,123800.000,A,5129.6602,N,00000.3790,E,2.17,133.37,290716,,,A*6C,51.4943351745,0.0063166007,12:38:0,0/0/200,8,12,20.39,314,27.64,509.75,0,0
$GPRMC,123801.000,A,5129.6594,N,00000.3794,E,2.24,160.96,290716,,,A*68,51.4943199157,0.0063233003,12:38:1,0/0/200,8,13,19.67,285,27.64,510.75,0,0
$GPRMC,123802.000,A,5129.6586,N,00000.3794,E,2.44,186.92,290716,,,A*62,51.4943122863,0.0063233003,12:38:2,0/0/200,7,12,21.72,282,27.64,510.87,0,0
$GPRMC,123803.000,A,5129.6572,N,00000.3795,E,3.33,188.34,290716,,,A*6A,51.4942855834,0.0063249998,12:38:3,0/0/200,8,23,25.00,306,27.64,509.97,0,0
$GPRMC,123804.000,A,5129.6562,N,00000.3793,E,3.30,186.59,290716,,,A*6C,51.4942703247,0.0063215999,12:38:4,0/0/200,8,23,20.86,309,27.64,510.35,0,0
$GPRMC,123805.000,A,5129.6554,N,00000.3789,E,3.02,191.71,290716,,,A*6E,51.4942550659,0.0063150000,12:38:5,0/0/200,8,18,22.42,266,27.64,510.36,0,0
$GPRMC,123806.000,A,5129.6544,N,00000.3792,E,2.88,180.35,290716,,,A*65,51.4942398071,0.0063200001,12:38:6,0/0/200,8,17,21.90,299,27.64,510.41,0,0
$GPRMC,123807.000,A,5129.6537,N,00000.3793,E,2.83,166.95,290716,,,A*68,51.4942283630,0.0063215999,12:38:7,0/0/200,8,30,31.88,430,28.13,512.77,0,0
$GPRMC,123808.000,A,5129.6529,N,00000.3799,E,3.16,156.10,290716,,,A*61,51.4942131042,0.0063316001,12:38:8,0/0/200,11,12,36.07,316,28.13,511.03,0,0
$GPRMC,123809.000,A,5129.6524,N,00000.3809,E,2.99,138.15,290716,,,A*60,51.4942054748,0.0063482999,12:38:9,0/0/200,8,14,19.88,285,28.13,509.82,0,0
$GPRMC,123810.000,A,5129.6520,N,00000.3819,E,3.18,126.88,290716,,,A*6E,51.4941978454,0.0063650007,12:38:10,0/0/200,8,21,21.08,300,28.13,509.95,0,0
$GPRMC,123811.000,A,5129.6516,N,00000.3828,E,2.24,132.08,290716,,,A*6B,51.4941902160,0.0063800001,12:38:11,0/0/200,8,15,23.01,313,28.13,510.54,0,0
$GPRMC,123812.000,A,5129.6512,N,00000.3837,E,2.04,134.59,290716,,,A*62,51.4941902160,0.0063950004,12:38:12,0/0/200,8,12,20.87,273,28.61,509.91,0,0
$GPRMC,123813.000,A,5129.6509,N,00000.3843,E,1.95,147.36,290716,,,A*6C,51.4941825866,0.0064050006,12:38:13,0/0/200,9,15,18.05,320,28.61,510.13,0,0
$GPRMC,123814.000,A,5129.6504,N,00000.3849,E,1.91,145.79,290716,,,A*61,51.4941749572,0.0064150004,12:38:14,0/0/200,9,10,16.43,306,28.61,509.97,0,0
$GPRMC,123815.000,A,5129.6498,N,00000.3857,E,2.26,137.93,290716,,,A*65,51.4941635131,0.0064283008,12:38:15,0/0/200,9,15,16.72,276,28.61,510.59,0,0
$GPRMC,123816.000,A,5129.6491,N,00000.3868,E,2.77,134.32,290716,,,A*6F,51.4941482543,0.0064466004,12:38:16,0/0/200,9,12,17.86,303,28.61,510.48,0,0
$GPRMC,123817.000,A,5129.6487,N,00000.3878,E,2.40,132.25,290716,,,A*6C,51.4941482543,0.0064632997,12:38:17,0/0/200,9,14,21.38,319,28.61,510.27,0,0
$GPRMC,123818.000,A,5129.6485,N,00000.3887,E,2.13,104.87,290716,,,A*6A,51.4941406250,0.0064783005,12:38:18,0/0/200,17,20,17.50,318,28.13,510.36,0,0
$GPRMC,123819.000,A,5129.6479,N,00000.3897,E,2.37,138.07,290716,,,A*68,51.4941329956,0.0064949998,12:38:19,0/0/200,23,12,16.48,285,28.61,510.62,0,0
$GPRMC,123820.000,A,5129.6475,N,00000.3909,E,1.93,108.96,290716,,,A*6E,51.4941253662,0.0065150012,12:38:20,0/0/200,26,9,17.75,299,28.61,509.81,0,0
$GPRMC,123821.000,A,5129.6473,N,00000.3923,E,2.39,92.01,290716,,,A*5E,51.4941253662,0.0065383005,12:38:21,0/0/200,22,6,20.32,328,28.13,512.51,0,0
$GPRMC,123822.000,A,5129.6472,N,00000.3935,E,2.50,93.95,290716,,,A*58,51.4941177368,0.0065582995,12:38:22,0/0/200,13,24,20.99,307,28.13,511.24,0,0
$GPRMC,123823.000,A,5129.6465,N,00000.3945,E,2.39,140.53,290716,,,A*62,51.4941062927,0.0065750002,12:38:23,0/0/200,9,19,17.69,304,27.64,510.36,0,0
$GPRMC,123824.000,A,5129.6460,N,00000.3956,E,1.99,128.13,290716,,,A*61,51.4940986633,0.0065932998,12:38:24,0/0/200,8,3,17.75,330,27.64,510.60,0,0
$GPRMC,123825.000,A,5129.6455,N,00000.3970,E,3.20,132.76,290716,,,A*6A,51.4940910339,0.0066166009,12:38:25,0/0/200,8,8,17.11,299,27.64,509.93,0,0
$GPRMC,123826.000,A,5129.6449,N,00000.3982,E,2.84,136.42,290716,,,A*65,51.4940834045,0.0066366004,12:38:26,0/0/200,8,22,16.94,276,27.64,510.35,0,0
$GPRMC,123827.000,A,5129.6446,N,00000.3992,E,2.95,144.48,290716,,,A*65,51.4940757751,0.0066533002,12:38:27,0/0/200,8,8,18.02,296,28.13,510.18,0,0
$GPRMC,123828.000,A,5129.6442,N,00000.4006,E,2.62,135.53,290716,,,A*69,51.4940681457,0.0066765999,12:38:28,0/0/200,8,16,18.08,300,28.13,510.41,0,0
$GPRMC,123829.000,A,5129.6437,N,00000.4020,E,2.87,123.82,290716,,,A*6E,51.4940605163,0.0067000002,12:38:29,0/0/200,9,10,21.41,281,28.13,510.32,0,0
$GPRMC,123830.000,A,5129.6436,N,00000.4036,E,2.90,115.13,290716,,,A*6B,51.4940605163,0.0067265996,12:38:30,0/0/200,8,7,18.52,303,28.13,510.82,0,0
$GPRMC,123831.000,A,5129.6431,N,00000.4049,E,3.05,142.39,290716,,,A*62,51.4940528869,0.0067483005,12:38:31,0/0/200,9,11,19.49,304,28.13,510.28,0,0
$GPRMC,123832.000,A,5129.6424,N,00000.4063,E,2.76,142.57,290716,,,A*60,51.4940414428,0.0067716002,12:38:32,0/0/200,8,6,23.00,313,28.13,510.08,0,0
$GPRMC,123833.000,A,5129.6417,N,00000.4075,E,3.18,141.86,290716,,,A*60,51.4940261840,0.0067916002,12:38:33,0/0/200,8,19,22.19,251,28.13,510.54,0,0
$GPRMC,123834.000,A,5129.6409,N,00000.4088,E,3.23,143.82,290716,,,A*64,51.4940185546,0.0068133001,12:38:34,0/0/200,8,10,20.34,312,28.13,510.59,0,0
$GPRMC,123835.000,A,5129.6401,N,00000.4098,E,3.13,141.97,290716,,,A*69,51.4940032958,0.0068300004,12:38:35,0/0/200,8,5,22.55,296,28.13,510.02,0,0
$GPRMC,123836.000,A,5129.6393,N,00000.4106,E,2.55,146.40,290716,,,A*6E,51.4939842224,0.0068432998,12:38:36,0/0/200,8,21,21.65,273,27.64,510.85,0,0
$GPRMC,123837.000,A,5129.6386,N,00000.4112,E,2.26,146.41,290716,,,A*6B,51.4939765930,0.0068533000,12:38:37,0/0/200,8,32,26.12,308,27.64,510.90,0,0
$GPRMC,123838.000,A,5129.6377,N,00000.4118,E,2.18,142.26,290716,,,A*68,51.4939613342,0.0068633008,12:38:38,0/0/200,8,11,25.81,287,28.13,509.89,0,0
$GPRMC,123839.000,A,5129.6366,N,00000.4135,E,2.56,129.98,290716,,,A*64,51.4939460754,0.0068915996,12:38:39,0/0/200,9,18,24.31,295,28.13,510.53,0,0
$GPRMC,123840.000,A,5129.6357,N,00000.4142,E,2.06,135.93,290716,,,A*6B,51.4939308166,0.0069032998,12:38:40,0/0/200,14,29,39.19,426,28.13,514.03,0,0
$GPRMC,123841.000,A,5129.6348,N,00000.4150,E,2.17,136.49,290716,,,A*63,51.4939117431,0.0069166002,12:38:41,0/0/200,8,45,35.07,320,28.13,510.40,0,0
$GPRMC,123842.000,A,5129.6341,N,00000.4158,E,2.70,132.13,290716,,,A*6B,51.4939041137,0.0069300003,12:38:42,0/0/200,8,13,24.78,312,27.64,510.06,0,0
$GPRMC,123843.000,A,5129.6330,N,00000.4165,E,3.29,149.53,290716,,,A*67,51.4938812255,0.0069415998,12:38:43,0/0/200,8,21,26.18,264,27.64,510.27,0,0
$GPRMC,123844.000,A,5129.6318,N,00000.4172,E,3.80,146.36,290716,,,A*63,51.4938621520,0.0069532995,12:38:44,0/0/200,9,22,31.23,336,27.64,510.21,0,0
$GPRMC,123845.000,A,5129.6307,N,00000.4179,E,3.49,143.37,290716,,,A*66,51.4938468933,0.0069650006,12:38:45,0/0/200,9,29,23.40,336,27.64,510.43,0,0
$GPRMC,123846.000,A,5129.6300,N,00000.4190,E,2.69,128.61,290716,,,A*68,51.4938316345,0.0069833002,12:38:46,0/0/200,9,42,34.73,315,27.64,509.90,0,0
$GPRMC,123847.000,A,5129.6292,N,00000.4198,E,2.52,122.49,290716,,,A*63,51.4938240051,0.0069966006,12:38:47,0/0/200,9,16,32.67,289,27.64,510.95,0,0
$GPRMC,123848.000,A,5129.6286,N,00000.4207,E,2.54,123.50,290716,,,A*63,51.4938087463,0.0070116004,12:38:48,0/0/200,9,49,32.39,284,28.13,511.67,0,0
$GPRMC,123849.000,A,5129.6279,N,00000.4220,E,2.60,112.32,290716,,,A*66,51.4937973022,0.0070333003,12:38:49,0/0/200,8,18,20.98,308,28.13,510.07,0,0
$GPRMC,123850.000,A,5129.6272,N,00000.4230,E,2.74,110.40,290716,,,A*66,51.4937820434,0.0070500001,12:38:50,0/0/200,8,11,20.40,286,28.13,510.33,0,0
$GPRMC,123851.000,A,5129.6263,N,00000.4242,E,2.96,122.83,290716,,,A*60,51.4937744140,0.0070700001,12:38:51,0/0/200,9,22,21.04,319,27.64,510.50,0,0
$GPRMC,123852.000,A,5129.6258,N,00000.4253,E,3.27,131.21,290716,,,A*6A,51.4937667846,0.0070883007,12:38:52,0/0/200,9,15,22.60,297,27.64,510.15,0,0
$GPRMC,123853.000,A,5129.6250,N,00000.4262,E,3.41,149.54,290716,,,A*6C,51.4937515258,0.0071033000,12:38:53,0/0/200,8,15,19.00,318,28.13,510.64,0,0
$GPRMC,123854.000,A,5129.6242,N,00000.4273,E,3.77,143.37,290716,,,A*62,51.4937324523,0.0071216001,12:38:54,0/0/200,9,18,22.51,273,27.64,510.04,0,0
$GPRMC,123855.000,A,5129.6233,N,00000.4281,E,3.43,147.94,290716,,,A*62,51.4937248229,0.0071350007,12:38:55,0/0/200,9,23,22.29,320,28.13,510.01,0,0
$GPRMC,123856.000,A,5129.6226,N,00000.4289,E,2.77,139.48,290716,,,A*63,51.4937095642,0.0071483001,12:38:56,0/0/200,9,9,21.77,308,28.13,510.22,0,0
$GPRMC,123857.000,A,5129.6216,N,00000.4294,E,2.08,151.54,290716,,,A*66,51.4936943054,0.0071565999,12:38:57,0/0/200,9,14,23.16,297,28.13,510.77,0,0
$GPRMC,123858.000,A,5129.6209,N,00000.4299,E,2.66,138.49,290716,,,A*61,51.4936866760,0.0071650004,12:38:58,0/0/200,9,14,20.37,305,28.13,509.95,0,0
$GPRMC,123859.000,A,5129.6202,N,00000.4307,E,1.93,134.85,290716,,,A*68,51.4936676025,0.0071782999,12:38:59,0/0/200,8,24,23.64,312,28.13,508.96,0,0
$GPRMC,123900.000,A,5129.6196,N,00000.4315,E,2.36,136.08,290716,,,A*63,51.4936599731,0.0071915998,12:39:0,0/0/200,9,35,22.68,313,28.13,509.91,1,1
$GPRMC,123901.000,A,5129.6189,N,00000.4323,E,2.40,128.47,290716,,,A*6C,51.4936523437,0.0072050004,12:39:1,0/0/200,8,16,27.19,264,28.61,509.48,1,2
$GPRMC,123902.000,A,5129.6183,N,00000.4333,E,2.64,125.89,290716,,,A*6D,51.4936370849,0.0072216005,12:39:2,0/0/200,8,13,23.12,318,28.13,509.81,0,2
$GPRMC,123903.000,A,5129.6175,N,00000.4343,E,3.25,132.34,290716,,,A*66,51.4936294555,0.0072382998,12:39:3,0/0/200,8,34,28.64,434,28.61,512.97,0,2
$GPRMC,123904.000,A,5129.6166,N,00000.4353,E,3.10,137.89,290716,,,A*67,51.4936103820,0.0072550005,12:39:4,0/0/200,8,24,29.57,314,28.61,510.41,1,3
$GPRMC,123905.000,A,5129.6152,N,00000.4360,E,3.52,155.10,290716,,,A*63,51.4935874938,0.0072666001,12:39:5,0/0/200,9,31,23.16,315,28.13,509.78,0,3
$GPRMC,123906.000,A,5129.6143,N,00000.4369,E,3.56,146.45,290716,,,A*6F,51.4935722351,0.0072816009,12:39:6,0/0/200,9,12,21.53,336,28.61,509.84,0,3
$GPRMC,123907.000,A,5129.6134,N,00000.4378,E,3.29,137.69,290716,,,A*6E,51.4935531616,0.0072966003,12:39:7,0/0/200,9,22,23.53,323,28.61,509.81,0,3
$GPRMC,123908.000,A,5129.6124,N,00000.4389,E,3.09,140.38,290716,,,A*68,51.4935379028,0.0073150010,12:39:8,0/0/200,9,20,28.15,283,27.64,510.12,0,3
$GPRMC,123909.000,A,5129.6115,N,00000.4399,E,3.16,141.23,290716,,,A*6F,51.4935226440,0.0073316006,12:39:9,0/0/200,10,19,27.71,315,28.61,510.37,0,3
$GPRMC,123910.000,A,5129.6106,N,00000.4406,E,2.93,140.34,290716,,,A*6F,51.4935150146,0.0073433008,12:39:10,0/0/200,9,15,22.65,306,28.13,510.59,0,3
$GPRMC,123911.000,A,5129.6098,N,00000.4414,E,2.95,137.09,290716,,,A*63,51.4934959411,0.0073566007,12:39:11,0/0/200,9,16,19.29,294,28.61,509.83,0,3
$GPRMC,123912.000,A,5129.6088,N,00000.4421,E,3.07,134.88,290716,,,A*67,51.4934806823,0.0073683013,12:39:12,0/0/200,10,21,22.86,287,28.61,508.70,0,3
$GPRMC,123913.000,A,5129.6077,N,00000.4435,E,3.79,144.26,290716,,,A*69,51.4934654235,0.0073916006,12:39:13,0/0/200,9,25,20.52,300,28.61,510.56,0,3
$GPRMC,123914.000,A,5129.6068,N,00000.4444,E,2.84,145.10,290716,,,A*61,51.4934501647,0.0074066009,12:39:14,0/0/200,9,13,22.68,328,28.61,510.39,0,3
$GPRMC,123915.000,A,5129.6060,N,00000.4454,E,3.15,131.57,290716,,,A*60,51.4934310913,0.0074232997,12:39:15,0/0/200,9,39,38.08,287,28.61,511.02,0,3
$GPRMC,123916.000,A,5129.6053,N,00000.4461,E,3.22,137.16,290716,,,A*62,51.4934234619,0.0074350004,12:39:16,0/0/200,9,21,29.85,334,28.61,510.27,0,3
$GPRMC,123917.000,A,5129.6045,N,00000.4471,E,3.37,131.53,290716,,,A*66,51.4934082031,0.0074516005,12:39:17,0/0/200,8,21,27.18,315,28.61,510.20,0,3
$GPRMC,123918.000,A,5129.6037,N,00000.4481,E,3.05,131.51,290716,,,A*60,51.4933929443,0.0074682998,12:39:18,0/0/200,9,14,20.38,264,29.10,509.94,0,3
$GPRMC,123919.000,A,5129.6029,N,00000.4495,E,2.98,136.66,290716,,,A*6D,51.4933853149,0.0074916005,12:39:19,0/0/200,9,15,19.18,307,29.10,510.25,0,3
$GPRMC,123920.000,A,5129.6022,N,00000.4506,E,3.13,136.45,290716,,,A*64,51.4933662414,0.0075100002,12:39:20,0/0/200,9,8,19.37,330,28.61,510.42,0,3
$GPRMC,123921.000,A,5129.6016,N,00000.4517,E,2.76,125.08,290716,,,A*6B,51.4933586120,0.0075282998,12:39:21,0/0/200,9,29,19.99,299,29.10,510.74,0,3
$GPRMC,123922.000,A,5129.6007,N,00000.4526,E,3.31,140.83,290716,,,A*68,51.4933433532,0.0075433006,12:39:22,0/0/200,9,27,20.34,341,29.10,510.02,0,3
$GPRMC,123923.000,A,5129.5999,N,00000.4537,E,3.75,130.34,290716,,,A*6F,51.4933357238,0.0075616002,12:39:23,0/0/200,9,19,19.50,297,29.10,510.24,0,3
$GPRMC,123924.000,A,5129.5993,N,00000.4549,E,3.04,129.74,290716,,,A*61,51.4933204650,0.0075816001,12:39:24,0/0/200,9,15,18.39,305,29.10,510.24,0,3
$GPRMC,123925.000,A,5129.5986,N,00000.4560,E,3.40,132.54,290716,,,A*67,51.4933090209,0.0076000003,12:39:25,0/0/200,8,16,18.66,271,29.10,510.37,0,3
$GPRMC,123926.000,A,5129.5976,N,00000.4569,E,3.24,124.79,290716,,,A*68,51.4932937622,0.0076150007,12:39:26,0/0/200,9,13,18.82,294,29.10,509.75,0,3
$GPRMC,123927.000,A,5129.5968,N,00000.4580,E,3.13,128.19,290716,,,A*6F,51.4932785034,0.0076332998,12:39:27,0/0/200,9,16,25.02,310,29.10,510.08,0,3
$GPRMC,123928.000,A,5129.5960,N,00000.4589,E,3.79,136.83,290716,,,A*61,51.4932708740,0.0076483001,12:39:28,0/0/200,9,10,22.77,297,29.10,510.36,0,3
$GPRMC,123929.000,A,5129.5952,N,00000.4600,E,3.65,137.02,290716,,,A*66,51.4932518005,0.0076666002,12:39:29,0/0/200,9,6,17.50,314,29.10,510.35,0,3
$GPRMC,123930.000,A,5129.5945,N,00000.4611,E,3.10,128.85,290716,,,A*6B,51.4932441711,0.0076849994,12:39:30,0/0/200,9,27,19.18,309,28.61,510.98,0,3
$GPRMC,123931.000,A,5129.5940,N,00000.4624,E,3.10,115.76,290716,,,A*6B,51.4932365417,0.0077066001,12:39:31,0/0/200,9,12,20.25,287,29.10,510.41,0,3
$GPRMC,123932.000,A,5129.5935,N,00000.4636,E,2.89,134.42,290716,,,A*6C,51.4932212829,0.0077266006,12:39:32,0/0/200,8,12,18.58,275,29.10,509.76,0,3
$GPRMC,123933.000,A,5129.5930,N,00000.4647,E,2.85,124.92,290716,,,A*6E,51.4932136535,0.0077449998,12:39:33,0/0/200,8,1,18.64,315,29.10,511.18,0,3
$GPRMC,123934.000,A,5129.5923,N,00000.4658,E,3.22,130.36,290716,,,A*62,51.4932060241,0.0077633008,12:39:34,0/0/200,8,18,17.46,295,28.61,510.13,0,3
$GPRMC,123935.000,A,5129.5915,N,00000.4669,E,3.64,134.73,290716,,,A*63,51.4931869506,0.0077816009,12:39:35,0/0/200,8,4,19.43,271,28.61,511.38,0,3
$GPRMC,123936.000,A,5129.5907,N,00000.4681,E,3.56,131.80,290716,,,A*6D,51.4931793212,0.0078016004,12:39:36,0/0/200,8,15,16.64,301,28.61,510.52,0,3
$GPRMC,123937.000,A,5129.5900,N,00000.4694,E,3.74,129.38,290716,,,A*65,51.4931640625,0.0078233003,12:39:37,0/0/200,9,22,15.98,299,28.61,510.07,0,3
$GPRMC,123938.000,A,5129.5892,N,00000.4707,E,4.20,135.24,290716,,,A*6D,51.4931564331,0.0078450002,12:39:38,0/0/200,9,6,15.22,315,29.10,509.75,0,3
$GPRMC,123939.000,A,5129.5886,N,00000.4720,E,3.44,134.65,290716,,,A*6D,51.4931411743,0.0078666000,12:39:39,0/0/200,9,15,17.11,281,29.10,510.00,0,3
$GPRMC,123940.000,A,5129.5883,N,00000.4734,E,3.37,110.92,290716,,,A*69,51.4931411743,0.0078900003,12:39:40,0/0/200,9,0,18.21,307,29.10,512.15,0,3
$GPRMC,123941.000,A,5129.5880,N,00000.4746,E,3.54,120.74,290716,,,A*60,51.4931297302,0.0079099998,12:39:41,0/0/200,9,4,17.40,295,29.10,510.83,0,3
$GPRMC,123942.000,A,5129.5873,N,00000.4758,E,3.58,126.63,290716,,,A*6C,51.4931221008,0.0079299998,12:39:42,0/0/200,9,7,18.15,279,29.10,510.62,0,3
$GPRMC,123943.000,A,5129.5868,N,00000.4769,E,2.84,123.44,290716,,,A*65,51.4931144714,0.0079483003,12:39:43,0/0/200,9,16,20.17,296,29.10,510.53,0,3
$GPRMC,123944.000,A,5129.5865,N,00000.4780,E,2.74,115.44,290716,,,A*62,51.4931068420,0.0079666004,12:39:44,0/0/200,8,56,26.63,331,28.61,510.62,0,3
$GPRMC,123945.000,A,5129.5862,N,00000.4790,E,2.79,120.35,290716,,,A*68,51.4931068420,0.0079833002,12:39:45,0/0/200,8,16,27.96,312,29.10,509.88,0,3
$GPRMC,123946.000,A,5129.5858,N,00000.4800,E,2.95,113.65,290716,,,A*63,51.4930992126,0.0080000009,12:39:46,0/0/200,9,19,27.09,277,28.61,510.33,0,3
$GPRMC,123947.000,A,5129.5852,N,00000.4810,E,3.20,121.48,290716,,,A*68,51.4930839538,0.0080166006,12:39:47,0/0/200,9,14,17.78,315,29.10,510.60,0,3
$GPRMC,123948.000,A,5129.5847,N,00000.4821,E,3.32,120.36,290716,,,A*6A,51.4930763244,0.0080350008,12:39:48,0/0/200,9,29,17.04,289,28.61,510.19,0,3
$GPRMC,123949.000,A,5129.5844,N,00000.4834,E,2.77,111.74,290716,,,A*68,51.4930763244,0.0080566005,12:39:49,0/0/200,9,8,16.15,289,29.10,509.96,0,3
$GPRMC,123950.000,A,5129.5845,N,00000.4847,E,2.58,103.50,290716,,,A*6D,51.4930763244,0.0080783004,12:39:50,0/0/200,9,12,16.30,316,29.10,510.12,0,3
$GPRMC,123951.000,A,5129.5844,N,00000.4860,E,2.42,111.28,290716,,,A*6F,51.4930763244,0.0081000003,12:39:51,0/0/200,9,4,16.11,300,28.61,510.86,0,3
$GPRMC,123952.000,A,5129.5842,N,00000.4872,E,2.63,113.80,290716,,,A*6A,51.4930648803,0.0081200008,12:39:52,0/0/200,9,8,17.51,306,29.10,508.48,0,3
$GPRMC,123953.000,A,5129.5840,N,00000.4885,E,3.46,116.26,290716,,,A*6E,51.4930648803,0.0081416006,12:39:53,0/0/200,9,3,19.29,265,28.61,512.35,0,3
$GPRMC,123954.000,A,5129.5838,N,00000.4898,E,3.69,114.05,290716,,,A*64,51.4930648803,0.0081633005,12:39:54,0/0/200,9,8,16.39,311,28.61,510.52,0,3
$GPRMC,123955.000,A,5129.5838,N,00000.4913,E,3.21,97.97,290716,,,A*5A,51.4930648803,0.0081883010,12:39:55,0/0/200,9,14,15.69,312,28.13,510.40,0,3
$GPRMC,123956.000,A,5129.5838,N,00000.4926,E,2.68,101.21,290716,,,A*60,51.4930648803,0.0082100000,12:39:56,0/0/200,9,6,17.13,298,28.61,510.80,0,3
$GPRMC,123957.000,A,5129.5839,N,00000.4938,E,2.94,95.33,290716,,,A*53,51.4930648803,0.0082300004,12:39:57,0/0/200,9,10,15.52,319,28.61,510.01,0,3
$GPRMC,123958.000,A,5129.5838,N,00000.4951,E,3.09,103.69,290716,,,A*66,51.4930648803,0.0082516012,12:39:58,0/0/200,9,13,15.59,291,28.13,510.54,0,3
$GPRMC,123959.000,A,5129.5837,N,00000.4963,E,3.07,99.17,290716,,,A*5C,51.4930572509,0.0082715997,12:39:59,0/0/200,9,6,21.24,380,28.61,513.83,0,3
$GPRMC,124000.000,A,5129.5836,N,00000.4976,E,2.75,103.99,290716,,,A*6B,51.4930572509,0.0082933006,12:40:0,0/0/200,9,12,15.67,280,28.13,510.07,0,3
$GPRMC,124001.000,A,5129.5833,N,00000.4988,E,2.82,101.96,290716,,,A*6B,51.4930572509,0.0083132991,12:40:1,0/0/200,9,15,18.45,305,28.13,510.52,0,3
$GPRMC,124002.000,A,5129.5830,N,00000.5001,E,3.01,107.89,290716,,,A*60,51.4930496215,0.0083350000,12:40:2,0/0/200,9,5,15.95,278,28.13,510.50,0,3
$GPRMC,124003.000,A,5129.5828,N,00000.5014,E,3.01,104.94,290716,,,A*63,51.4930496215,0.0083566007,12:40:3,0/0/200,9,4,16.17,291,28.13,511.00,0,3
$GPRMC,124004.000,A,5129.5828,N,00000.5030,E,3.19,97.93,290716,,,A*57,51.4930496215,0.0083833007,12:40:4,0/0/200,9,19,16.74,310,28.13,510.47,0,3
$GPRMC,124005.000,A,5129.5829,N,00000.5046,E,3.05,86.21,290716,,,A*52,51.4930496215,0.0084099998,12:40:5,0/0/200,9,6,16.73,310,29.10,507.97,0,3
$GPRMC,124006.000,A,5129.5831,N,00000.5061,E,2.97,89.72,290716,,,A*5E,51.4930496215,0.0084349994,12:40:6,0/0/200,9,5,17.55,300,28.13,513.27,0,3
$GPRMC,124007.000,A,5129.5833,N,00000.5075,E,2.90,79.93,290716,,,A*5F,51.4930572509,0.0084583005,12:40:7,0/0/200,9,5,14.48,271,28.13,510.55,0,3
$GPRMC,124008.000,A,5129.5833,N,00000.5090,E,2.75,96.71,290716,,,A*5D,51.4930572509,0.0084833011,12:40:8,0/0/200,9,12,16.32,301,28.13,510.24,0,3
$GPRMC,124009.000,A,5129.5834,N,00000.5102,E,2.45,87.49,290716,,,A*59,51.4930572509,0.0085032997,12:40:9,0/0/200,9,14,14.88,305,28.13,510.39,0,3
$GPRMC,124010.000,A,5129.5837,N,00000.5115,E,2.78,71.32,290716,,,A*5F,51.4930572509,0.0085249996,12:40:10,0/0/200,9,15,16.10,311,27.64,510.14,0,3
$GPRMC,124011.000,A,5129.5841,N,00000.5128,E,3.19,69.82,290716,,,A*55,51.4930648803,0.0085466012,12:40:11,0/0/200,9,5,14.50,258,28.13,510.40,0,3
$GPRMC,124012.000,A,5129.5844,N,00000.5142,E,3.05,68.00,290716,,,A*59,51.4930763244,0.0085700006,12:40:12,0/0/200,9,10,14.12,323,28.13,510.61,0,3
$GPRMC,124013.000,A,5129.5849,N,00000.5155,E,3.17,68.62,290716,,,A*54,51.4930839538,0.0085916004,12:40:13,0/0/200,9,0,14.31,305,28.13,510.43,0,3
$GPRMC,124014.000,A,5129.5852,N,00000.5168,E,2.82,75.81,290716,,,A*5B,51.4930839538,0.0086133003,12:40:14,0/0/200,14,9,13.62,267,28.13,509.96,0,3
$GPRMC,124015.000,A,5129.5856,N,00000.5180,E,3.21,62.48,290716,,,A*53,51.4930915832,0.0086333007,12:40:15,0/0/200,9,5,14.17,312,28.13,510.47,0,3
$GPRMC,124016.000,A,5129.5858,N,00000.5192,E,2.99,72.26,290716,,,A*56,51.4930992126,0.0086532993,12:40:16,0/0/200,14,13,15.92,299,28.13,511.01,0,3
$GPRMC,124017.000,A,5129.5862,N,00000.5204,E,3.08,59.54,290716,,,A*57,51.4931068420,0.0086732997,12:40:17,0/0/200,8,15,14.44,299,28.13,510.31,0,3
$GPRMC,124018.000,A,5129.5867,N,00000.5215,E,2.79,59.62,290716,,,A*5F,51.4931144714,0.0086915998,12:40:18,0/0/200,8,20,16.20,281,28.61,507.42,0,3
$GPRMC,124019.000,A,5129.5871,N,00000.5225,E,2.56,55.44,290716,,,A*5F,51.4931144714,0.0087082996,12:40:19,0/0/200,8,6,15.49,307,28.61,510.64,0,3
$GPRMC,124020.000,A,5129.5876,N,00000.5235,E,2.89,55.03,290716,,,A*52,51.4931221008,0.0087250003,12:40:20,0/0/200,11,9,15.92,310,28.61,510.17,0,3
$GPRMC,124021.000,A,5129.5880,N,00000.5246,E,2.94,69.07,290716,,,A*59,51.4931297302,0.0087433004,12:40:21,0/0/200,12,11,15.07,287,28.61,510.83,0,3
$GPRMC,124022.000,A,5129.5882,N,00000.5256,E,2.47,70.42,290716,,,A*5E,51.4931411743,0.0087600002,12:40:22,0/0/200,9,7,14.73,289,28.61,510.52,0,3
$GPRMC,124023.000,A,5129.5886,N,00000.5266,E,2.68,57.45,290716,,,A*57,51.4931411743,0.0087765998,12:40:23,0/0/200,14,13,15.28,297,28.61,510.01,0,3
$GPRMC,124024.000,A,5129.5890,N,00000.5277,E,2.73,55.31,290716,,,A*5C,51.4931488037,0.0087950000,12:40:24,0/0/200,14,1,14.41,321,28.61,510.23,0,3
$GPRMC,124025.000,A,5129.5895,N,00000.5288,E,3.20,52.13,290716,,,A*58,51.4931564331,0.0088133010,12:40:25,0/0/200,11,10,17.83,269,28.61,510.75,0,3
$GPRMC,124026.000,A,5129.5901,N,00000.5300,E,3.25,52.31,290716,,,A*53,51.4931716918,0.0088333005,12:40:26,0/0/200,13,9,19.04,320,28.61,510.52,0,3
$GPRMC,124027.000,A,5129.5907,N,00000.5311,E,3.28,42.84,290716,,,A*56,51.4931793212,0.0088516006,12:40:27,0/0/200,13,13,15.18,271,28.61,510.09,0,3
$GPRMC,124028.000,A,5129.5911,N,00000.5320,E,3.25,31.22,290716,,,A*59,51.4931869506,0.0088666000,12:40:28,0/0/200,13,1,15.85,272,28.13,511.25,0,3
$GPRMC,124029.000,A,5129.5917,N,00000.5327,E,2.89,36.88,290716,,,A*59,51.4931983947,0.0088783016,12:40:29,0/0/200,12,8,14.49,299,28.13,510.49,0,3
$GPRMC,124030.000,A,5129.5923,N,00000.5336,E,2.84,44.14,290716,,,A*5B,51.4932060241,0.0088933000,12:40:30,0/0/200,12,7,15.80,308,28.13,510.21,0,3
$GPRMC,124031.000,A,5129.5929,N,00000.5343,E,2.60,37.50,290716,,,A*5C,51.4932136535,0.0089049997,12:40:31,0/0/200,14,4,18.96,317,28.13,509.68,0,3
$GPRMC,124032.000,A,5129.5935,N,00000.5352,E,3.25,40.96,290716,,,A*58,51.4932212829,0.0089200000,12:40:32,0/0/200,14,1,21.22,318,28.13,511.75,0,3
$GPRMC,124033.000,A,5129.5941,N,00000.5360,E,2.96,31.53,290716,,,A*5D,51.4932365417,0.0089333009,12:40:33,0/0/200,15,12,23.96,299,28.13,511.46,0,3
$GPRMC,124034.000,A,5129.5948,N,00000.5366,E,3.11,29.50,290716,,,A*51,51.4932441711,0.0089433012,12:40:34,0/0/200,14,9,16.81,295,27.64,510.76,0,3
$GPRMC,124035.000,A,5129.5956,N,00000.5372,E,3.25,18.74,290716,,,A*59,51.4932632446,0.0089533004,12:40:35,0/0/200,14,9,16.36,307,27.64,510.73,0,3
$GPRMC,124036.000,A,5129.5965,N,00000.5376,E,3.41,18.63,290716,,,A*5A,51.4932785034,0.0089600000,12:40:36,0/0/200,13,4,18.73,325,27.64,510.35,0,3
$GPRMC,124037.000,A,5129.5973,N,00000.5380,E,2.97,20.99,290716,,,A*51,51.4932861328,0.0089665994,12:40:37,0/0/200,10,3,17.65,302,27.64,510.74,0,3
$GPRMC,124038.000,A,5129.5980,N,00000.5384,E,3.08,23.37,290716,,,A*56,51.4933013916,0.0089733009,12:40:38,0/0/200,8,10,14.43,313,27.64,510.14,0,3
$GPRMC,124039.000,A,5129.5987,N,00000.5388,E,2.81,17.60,290716,,,A*59,51.4933090209,0.0089799995,12:40:39,0/0/200,8,7,14.90,277,27.64,510.17,0,3
$GPRMC,124040.000,A,5129.5995,N,00000.5392,E,3.04,17.20,290716,,,A*57,51.4933280944,0.0089866008,12:40:40,0/0/200,8,6,19.75,309,27.64,510.74,0,3
$GPRMC,124041.000,A,5129.6004,N,00000.5396,E,3.45,18.02,290716,,,A*5A,51.4933433532,0.0089933004,12:40:41,0/0/200,13,22,14.14,302,27.64,510.21,0,3
$GPRMC,124042.000,A,5129.6013,N,00000.5401,E,3.45,18.01,290716,,,A*55,51.4933509826,0.0090016002,12:40:42,0/0/200,8,9,13.72,296,27.15,510.84,0,3
$GPRMC,124043.000,A,5129.6022,N,00000.5406,E,3.38,18.39,290716,,,A*50,51.4933662414,0.0090100002,12:40:43,0/0/200,8,17,14.23,312,27.15,510.08,0,3
$GPRMC,124044.000,A,5129.6030,N,00000.5410,E,3.35,17.66,290716,,,A*5B,51.4933853149,0.0090166006,12:40:44,0/0/200,7,10,17.54,313,27.64,509.64,0,3
$GPRMC,124045.000,A,5129.6040,N,00000.5415,E,3.50,16.88,290716,,,A*5A,51.4934005737,0.0090250005,12:40:45,0/0/200,7,16,19.68,328,27.64,510.24,0,3
$GPRMC,124046.000,A,5129.6048,N,00000.5420,E,3.61,21.36,290716,,,A*54,51.4934158325,0.0090333003,12:40:46,0/0/200,8,11,17.69,273,27.64,510.34,0,3
$GPRMC,124047.000,A,5129.6058,N,00000.5426,E,3.72,24.08,290716,,,A*58,51.4934310913,0.0090433006,12:40:47,0/0/200,8,11,18.63,318,27.64,510.81,0,3
$GPRMC,124048.000,A,5129.6067,N,00000.5430,E,3.05,13.39,290716,,,A*5A,51.4934501647,0.0090500001,12:40:48,0/0/200,7,9,15.51,310,27.64,509.93,0,3
$GPRMC,124049.000,A,5129.6076,N,00000.5432,E,3.33,9.04,290716,,,A*69,51.4934577941,0.0090533008,12:40:49,0/0/200,7,39,17.67,272,27.64,510.71,0,3
$GPRMC,124050.000,A,5129.6086,N,00000.5434,E,3.21,7.27,290716,,,A*64,51.4934730529,0.0090565986,12:40:50,0/0/200,8,7,31.56,276,27.64,510.66,0,3
$GPRMC,124051.000,A,5129.6095,N,00000.5436,E,3.21,5.72,290716,,,A*67,51.4934883117,0.0090600004,12:40:51,0/0/200,8,11,16.50,311,27.64,510.15,0,3
$GPRMC,124052.000,A,5129.6104,N,00000.5438,E,3.33,9.18,290716,,,A*60,51.4935073852,0.0090633001,12:40:52,0/0/200,7,0,14.39,306,27.64,510.45,0,3
$GPRMC,124053.000,A,5129.6114,N,00000.5441,E,3.38,1.87,290716,,,A*6B,51.4935226440,0.0090682992,12:40:53,0/0/200,8,1,14.97,279,27.64,510.66,0,3
$GPRMC,124054.000,A,5129.6123,N,00000.5442,E,3.06,7.31,290716,,,A*6D,51.4935379028,0.0090699996,12:40:54,0/0/200,7,7,14.35,304,27.64,510.24,0,3
$GPRMC,124055.000,A,5129.6131,N,00000.5443,E,2.35,3.61,290716,,,A*6E,51.4935531616,0.0090715999,12:40:55,0/0/200,8,13,18.12,400,27.64,513.97,0,3
$GPRMC,124056.000,A,5129.6139,N,00000.5445,E,3.18,6.72,290716,,,A*6A,51.4935646057,0.0090750007,12:40:56,0/0/200,7,12,14.83,304,27.64,510.38,0,3
$GPRMC,124057.000,A,5129.6147,N,00000.5444,E,2.72,353.52,290716,,,A*6F,51.4935798645,0.0090733003,12:40:57,0/0/200,7,11,16.47,293,27.64,510.12,0,3
$GPRMC,124058.000,A,5129.6155,N,00000.5441,E,2.62,344.58,290716,,,A*6B,51.4935951232,0.0090682992,12:40:58,0/0/200,7,3,16.47,307,27.64,510.45,0,3
$GPRMC,124059.000,A,5129.6160,N,00000.5438,E,1.80,347.33,290716,,,A*63,51.4936027526,0.0090633001,12:40:59,0/0/200,7,21,20.73,310,27.64,510.01,0,3
$GPRMC,124100.000,A,5129.6169,N,00000.5437,E,3.42,358.82,290716,,,A*60,51.4936103820,0.0090616016,12:41:0,0/0/200,7,18,19.59,270,27.64,510.62,0,3
$GPRMC,124101.000,A,5129.6178,N,00000.5434,E,3.18,353.27,290716,,,A*69,51.4936294555,0.0090565986,12:41:1,0/0/200,8,152,48.84,288,27.64,510.66,0,3
$GPRMC,124102.000,A,5129.6189,N,00000.5434,E,3.77,358.27,290716,,,A*66,51.4936523437,0.0090565986,12:41:2,0/0/200,8,11,42.56,281,27.64,509.94,0,3
$GPRMC,124103.000,A,5129.6198,N,00000.5435,E,2.99,9.18,290716,,,A*6C,51.4936599731,0.0090583000,12:41:3,0/0/200,8,7,31.31,329,27.64,509.61,0,3
$GPRMC,124104.000,A,5129.6207,N,00000.5438,E,2.82,6.46,290716,,,A*6D,51.4936752319,0.0090633001,12:41:4,0/0/200,8,18,21.76,295,27.64,508.93,0,3
$GPRMC,124105.000,A,5129.6216,N,00000.5440,E,3.21,357.08,290716,,,A*66,51.4936943054,0.0090665998,12:41:5,0/0/200,7,9,19.69,304,27.64,508.97,0,3
$GPRMC,124106.000,A,5129.6225,N,00000.5437,E,3.05,346.61,290716,,,A*6C,51.4937095642,0.0090616016,12:41:6,0/0/200,7,11,17.77,297,27.64,509.74,0,3
$GPRMC,124107.000,A,5129.6231,N,00000.5430,E,2.90,339.35,290716,,,A*6B,51.4937171936,0.0090500001,12:41:7,0/0/200,7,6,15.32,274,27.64,509.88,0,3
$GPRMC,124108.000,A,5129.6239,N,00000.5424,E,3.48,341.33,290716,,,A*64,51.4937324523,0.0090399990,12:41:8,0/0/200,7,3,15.10,302,27.15,511.24,0,3
$GPRMC,124109.000,A,5129.6249,N,00000.5419,E,3.57,337.82,290716,,,A*69,51.4937515258,0.0090315999,12:41:9,0/0/200,7,33,16.33,304,27.64,510.02,0,3
$GPRMC,124110.000,A,5129.6259,N,00000.5412,E,3.70,336.41,290716,,,A*60,51.4937667846,0.0090200004,12:41:10,0/0/200,7,14,16.52,273,27.64,510.55,0,3
$GPRMC,124111.000,A,5129.6268,N,00000.5406,E,3.53,338.13,290716,,,A*6E,51.4937820434,0.0090100002,12:41:11,0/0/200,7,0,17.33,306,27.64,510.48,0,3
$GPRMC,124112.000,A,5129.6278,N,00000.5402,E,3.59,345.35,290716,,,A*6C,51.4937973022,0.0090032997,12:41:12,0/0/200,7,4,15.05,287,27.64,511.00,0,3
$GPRMC,124113.000,A,5129.6287,N,00000.5399,E,3.10,348.47,290716,,,A*6D,51.4938163757,0.0089983005,12:41:13,0/0/200,7,5,15.47,312,27.64,510.65,0,3
$GPRMC,124114.000,A,5129.6295,N,00000.5396,E,2.76,351.19,290716,,,A*64,51.4938240051,0.0089933004,12:41:14,0/0/200,8,4,16.95,279,27.64,510.52,0,3
$GPRMC,124115.000,A,5129.6303,N,00000.5392,E,2.91,340.45,290716,,,A*6F,51.4938392639,0.0089866008,12:41:15,0/0/200,8,7,14.61,294,27.15,510.12,0,3
$GPRMC,124116.000,A,5129.6311,N,00000.5386,E,2.96,339.30,290716,,,A*61,51.4938468933,0.0089766006,12:41:16,0/0/200,8,15,15.05,307,27.15,510.22,0,3
$GPRMC,124117.000,A,5129.6318,N,00000.5382,E,2.40,341.95,290716,,,A*66,51.4938621520,0.0089700012,12:41:17,0/0/200,8,4,15.04,282,27.64,510.75,0,3
$GPRMC,124118.000,A,5129.6325,N,00000.5377,E,2.83,339.24,290716,,,A*67,51.4938735961,0.0089616003,12:41:18,0/0/200,11,1,14.78,309,27.15,510.26,0,3
$GPRMC,124119.000,A,5129.6333,N,00000.5370,E,3.06,345.58,290716,,,A*6A,51.4938888549,0.0089499998,12:41:19,0/0/200,10,11,14.54,296,27.64,510.67,0,3
$GPRMC,124120.000,A,5129.6341,N,00000.5365,E,2.59,344.04,290716,,,A*62,51.4939041137,0.0089416017,12:41:20,0/0/200,11,20,14.71,314,27.15,510.20,0,3
$GPRMC,124121.000,A,5129.6347,N,00000.5361,E,1.93,350.53,290716,,,A*63,51.4939117431,0.0089350013,12:41:21,0/0/200,11,0,14.97,282,27.64,510.16,0,3
$GPRMC,124122.000,A,5129.6352,N,00000.5358,E,1.88,349.68,290716,,,A*64,51.4939193725,0.0089300003,12:41:22,0/0/200,9,8,14.54,308,27.64,510.47,0,3
$GPRMC,124123.000,A,5129.6357,N,00000.5355,E,1.61,343.55,290716,,,A*6E,51.4939308166,0.0089250001,12:41:23,0/0/200,7,7,14.91,296,27.64,509.52,0,3
$GPRMC,124124.000,A,5129.6364,N,00000.5351,E,2.25,339.97,290716,,,A*6D,51.4939384460,0.0089183006,12:41:24,0/0/200,8,4,14.36,275,27.64,510.08,0,3
$GPRMC,124125.000,A,5129.6373,N,00000.5347,E,3.15,339.98,290716,,,A*60,51.4939537048,0.0089116010,12:41:25,0/0/200,8,11,14.95,303,27.15,510.12,0,3
$GPRMC,124126.000,A,5129.6383,N,00000.5341,E,3.55,345.25,290716,,,A*63,51.4939689636,0.0089015998,12:41:26,0/0/200,7,4,14.43,308,27.64,510.05,0,3
$GPRMC,124127.000,A,5129.6391,N,00000.5335,E,3.05,333.23,290716,,,A*60,51.4939842224,0.0088916006,12:41:27,0/0/200,7,14,14.58,291,27.64,509.88,0,3
$GPRMC,124128.000,A,5129.6399,N,00000.5329,E,3.00,334.66,290716,,,A*69,51.4940032958,0.0088815994,12:41:28,0/0/200,7,3,14.69,283,27.15,510.16,0,3
$GPRMC,124129.000,A,5129.6404,N,00000.5322,E,2.49,327.18,290716,,,A*67,51.4940109252,0.0088700008,12:41:29,0/0/200,8,19,15.94,288,27.15,510.06,0,3
$GPRMC,124130.000,A,5129.6411,N,00000.5315,E,2.92,329.44,290716,,,A*6E,51.4940185546,0.0088583002,12:41:30,0/0/200,7,17,16.92,317,27.64,510.27,0,3
$GPRMC,124131.000,A,5129.6416,N,00000.5307,E,2.69,327.38,290716,,,A*6A,51.4940261840,0.0088450012,12:41:31,0/0/200,7,24,18.61,275,27.64,510.07,0,3
$GPRMC,124132.000,A,5129.6423,N,00000.5301,E,2.75,331.57,290716,,,A*6A,51.4940338134,0.0088350009,12:41:32,0/0/200,7,31,20.05,309,27.64,510.12,0,3
$GPRMC,124133.000,A,5129.6429,N,00000.5293,E,2.83,318.88,290716,,,A*6B,51.4940528869,0.0088216009,12:41:33,0/0/200,7,11,20.19,295,27.64,510.82,0,3
$GPRMC,124134.000,A,5129.6435,N,00000.5288,E,2.54,321.42,290716,,,A*6D,51.4940605163,0.0088133010,12:41:34,0/0/200,7,14,16.72,304,27.64,510.34,0,3
$GPRMC,124135.000,A,5129.6441,N,00000.5281,E,2.70,314.46,290716,,,A*62,51.4940681457,0.0088016004,12:41:35,0/0/200,6,11,16.72,267,27.64,510.59,0,3
$GPRMC,124136.000,A,5129.6449,N,00000.5273,E,2.91,323.10,290716,,,A*6C,51.4940834045,0.0087883005,12:41:36,0/0/200,6,13,16.34,316,27.64,510.09,0,3
$GPRMC,124137.000,A,5129.6456,N,00000.5266,E,3.08,325.30,290716,,,A*62,51.4940910339,0.0087765998,12:41:37,0/0/200,7,5,15.14,301,27.15,510.25,0,3
$GPRMC,124138.000,A,5129.6463,N,00000.5260,E,3.14,331.31,290716,,,A*64,51.4941062927,0.0087666006,12:41:38,0/0/200,7,8,14.16,272,27.15,510.07,0,3
$GPRMC,124139.000,A,5129.6472,N,00000.5253,E,2.95,321.94,290716,,,A*63,51.4941177368,0.0087549991,12:41:39,0/0/200,7,11,14.03,308,27.15,510.04,0,3
$GPRMC,124140.000,A,5129.6478,N,00000.5245,E,2.98,321.25,290716,,,A*67,51.4941329956,0.0087416000,12:41:40,0/0/200,7,13,14.29,310,27.15,510.47,0,3
$GPRMC,124141.000,A,5129.6486,N,00000.5238,E,2.91,326.30,290716,,,A*67,51.4941406250,0.0087300004,12:41:41,0/0/200,7,5,13.78,312,27.15,510.12,0,3
$GPRMC,124142.000,A,5129.6493,N,00000.5230,E,3.00,330.41,290716,,,A*60,51.4941558837,0.0087166004,12:41:42,0/0/200,7,8,13.90,266,27.64,510.02,0,3
$GPRMC,124143.000,A,5129.6502,N,00000.5223,E,3.19,332.99,290716,,,A*65,51.4941749572,0.0087050008,12:41:43,0/0/200,7,1,14.31,295,27.64,510.31,0,3
$GPRMC,124144.000,A,5129.6509,N,00000.5216,E,2.83,323.64,290716,,,A*6F,51.4941825866,0.0086933012,12:41:44,0/0/200,7,7,13.89,292,27.64,510.27,0,3
$GPRMC,124145.000,A,5129.6516,N,00000.5208,E,2.68,322.87,290716,,,A*66,51.4941902160,0.0086800003,12:41:45,0/0/200,9,29,15.62,274,27.64,510.97,0,3
$GPRMC,124146.000,A,5129.6524,N,00000.5200,E,3.19,325.93,290716,,,A*69,51.4942054748,0.0086666011,12:41:46,0/0/200,7,15,13.81,313,27.64,510.53,0,3
$GPRMC,124147.000,A,5129.6531,N,00000.5192,E,3.16,327.70,290716,,,A*64,51.4942207336,0.0086532993,12:41:47,0/0/200,7,14,13.50,311,27.64,509.57,0,3
$GPRMC,124148.000,A,5129.6538,N,00000.5185,E,3.07,329.64,290716,,,A*6F,51.4942283630,0.0086416006,12:41:48,0/0/200,7,7,14.30,314,27.64,509.94,0,3
$GPRMC,124149.000,A,5129.6545,N,00000.5179,E,2.88,328.24,290716,,,A*64,51.4942398071,0.0086316003,12:41:49,0/0/200,7,0,13.28,270,27.64,509.50,0,3
$GPRMC,124150.000,A,5129.6552,N,00000.5173,E,2.81,335.36,290716,,,A*66,51.4942550659,0.0086216001,12:41:50,0/0/200,7,8,20.24,381,27.64,512.71,0,3
$GPRMC,124151.000,A,5129.6560,N,00000.5166,E,3.23,327.96,290716,,,A*62,51.4942626953,0.0086099996,12:41:51,0/0/200,7,23,15.14,350,27.64,511.58,0,3
$GPRMC,124152.000,A,5129.6569,N,00000.5159,E,3.39,337.98,290716,,,A*60,51.4942779541,0.0085982990,12:41:52,0/0/200,14,14,13.68,282,27.64,510.27,0,3
$GPRMC,124153.000,A,5129.6578,N,00000.5155,E,3.28,331.75,290716,,,A*68,51.4942970275,0.0085916004,12:41:53,0/0/200,7,10,15.40,318,27.64,510.16,0,3
$GPRMC,124154.000,A,5129.6586,N,00000.5149,E,3.46,328.58,290716,,,A*6C,51.4943122863,0.0085816001,12:41:54,0/0/200,7,12,15.42,308,27.15,510.30,0,3
$GPRMC,124155.000,A,5129.6595,N,00000.5145,E,3.36,335.28,290716,,,A*6F,51.4943275451,0.0085750007,12:41:55,0/0/200,7,11,14.46,301,27.15,510.38,0,3
$GPRMC,124156.000,A,5129.6602,N,00000.5141,E,2.71,338.22,290716,,,A*60,51.4943351745,0.0085683002,12:41:56,0/0/200,8,18,16.89,260,27.64,510.16,0,3
$GPRMC,124157.000,A,5129.6610,N,00000.5135,E,2.95,328.26,290716,,,A*6E,51.4943504333,0.0085583000,12:41:57,0/0/200,8,11,19.75,314,27.64,510.39,0,3
$GPRMC,124158.000,A,5129.6616,N,00000.5130,E,2.61,336.06,290716,,,A*64,51.4943618774,0.0085500001,12:41:58,0/0/200,8,15,24.50,318,27.64,510.67,0,3
$GPRMC,124159.000,A,5129.6624,N,00000.5125,E,2.90,323.40,290716,,,A*68,51.4943771362,0.0085415992,12:41:59,0/0/200,7,5,23.06,283,27.64,509.86,2,5
$GPRMC,124200.000,A,5129.6630,N,00000.5118,E,2.79,316.17,290716,,,A*6F,51.4943847656,0.0085299997,12:42:0,0/0/200,7,19,16.09,320,27.15,510.26,1,6
$GPRMC,124201.000,A,5129.6637,N,00000.5109,E,3.23,332.02,290716,,,A*65,51.4943923950,0.0085150003,12:42:1,0/0/200,7,8,18.28,319,27.64,510.71,0,6
$GPRMC,124202.000,A,5129.6645,N,00000.5106,E,3.11,352.09,290716,,,A*60,51.4944076538,0.0085100002,12:42:2,0/0/200,7,10,16.86,305,27.15,510.34,0,6
$GPRMC,124203.000,A,5129.6651,N,00000.5102,E,2.55,335.56,290716,,,A*6A,51.4944190979,0.0085032997,12:42:3,0/0/200,7,7,18.15,272,27.64,512.46,0,6
$GPRMC,124204.000,A,5129.6656,N,00000.5097,E,2.24,331.80,290716,,,A*6E,51.4944267272,0.0084949998,12:42:4,0/0/200,7,4,14.24,300,27.64,510.55,0,6
$GPRMC,124205.000,A,5129.6660,N,00000.5091,E,2.11,332.86,290716,,,A*6F,51.4944343566,0.0084850006,12:42:5,0/0/200,7,16,14.98,286,27.64,509.80,0,6
$GPRMC,124206.000,A,5129.6667,N,00000.5085,E,2.90,323.79,290716,,,A*67,51.4944419860,0.0084750003,12:42:6,0/0/200,7,6,16.49,283,27.64,510.78,0,6
$GPRMC,124207.000,A,5129.6676,N,00000.5077,E,3.26,320.45,290716,,,A*6B,51.4944572448,0.0084616003,12:42:7,0/0/200,13,10,15.29,308,27.64,510.31,0,6
$GPRMC,124208.000,A,5129.6683,N,00000.5070,E,2.93,326.87,290716,,,A*6E,51.4944725036,0.0084500007,12:42:8,0/0/200,7,6,15.11,308,27.15,510.47,0,6
$GPRMC,124209.000,A,5129.6692,N,00000.5062,E,3.25,323.67,290716,,,A*6B,51.4944915771,0.0084366016,12:42:9,0/0/200,7,3,15.43,306,27.15,510.76,0,6
$GPRMC,124210.000,A,5129.6700,N,00000.5054,E,2.83,321.15,290716,,,A*66,51.4944992065,0.0084232997,12:42:10,0/0/200,7,15,14.21,257,27.15,510.16,0,6
$GPRMC,124211.000,A,5129.6707,N,00000.5046,E,2.82,318.32,290716,,,A*6D,51.4945144653,0.0084099998,12:42:11,0/0/200,7,7,15.86,309,27.15,510.14,0,6
$GPRMC,124212.000,A,5129.6713,N,00000.5038,E,2.31,324.26,290716,,,A*60,51.4945220947,0.0083966007,12:42:12,0/0/200,7,6,15.87,309,27.15,510.62,0,6
$GPRMC,124213.000,A,5129.6719,N,00000.5032,E,2.54,330.45,290716,,,A*62,51.4945297241,0.0083866004,12:42:13,0/0/200,7,14,17.11,274,27.15,510.28,0,6
$GPRMC,124214.000,A,5129.6727,N,00000.5024,E,3.14,329.39,290716,,,A*69,51.4945487976,0.0083733005,12:42:14,0/0/200,8,6,17.49,308,27.15,509.76,0,6
$GPRMC,124215.000,A,5129.6736,N,00000.5016,E,3.64,330.94,290716,,,A*61,51.4945640563,0.0083599996,12:42:15,0/0/200,7,8,16.74,323,27.15,510.43,0,6
$GPRMC,124216.000,A,5129.6745,N,00000.5008,E,3.30,321.01,290716,,,A*64,51.4945716857,0.0083466005,12:42:16,0/0/200,7,9,14.81,315,27.15,510.75,0,6
$GPRMC,124217.000,A,5129.6754,N,00000.4997,E,3.56,327.05,290716,,,A*69,51.4945869445,0.0083283004,12:42:17,0/0/200,7,6,13.73,283,27.64,510.31,0,6
$GPRMC,124218.000,A,5129.6761,N,00000.4987,E,2.95,327.58,290716,,,A*67,51.4946060180,0.0083115997,12:42:18,0/0/200,7,4,14.74,293,27.64,510.28,0,6
$GPRMC,124219.000,A,5129.6769,N,00000.4978,E,2.86,322.64,290716,,,A*66,51.4946136474,0.0082966003,12:42:19,0/0/200,7,18,14.96,275,27.64,509.86,0,6
$GPRMC,124220.000,A,5129.6776,N,00000.4971,E,2.99,327.66,290716,,,A*62,51.4946289062,0.0082849998,12:42:20,0/0/200,7,13,16.45,277,27.15,509.97,0,6
$GPRMC,124221.000,A,5129.6783,N,00000.4964,E,2.68,327.59,290716,,,A*6F,51.4946365356,0.0082733001,12:42:21,0/0/200,7,8,16.46,316,27.64,510.13,0,6
$GPRMC,124222.000,A,5129.6789,N,00000.4957,E,2.75,331.58,290716,,,A*6C,51.4946441650,0.0082616004,12:42:22,0/0/200,7,12,15.98,309,27.64,510.60,0,6
$GPRMC,124223.000,A,5129.6796,N,00000.4950,E,3.11,327.13,290716,,,A*6F,51.4946632385,0.0082499990,12:42:23,0/0/200,7,5,15.48,308,27.64,510.02,0,6
$GPRMC,124224.000,A,5129.6802,N,00000.4943,E,2.94,329.52,290716,,,A*6F,51.4946708679,0.0082383003,12:42:24,0/0/200,7,3,16.14,363,27.64,511.38,0,6
$GPRMC,124225.000,A,5129.6808,N,00000.4937,E,2.76,334.75,290716,,,A*62,51.4946784973,0.0082283010,12:42:25,0/0/200,7,19,14.84,310,27.64,510.56,0,6
$GPRMC,124226.000,A,5129.6815,N,00000.4930,E,2.78,316.92,290716,,,A*6D,51.4946937561,0.0082166004,12:42:26,0/0/200,7,6,15.37,318,27.64,510.38,0,6
$GPRMC,124227.000,A,5129.6821,N,00000.4921,E,3.06,311.28,290716,,,A*65,51.4947013854,0.0082016000,12:42:27,0/0/200,8,17,15.65,271,27.64,510.82,0,6
$GPRMC,124228.000,A,5129.6827,N,00000.4910,E,3.14,301.80,290716,,,A*6E,51.4947090148,0.0081833000,12:42:28,0/0/200,7,21,15.24,315,27.64,509.50,1,7
$GPRMC,124229.000,A,5129.6834,N,00000.4899,E,3.59,320.21,290716,,,A*6C,51.4947280883,0.0081650009,12:42:29,0/0/200,7,0,15.52,307,27.15,509.91,0,7
$GPRMC,124230.000,A,5129.6840,N,00000.4890,E,2.71,326.74,290716,,,A*63,51.4947357177,0.0081499996,12:42:30,0/0/200,6,5,16.03,286,27.64,510.26,0,7
$GPRMC,124231.000,A,5129.6848,N,00000.4884,E,2.85,334.71,290716,,,A*62,51.4947433471,0.0081400003,12:42:31,0/0/200,15,9,15.11,275,27.15,509.90,0,7
$GPRMC,124232.000,A,5129.6857,N,00000.4878,E,2.89,335.23,290716,,,A*66,51.4947586059,0.0081300010,12:42:32,0/0/200,7,2,15.62,305,27.64,510.35,0,7
$GPRMC,124233.000,A,5129.6864,N,00000.4872,E,2.45,335.31,290716,,,A*6E,51.4947738647,0.0081200008,12:42:33,0/0/200,7,11,14.99,282,27.64,510.90,0,7
$GPRMC,124234.000,A,5129.6872,N,00000.4868,E,2.39,328.96,290716,,,A*6F,51.4947853088,0.0081133003,12:42:34,0/0/200,7,2,15.00,295,27.15,510.05,0,7
$GPRMC,124235.000,A,5129.6879,N,00000.4861,E,2.41,319.93,290716,,,A*64,51.4948005676,0.0081016006,12:42:35,0/0/200,7,0,14.78,287,27.64,510.13,0,7
$GPRMC,124236.000,A,5129.6885,N,00000.4855,E,2.31,320.00,290716,,,A*64,51.4948081970,0.0080916004,12:42:36,0/0/200,6,11,16.65,295,27.64,510.74,0,7
$GPRMC,124237.000,A,5129.6891,N,00000.4849,E,2.33,316.74,290716,,,A*69,51.4948158264,0.0080816001,12:42:37,0/0/200,6,14,15.71,298,27.15,510.35,0,7
$GPRMC,124238.000,A,5129.6897,N,00000.4844,E,2.06,318.20,290716,,,A*64,51.4948310852,0.0080733003,12:42:38,0/0/200,7,30,20.84,251,27.64,510.30,0,7
$GPRMC,124239.000,A,5129.6904,N,00000.4835,E,2.59,318.22,290716,,,A*60,51.4948387145,0.0080583009,12:42:39,0/0/200,7,83,44.76,305,27.64,510.57,0,7
$GPRMC,124240.000,A,5129.6911,N,00000.4827,E,2.66,323.05,290716,,,A*68,51.4948501586,0.0080450000,12:42:40,0/0/200,7,36,39.70,250,27.15,511.07,0,7
$GPRMC,124241.000,A,5129.6919,N,00000.4818,E,2.90,323.83,290716,,,A*6A,51.4948654174,0.0080300006,12:42:41,0/0/200,7,32,32.49,277,27.15,510.97,0,7
$GPRMC,124242.000,A,5129.6927,N,00000.4810,E,3.07,325.10,290716,,,A*6F,51.4948806762,0.0080166006,12:42:42,0/0/200,12,30,30.67,331,26.66,510.55,0,7
$GPRMC,124243.000,A,5129.6935,N,00000.4801,E,3.59,325.77,290716,,,A*67,51.4948883056,0.0080016002,12:42:43,0/0/200,7,13,34.88,325,27.15,510.71,0,7
$GPRMC,124244.000,A,5129.6943,N,00000.4794,E,2.92,330.39,290716,,,A*6A,51.4949073791,0.0079899997,12:42:44,0/0/200,7,23,19.68,335,27.15,510.12,0,7
$GPRMC,124245.000,A,5129.6950,N,00000.4787,E,2.77,329.52,290716,,,A*65,51.4949150085,0.0079783010,12:42:45,0/0/200,6,18,20.48,281,27.15,509.90,0,7
$GPRMC,124246.000,A,5129.6956,N,00000.4781,E,2.72,337.54,290716,,,A*6A,51.4949302673,0.0079682998,12:42:46,0/0/200,7,14,21.00,454,27.15,512.64,0,7
$GPRMC,124247.000,A,5129.6964,N,00000.4775,E,2.87,336.04,290716,,,A*6F,51.4949378967,0.0079583001,12:42:47,0/0/200,7,20,20.87,395,27.15,512.08,0,7
$GPRMC,124248.000,A,5129.6970,N,00000.4770,E,2.42,323.44,290716,,,A*69,51.4949455261,0.0079500007,12:42:48,0/0/200,7,20,19.18,276,27.15,509.94,0,7
$GPRMC,124249.000,A,5129.6978,N,00000.4764,E,2.78,326.44,290716,,,A*69,51.4949607849,0.0079400005,12:42:49,0/0/200,16,17,20.45,295,27.64,509.59,0,7
$GPRMC,124250.000,A,5129.6985,N,00000.4760,E,2.44,342.87,290716,,,A*65,51.4949798583,0.0079333000,12:42:50,0/0/200,15,12,22.86,304,27.15,510.46,0,7
$GPRMC,124251.000,A,5129.6993,N,00000.4757,E,2.79,350.19,290716,,,A*6D,51.4949874877,0.0079283003,12:42:51,0/0/200,9,19,27.66,285,27.15,510.52,0,7
$GPRMC,124252.000,A,5129.7001,N,00000.4754,E,3.28,345.17,290716,,,A*61,51.4950027465,0.0079233002,12:42:52,0/0/200,8,4,20.23,285,27.64,510.27,0,7
$GPRMC,124253.000,A,5129.7009,N,00000.4747,E,3.19,331.87,290716,,,A*62,51.4950103759,0.0079116001,12:42:53,0/0/200,8,20,16.95,305,27.64,510.21,0,7
$GPRMC,124254.000,A,5129.7018,N,00000.4739,E,3.22,336.30,290716,,,A*6F,51.4950294494,0.0078983001,12:42:54,0/0/200,8,5,19.57,320,27.64,510.61,0,7
$GPRMC,124255.000,A,5129.7026,N,00000.4731,E,3.16,325.93,290716,,,A*67,51.4950447082,0.0078850002,12:42:55,0/0/200,8,39,27.46,253,27.15,510.41,0,7
$GPRMC,124256.000,A,5129.7032,N,00000.4723,E,2.63,305.70,290716,,,A*6E,51.4950523376,0.0078716011,12:42:56,0/0/200,8,21,32.60,289,27.15,510.51,0,7
$GPRMC,124257.000,A,5129.7038,N,00000.4716,E,2.58,320.30,290716,,,A*68,51.4950599670,0.0078600001,12:42:57,0/0/200,7,17,21.88,331,27.64,510.52,0,7
$GPRMC,124258.000,A,5129.7045,N,00000.4708,E,2.92,329.78,290716,,,A*61,51.4950752258,0.0078466005,12:42:58,0/0/200,16,18,18.55,324,27.15,510.49,0,7
$GPRMC,124259.000,A,5129.7052,N,00000.4701,E,2.91,328.29,290716,,,A*69,51.4950828552,0.0078350000,12:42:59,0/0/200,7,20,16.82,264,27.64,510.43,0,7
$GPRMC,124300.000,A,5129.7059,N,00000.4695,E,2.91,332.17,290716,,,A*65,51.4951019287,0.0078250002,12:43:0,0/0/200,7,11,18.06,300,27.64,510.51,0,7
$GPRMC,124301.000,A,5129.7068,N,00000.4687,E,3.47,332.15,290716,,,A*6D,51.4951171875,0.0078115997,12:43:1,0/0/200,7,18,20.57,315,27.64,510.29,1,8
$GPRMC,124302.000,A,5129.7075,N,00000.4681,E,2.73,322.21,290716,,,A*64,51.4951248168,0.0078016004,12:43:2,0/0/200,7,62,22.64,293,27.64,509.36,0,8
$GPRMC,124303.000,A,5129.7080,N,00000.4674,E,2.58,335.85,290716,,,A*64,51.4951324462,0.0077899999,12:43:3,0/0/200,7,10,19.36,308,27.64,510.49,0,8
$GPRMC,124304.000,A,5129.7086,N,00000.4669,E,2.76,342.87,290716,,,A*67,51.4951400756,0.0077816009,12:43:4,0/0/200,7,9,20.00,319,27.64,509.84,0,8
$GPRMC,124305.000,A,5129.7094,N,00000.4663,E,3.50,332.71,290716,,,A*64,51.4951591491,0.0077716007,12:43:5,0/0/200,7,22,23.38,309,27.64,510.36,0,8
$GPRMC,124306.000,A,5129.7102,N,00000.4657,E,3.25,332.07,290716,,,A*6D,51.4951667785,0.0077616000,12:43:6,0/0/200,7,31,36.76,289,27.64,509.48,0,8
$GPRMC,124307.000,A,5129.7109,N,00000.4651,E,2.99,332.26,290716,,,A*64,51.4951820373,0.0077516007,12:43:7,0/0/200,7,24,26.67,317,27.64,509.99,0,8
$GPRMC,124308.000,A,5129.7116,N,00000.4646,E,2.56,338.59,290716,,,A*62,51.4951896667,0.0077433004,12:43:8,0/0/200,7,11,36.27,303,27.64,510.52,0,8
$GPRMC,124309.000,A,5129.7122,N,00000.4642,E,2.61,338.02,290716,,,A*6A,51.4952049255,0.0077365999,12:43:9,0/0/200,7,35,33.98,265,27.64,510.38,0,8
$GPRMC,124310.000,A,5129.7130,N,00000.4636,E,2.98,332.70,290716,,,A*6B,51.4952163696,0.0077266006,12:43:10,0/0/200,7,7,23.33,343,27.64,510.22,0,8
$GPRMC,124311.000,A,5129.7139,N,00000.4629,E,3.37,331.70,290716,,,A*6A,51.4952316284,0.0077150001,12:43:11,0/0/200,7,19,17.56,314,27.64,510.51,0,8
$GPRMC,124312.000,A,5129.7146,N,00000.4622,E,2.65,333.53,290716,,,A*6F,51.4952468872,0.0077032995,12:43:12,0/0/200,8,0,16.19,320,27.64,510.41,0,8
$GPRMC,124313.000,A,5129.7154,N,00000.4617,E,2.66,337.13,290716,,,A*68,51.4952545166,0.0076950001,12:43:13,0/0/200,7,7,15.28,275,27.64,510.57,0,8
$GPRMC,124314.000,A,5129.7162,N,00000.4610,E,2.97,333.29,290716,,,A*6E,51.4952735900,0.0076833004,12:43:14,0/0/200,7,10,14.57,307,27.64,510.25,0,8
$GPRMC,124315.000,A,5129.7171,N,00000.4602,E,2.92,324.64,290716,,,A*64,51.4952888488,0.0076700000,12:43:15,0/0/200,7,23,19.70,308,28.13,510.02,0,8
$GPRMC,124316.000,A,5129.7179,N,00000.4594,E,3.23,330.41,290716,,,A*6A,51.4952964782,0.0076565990,12:43:16,0/0/200,7,7,14.03,286,28.13,510.34,0,8
$GPRMC,124317.000,A,5129.7188,N,00000.4585,E,3.57,332.84,290716,,,A*6D,51.4953117370,0.0076416006,12:43:17,0/0/200,7,4,14.36,314,28.13,510.44,0,8
$GPRMC,124318.000,A,5129.7197,N,00000.4579,E,2.78,336.38,290716,,,A*60,51.4953269958,0.0076316003,12:43:18,0/0/200,7,7,15.35,293,28.13,511.14,0,8
$GPRMC,124319.000,A,5129.7206,N,00000.4572,E,3.03,330.03,290716,,,A*62,51.4953460693,0.0076200003,12:43:19,0/0/200,7,11,14.59,310,28.13,509.97,0,8
$GPRMC,124320.000,A,5129.7215,N,00000.4565,E,2.55,328.09,290716,,,A*6D,51.4953613281,0.0076083002,12:43:20,0/0/200,7,15,13.92,272,27.64,510.36,0,8
$GPRMC,124321.000,A,5129.7224,N,00000.4556,E,3.15,328.28,290716,,,A*68,51.4953689575,0.0075933008,12:43:21,0/0/200,7,14,14.01,315,28.13,510.40,0,8
$GPRMC,124322.000,A,5129.7232,N,00000.4546,E,3.16,319.11,290716,,,A*66,51.4953842163,0.0075766000,12:43:22,0/0/200,7,7,14.26,307,28.13,510.84,0,8
$GPRMC,124323.000,A,5129.7238,N,00000.4536,E,2.96,318.21,290716,,,A*61,51.4953956604,0.0075600004,12:43:23,0/0/200,7,2,13.29,280,28.13,510.40,0,8
$GPRMC,124324.000,A,5129.7246,N,00000.4525,E,3.22,322.90,290716,,,A*60,51.4954109191,0.0075415997,12:43:24,0/0/200,7,13,15.44,287,28.13,510.26,0,8
$GPRMC,124325.000,A,5129.7253,N,00000.4517,E,3.05,325.96,290716,,,A*60,51.4954185485,0.0075282998,12:43:25,0/0/200,7,5,16.70,319,28.13,510.43,0,8
$GPRMC,124326.000,A,5129.7260,N,00000.4510,E,2.75,330.41,290716,,,A*6C,51.4954338073,0.0075165996,12:43:26,0/0/200,8,3,16.62,313,28.13,510.38,0,8
$GPRMC,124327.000,A,5129.7267,N,00000.4501,E,2.56,314.92,290716,,,A*63,51.4954414367,0.0075016012,12:43:27,0/0/200,8,3,14.69,277,28.13,510.69,0,8
$GPRMC,124328.000,A,5129.7273,N,00000.4491,E,2.65,322.53,290716,,,A*69,51.4954605102,0.0074850010,12:43:28,0/0/200,7,6,18.65,296,28.13,510.27,0,8
$GPRMC,124329.000,A,5129.7281,N,00000.4481,E,3.39,324.73,290716,,,A*68,51.4954681396,0.0074682998,12:43:29,0/0/200,7,22,14.24,303,28.13,510.54,0,8
$GPRMC,124330.000,A,5129.7288,N,00000.4473,E,2.98,330.36,290716,,,A*6A,51.4954833984,0.0074550004,12:43:30,0/0/200,7,10,15.99,284,28.13,510.36,0,8
$GPRMC,124331.000,A,5129.7299,N,00000.4467,E,2.45,329.30,290716,,,A*60,51.4954986572,0.0074450006,12:43:31,0/0/200,7,7,14.90,297,28.13,510.46,0,8
$GPRMC,124332.000,A,5129.7304,N,00000.4462,E,1.82,328.29,290716,,,A*62,51.4955062866,0.0074366002,12:43:32,0/0/200,7,18,16.47,308,28.13,510.88,0,8
$GPRMC,124333.000,A,5129.7309,N,00000.4459,E,1.75,339.39,290716,,,A*6F,51.4955177307,0.0074316015,12:43:33,0/0/200,7,7,15.14,310,28.13,510.57,0,8
$GPRMC,124334.000,A,5129.7315,N,00000.4448,E,2.83,315.47,290716,,,A*68,51.4955253601,0.0074133005,12:43:34,0/0/200,7,6,14.91,269,28.13,510.24,0,8
$GPRMC,124335.000,A,5129.7321,N,00000.4438,E,2.98,319.36,290716,,,A*69,51.4955329895,0.0073966002,12:43:35,0/0/200,7,13,14.58,323,28.13,510.16,0,8
$GPRMC,124336.000,A,5129.7327,N,00000.4427,E,2.88,318.87,290716,,,A*68,51.4955482482,0.0073783006,12:43:36,0/0/200,7,12,15.20,310,28.13,510.35,0,8
$GPRMC,124337.000,A,5129.7334,N,00000.4416,E,3.28,316.22,290716,,,A*63,51.4955558776,0.0073600006,12:43:37,0/0/200,7,13,17.03,278,28.13,510.13,0,8
$GPRMC,124338.000,A,5129.7340,N,00000.4406,E,2.89,319.09,290716,,,A*62,51.4955635070,0.0073433008,12:43:38,0/0/200,7,13,19.46,314,28.13,510.50,0,8
$GPRMC,124339.000,A,5129.7345,N,00000.4398,E,3.03,322.68,290716,,,A*6A,51.4955711364,0.0073300004,12:43:39,0/0/200,7,20,20.10,313,28.13,511.01,0,8
