
$GPGGA,235954.204,,,,,0,00,,,M,,M,,*72,0.0000000000,0.0000000000,23:59:54,0/0/200,0,0
$GPRMC,235954.204,V,,,,,0.00,0.00,050180,,,N*4B,0.0000000000,0.0000000000,23:59:54,5/1/2080,0,0
$GPGGA,124728.096,,,,,0,00,,,M,,M,,*7D,0.0000000000,0.0000000000,12:47:28,5/1/2080,0,0
$GPRMC,124728.096,V,,,,,0.00,0.00,090180,,,N*48,0.0000000000,0.0000000000,12:47:28,9/1/2080,0,0
$GPGGA,124729.096,,,,,0,00,,,M,,M,,*7C,0.0000000000,0.0000000000,12:47:29,9/1/2080,0,0
$GPRMC,124729.096,V,,,,,0.00,0.00,090180,,,N*49,0.0000000000,0.0000000000,12:47:29,9/1/2080,0,0
$GPGGA,124730.096,,,,,0,00,,,M,,M,,*74,0.0000000000,0.0000000000,12:47:30,9/1/2080,0,0
$GPRMC,124730.096,V,,,,,0.00,0.00,090180,,,N*41,0.0000000000,0.0000000000,12:47:30,9/1/2080,0,0
$GPGGA,124731.096,,,,,0,00,,,M,,M,,*75,0.0000000000,0.0000000000,12:47:31,9/1/2080,0,0
$GPRMC,124731.096,V,,,,,0.00,0.00,090180,,,N*40,0.0000000000,0.0000000000,12:47:31,9/1/2080,0,0
$GPGGA,124732.096,,,,,0,00,,,M,,M,,*76,0.0000000000,0.0000000000,12:47:32,9/1/2080,0,0
$GPRMC,124732.096,V,,,,,0.00,0.00,090180,,,N*43,0.0000000000,0.0000000000,12:47:32,9/1/2080,0,0
$GPGGA,124733.096,,,,,0,00,,,M,,M,,*77,0.0000000000,0.0000000000,12:47:33,9/1/2080,0,0
$GPRMC,124733.096,V,,,,,0.00,0.00,090180,,,N*42,0.0000000000,0.0000000000,12:47:33,9/1/2080,0,0
$GPGGA,124734.096,,,,,0,00,,,M,,M,,*70,0.0000000000,0.0000000000,12:47:34,9/1/2080,0,0
$GPRMC,124734.096,V,,,,,0.00,0.00,090180,,,N*45,0.0000000000,0.0000000000,12:47:34,9/1/2080,0,0
$GPGGA,124735.096,,,,,0,00,,,M,,M,,*71,0.0000000000,0.0000000000,12:47:35,9/1/2080,0,0
$GPRMC,124735.096,V,,,,,0.00,0.00,090180,,,N*44,0.0000000000,0.0000000000,12:47:35,9/1/2080,0,0
$GPGGA,124736.096,,,,,0,00,,,M,,M,,*72,0.0000000000,0.0000000000,12:47:36,9/1/2080,0,0
$GPRMC,124736.096,V,,,,,0.00,0.00,090180,,,N*47,0.0000000000,0.0000000000,12:47:36,9/1/2080,0,0
$GPGGA,124737.096,,,,,0,00,,,M,,M,,*73,0.0000000000,0.0000000000,12:47:37,9/1/2080,0,0
$GPRMC,124737.096,V,,,,,0.00,0.00,090180,,,N*46,0.0000000000,0.0000000000,12:47:37,9/1/2080,0,0
$GPGGA,124738.096,,,,,0,00,,,M,,M,,*7C,0.0000000000,0.0000000000,12:47:38,9/1/2080,0,0
$GPRMC,124738.096,V,,,,,0.00,0.00,090180,,,N*49,0.0000000000,0.0000000000,12:47:38,9/1/2080,0,0
$GPGGA,124739.096,,,,,0,00,,,M,,M,,*7D,0.0000000000,0.0000000000,12:47:39,9/1/2080,0,0
$GPRMC,124739.096,V,,,,,0.00,0.00,090180,,,N*48,0.0000000000,0.0000000000,12:47:39,9/1/2080,0,0
$GPGGA,124740.096,,,,,0,00,,,M,,M,,*73,0.0000000000,0.0000000000,12:47:40,9/1/2080,0,0
$GPRMC,124740.096,V,,,,,0.00,0.00,090180,,,N*46,0.0000000000,0.0000000000,12:47:40,9/1/2080,0,0
$GPGGA,124741.096,,,,,0,00,,,M,,M,,*72,0.0000000000,0.0000000000,12:47:41,9/1/2080,0,0
$GPRMC,124741.096,V,,,,,0.00,0.00,090180,,,N*47,0.0000000000,0.0000000000,12:47:41,9/1/2080,0,0
$GPGGA,124742.096,,,,,0,00,,,M,,M,,*71,0.0000000000,0.0000000000,12:47:42,9/1/2080,0,0
$GPRMC,124742.096,V,,,,,0.00,0.00,090180,,,N*44,0.0000000000,0.0000000000,12:47:42,9/1/2080,0,0
$GPGGA,124743.096,,,,,0,00,,,M,,M,,*70,0.0000000000,0.0000000000,12:47:43,9/1/2080,0,0
$GPRMC,124743.096,V,,,,,0.00,0.00,090180,,,N*45,0.0000000000,0.0000000000,12:47:43,9/1/2080,0,0
$GPGGA,124744.096,,,,,0,00,,,M,,M,,*77,0.0000000000,0.0000000000,12:47:44,9/1/2080,0,0
$GPRMC,124744.096,V,,,,,0.00,0.00,090180,,,N*42,0.0000000000,0.0000000000,12:47:44,9/1/2080,0,0
$GPGGA,124745.096,,,,,0,00,,,M,,M,,*76,0.0000000000,0.0000000000,12:47:45,9/1/2080,0,0
$GPRMC,124745.096,V,,,,,0.00,0.00,090180,,,N*43,0.0000000000,0.0000000000,12:47:45,9/1/2080,0,0
$GPGGA,124746.096,,,,,0,00,,,M,,M,,*75,0.0000000000,0.0000000000,12:47:46,9/1/2080,0,0
$GPRMC,124746.096,V,,,,,0.00,0.00,090180,,,N*40,0.0000000000,0.0000000000,12:47:46,9/1/2080,0,0
$GPGGA,124747.096,,,,,0,00,,,M,,M,,*74,0.0000000000,0.0000000000,12:47:47,9/1/2080,0,0
$GPRMC,124747.096,V,,,,,0.00,0.00,090180,,,N*41,0.0000000000,0.0000000000,12:47:47,9/1/2080,0,0
$GPGGA,124748.096,,,,,0,00,,,M,,M,,*7B,0.0000000000,0.0000000000,12:47:48,9/1/2080,0,0
$GPRMC,124748.096,V,,,,,0.00,0.00,090180,,,N*4E,0.0000000000,0.0000000000,12:47:48,9/1/2080,0,0
$GPGGA,124749.096,,,,,0,00,,,M,,M,,*7A,0.0000000000,0.0000000000,12:47:49,9/1/2080,0,0
$GPRMC,124749.096,V,,,,,0.00,0.00,090180,,,N*4F,0.0000000000,0.0000000000,12:47:49,9/1/2080,0,0
$GPGGA,124750.096,,,,,0,00,,,M,,M,,*72,0.0000000000,0.0000000000,12:47:50,9/1/2080,0,0
$GPRMC,124750.096,V,,,,,0.00,0.00,230316,,,N*42,0.0000000000,0.0000000000,12:47:50,23/3/2016,0,0
$GPGGA,124751.096,,,,,0,00,,,M,,M,,*73,0.0000000000,0.0000000000,12:47:51,23/3/2016,0,0
$GPRMC,124751.096,V,,,,,0.00,0.00,230316,,,N*43,0.0000000000,0.0000000000,12:47:51,23/3/2016,0,0
$GPGGA,124752.096,,,,,0,00,,,M,,M,,*70,0.0000000000,0.0000000000,12:47:52,23/3/2016,0,0
$GPRMC,124752.096,V,,,,,0.00,0.00,230316,,,N*40,0.0000000000,0.0000000000,12:47:52,23/3/2016,0,0
$GPGGA,124753.096,,,,,0,00,,,M,,M,,*71,0.0000000000,0.0000000000,12:47:53,23/3/2016,0,0
$GPRMC,124753.096,V,,,,,0.00,0.00,230316,,,N*41,0.0000000000,0.0000000000,12:47:53,23/3/2016,0,0
$GPGGA,124754.096,,,,,0,00,,,M,,M,,*76,0.0000000000,0.0000000000,12:47:54,23/3/2016,0,0
$GPRMC,124754.096,V,,,,,0.00,0.00,230316,,,N*46,0.0000000000,0.0000000000,12:47:54,23/3/2016,0,0
$GPGGA,124755.096,,,,,0,00,,,M,,M,,*77,0.0000000000,0.0000000000,12:47:55,23/3/2016,0,0
$GPRMC,124755.096,V,,,,,0.00,0.00,230316,,,N*47,0.0000000000,0.0000000000,12:47:55,23/3/2016,0,0
$GPGGA,124756.096,,,,,0,00,,,M,,M,,*74,0.0000000000,0.0000000000,12:47:56,23/3/2016,0,0
$GPRMC,124756.096,V,,,,,0.00,0.00,230316,,,N*44,0.0000000000,0.0000000000,12:47:56,23/3/2016,0,0
$GPGGA,124756.304,,,,,0,00,,,M,,M,,*7C,0.0000000000,0.0000000000,12:47:56,23/3/2016,0,0
$GPRMC,124756.304,V,,,,,0.00,0.00,230316,,,N*4C,0.0000000000,0.0000000000,12:47:56,23/3/2016,0,0
$GPGGA,124757.304,,,,,0,00,,,M,,M,,*7D,0.0000000000,0.0000000000,12:47:57,23/3/2016,0,0
$GPRMC,124757.304,V,,,,,0.00,0.00,230316,,,N*4D,0.0000000000,0.0000000000,12:47:57,23/3/2016,0,0
$GPGGA,124758.304,,,,,0,00,,,M,,M,,*72,0.0000000000,0.0000000000,12:47:58,23/3/2016,0,0
$GPRMC,124758.304,V,,,,,0.00,0.00,230316,,,N*42,0.0000000000,0.0000000000,12:47:58,23/3/2016,0,0
$GPGGA,124759.304,,,,,0,00,,,M,,M,,*73,0.0000000000,0.0000000000,12:47:59,23/3/2016,0,0
$GPRMC,124759.304,V,,,,,0.00,0.00,230316,,,N*43,0.0000000000,0.0000000000,12:47:59,23/3/2016,0,0
$GPGGA,124800.304,,,,,0,00,,,M,,M,,*70,0.0000000000,0.0000000000,12:48:0,23/3/2016,0,0
$GPRMC,124800.304,V,,,,,0.00,0.00,230316,,,N*40,0.0000000000,0.0000000000,12:48:0,23/3/2016,0,0
$GPGGA,124801.304,,,,,0,00,,,M,,M,,*71,0.0000000000,0.0000000000,12:48:1,23/3/2016,0,0
$GPRMC,124801.304,V,,,,,0.00,0.00,230316,,,N*41,0.0000000000,0.0000000000,12:48:1,23/3/2016,0,0
$GPGGA,124802.091,,,,,0,00,,,M,,M,,*7D,0.0000000000,0.0000000000,12:48:2,23/3/2016,0,0
$GPRMC,124802.091,V,,,,,0.00,0.00,230316,,,N*4D,0.0000000000,0.0000000000,12:48:2,23/3/2016,0,0
$GPGGA,124802.310,,,,,0,00,,,M,,M,,*77,0.0000000000,0.0000000000,12:48:2,23/3/2016,0,0
$GPRMC,124802.310,V,,,,,0.00,0.00,230316,,,N*47,0.0000000000,0.0000000000,12:48:2,23/3/2016,0,0
$GPGGA,124803.310,,,,,0,00,,,M,,M,,*76,0.0000000000,0.0000000000,12:48:3,23/3/2016,0,0
$GPRMC,124803.310,V,,,,,0.00,0.00,230316,,,N*46,0.0000000000,0.0000000000,12:48:3,23/3/2016,0,0
$GPGGA,124804.310,,,,,0,00,,,M,,M,,*71,0.0000000000,0.0000000000,12:48:4,23/3/2016,0,0
$GPRMC,124804.310,V,,,,,0.00,0.00,230316,,,N*41,0.0000000000,0.0000000000,12:48:4,23/3/2016,0,0
$GPGGA,124805.310,,,,,0,00,,,M,,M,,*70,0.0000000000,0.0000000000,12:48:5,23/3/2016,0,0
$GPRMC,124805.310,V,,,,,0.00,0.00,230316,,,N*40,0.0000000000,0.0000000000,12:48:5,23/3/2016,0,0
$GPGGA,124806.310,,,,,0,00,,,M,,M,,*73,0.0000000000,0.0000000000,12:48:6,23/3/2016,0,0
$GPRMC,124806.310,V,,,,,0.00,0.00,230316,,,N*43,0.0000000000,0.0000000000,12:48:6,23/3/2016,0,0
$GPGGA,124807.310,,,,,0,00,,,M,,M,,*72,0.0000000000,0.0000000000,12:48:7,23/3/2016,0,0
$GPRMC,124807.310,V,,,,,0.00,0.00,230316,,,N*42,0.0000000000,0.0000000000,12:48:7,23/3/2016,0,0
$GPGGA,124808.097,,,,,0,00,,,M,,M,,*71,0.0000000000,0.0000000000,12:48:8,23/3/2016,0,0
$GPRMC,124808.097,V,,,,,0.00,0.00,230316,,,N*41,0.0000000000,0.0000000000,12:48:8,23/3/2016,0,0
$GPGGA,124808.316,,,,,0,00,,,M,,M,,*7B,0.0000000000,0.0000000000,12:48:8,23/3/2016,0,0
$GPRMC,124808.316,V,,,,,0.00,0.00,230316,,,N*4B,0.0000000000,0.0000000000,12:48:8,23/3/2016,0,0
$GPGGA,124809.316,,,,,0,00,,,M,,M,,*7A,0.0000000000,0.0000000000,12:48:9,23/3/2016,0,0
$GPRMC,124809.316,V,,,,,0.00,0.00,230316,,,N*4A,0.0000000000,0.0000000000,12:48:9,23/3/2016,0,0
$GPGGA,124810.316,,,,,0,00,,,M,,M,,*72,0.0000000000,0.0000000000,12:48:10,23/3/2016,0,0
$GPRMC,124810.316,V,,,,,0.00,0.00,230316,,,N*42,0.0000000000,0.0000000000,12:48:10,23/3/2016,0,0
$GPGGA,124811.316,,,,,0,00,,,M,,M,,*73,0.0000000000,0.0000000000,12:48:11,23/3/2016,0,0
$GPRMC,124811.316,V,,,,,0.00,0.00,230316,,,N*43,0.0000000000,0.0000000000,12:48:11,23/3/2016,0,0
$GPGGA,124812.316,,,,,0,00,,,M,,M,,*70,0.0000000000,0.0000000000,12:48:12,23/3/2016,0,0
$GPRMC,124812.316,V,,,,,0.00,0.00,230316,,,N*40,0.0000000000,0.0000000000,12:48:12,23/3/2016,0,0
$GPGGA,124813.316,,,,,0,00,,,M,,M,,*71,0.0000000000,0.0000000000,12:48:13,23/3/2016,0,0
$GPRMC,124813.316,V,,,,,0.00,0.00,230316,,,N*41,0.0000000000,0.0000000000,12:48:13,23/3/2016,0,0
$GPGGA,124814.097,,,,,0,00,,,M,,M,,*7C,0.0000000000,0.0000000000,12:48:14,23/3/2016,0,0
$GPRMC,124814.097,V,,,,,0.00,0.00,230316,,,N*4C,0.0000000000,0.0000000000,12:48:14,23/3/2016,0,0
$GPGGA,124814.316,,,,,0,00,,,M,,M,,*76,0.0000000000,0.0000000000,12:48:14,23/3/2016,0,0
$GPRMC,124814.316,V,,,,,0.00,0.00,230316,,,N*46,0.0000000000,0.0000000000,12:48:14,23/3/2016,0,0
$GPGGA,124815.316,,,,,0,00,,,M,,M,,*77,0.0000000000,0.0000000000,12:48:15,23/3/2016,0,0
$GPRMC,124815.316,V,,,,,0.00,0.00,230316,,,N*47,0.0000000000,0.0000000000,12:48:15,23/3/2016,0,0
$GPGGA,124816.316,,,,,0,00,,,M,,M,,*74,0.0000000000,0.0000000000,12:48:16,23/3/2016,0,0
$GPRMC,124816.316,V,,,,,0.00,0.00,230316,,,N*44,0.0000000000,0.0000000000,12:48:16,23/3/2016,0,0
$GPGGA,124817.316,,,,,0,00,,,M,,M,,*75,0.0000000000,0.0000000000,12:48:17,23/3/2016,0,0
$GPRMC,124817.316,V,,,,,0.00,0.00,230316,,,N*45,0.0000000000,0.0000000000,12:48:17,23/3/2016,0,0
$GPGGA,124818.316,,,,,0,00,,,M,,M,,*7A,0.0000000000,0.0000000000,12:48:18,23/3/2016,0,0
$GPRMC,124818.316,V,,,,,0.00,0.00,230316,,,N*4A,0.0000000000,0.0000000000,12:48:18,23/3/2016,0,0
$GPGGA,124819.316,,,,,0,00,,,M,,M,,*7B,0.0000000000,0.0000000000,12:48:19,23/3/2016,0,0
$GPRMC,124819.316,V,,,,,0.00,0.00,230316,,,N*4B,0.0000000000,0.0000000000,12:48:19,23/3/2016,0,0
$GPGGA,124820.086,,,,,0,00,,,M,,M,,*7B,0.0000000000,0.0000000000,12:48:20,23/3/2016,0,0
$GPRMC,124820.086,V,,,,,0.00,0.00,230316,,,N*4B,0.0000000000,0.0000000000,12:48:20,23/3/2016,0,0
$GPGGA,124820.299,,,,,0,03,,,M,,M,,*74,0.0000000000,0.0000000000,12:48:20,23/3/2016,0,0
$GPRMC,124820.299,V,,,,,0.58,222.84,230316,,,N*44,0.0000000000,0.0000000000,12:48:20,23/3/2016,0,0
$GPGGA,124821.299,,,,,0,03,,,M,,M,,*75,0.0000000000,0.0000000000,12:48:21,23/3/2016,0,0
$GPRMC,124821.299,V,,,,,0.20,39.31,230316,,,N*7C,0.0000000000,0.0000000000,12:48:21,23/3/2016,0,0
$GPGGA,124823.000,,,,,0,03,,,M,,M,,*75,0.0000000000,0.0000000000,12:48:23,23/3/2016,0,0
$GPRMC,124823.000,V,,,,,0.15,9.32,230316,,,N*4A,0.0000000000,0.0000000000,12:48:23,23/3/2016,0,0
$GPGGA,124824.000,,,,,0,03,,,M,,M,,*72,0.0000000000,0.0000000000,12:48:24,23/3/2016,0,0
$GPRMC,124824.000,V,,,,,0.30,330.48,230316,,,N*4E,0.0000000000,0.0000000000,12:48:24,23/3/2016,0,0
$GPGGA,124825.000,,,,,0,03,,,M,,M,,*73,0.0000000000,0.0000000000,12:48:25,23/3/2016,0,0
$GPRMC,124825.000,V,,,,,0.31,348.23,230316,,,N*4C,0.0000000000,0.0000000000,12:48:25,23/3/2016,0,0
$GPGGA,124826.000,,,,,0,03,,,M,,M,,*70,0.0000000000,0.0000000000,12:48:26,23/3/2016,0,0
$GPRMC,124826.000,V,,,,,0.43,338.82,230316,,,N*46,0.0000000000,0.0000000000,12:48:26,23/3/2016,0,0
$GPGGA,124826.207,,,,,0,03,,,M,,M,,*75,0.0000000000,0.0000000000,12:48:26,23/3/2016,0,0
$GPRMC,124826.207,V,,,,,0.48,328.06,230316,,,N*45,0.0000000000,0.0000000000,12:48:26,23/3/2016,0,0
$GPGGA,124828.000,,,,,0,03,,,M,,M,,*7E,0.0000000000,0.0000000000,12:48:28,23/3/2016,0,0
$GPRMC,124828.000,V,,,,,0.42,350.54,230316,,,N*4C,0.0000000000,0.0000000000,12:48:28,23/3/2016,0,0
$GPGGA,124829.000,,,,,0,03,,,M,,M,,*7F,0.0000000000,0.0000000000,12:48:29,23/3/2016,0,0
$GPRMC,124829.000,V,,,,,0.55,299.84,230316,,,N*42,0.0000000000,0.0000000000,12:48:29,23/3/2016,0,0
$GPGGA,124830.000,,,,,0,03,,,M,,M,,*77,0.0000000000,0.0000000000,12:48:30,23/3/2016,0,0
$GPRMC,124830.000,V,,,,,0.52,303.55,230316,,,N*43,0.0000000000,0.0000000000,12:48:30,23/3/2016,0,0
$GPGGA,124831.000,,,,,0,03,,,M,,M,,*76,0.0000000000,0.0000000000,12:48:31,23/3/2016,0,0
$GPRMC,124831.000,V,,,,,0.31,277.77,230316,,,N*45,0.0000000000,0.0000000000,12:48:31,23/3/2016,0,0
$GPGGA,124832.000,,,,,0,03,,,M,,M,,*75,0.0000000000,0.0000000000,12:48:32,23/3/2016,0,0
$GPRMC,124832.000,V,,,,,0.25,296.72,230316,,,N*49,0.0000000000,0.0000000000,12:48:32,23/3/2016,0,0
$GPGGA,124832.207,,,,,0,03,,,M,,M,,*70,0.0000000000,0.0000000000,12:48:32,23/3/2016,0,0
$GPRMC,124832.207,V,,,,,0.35,292.69,230316,,,N*43,0.0000000000,0.0000000000,12:48:32,23/3/2016,0,0
$GPGGA,124834.000,,,,,0,03,,,M,,M,,*73,0.0000000000,0.0000000000,12:48:34,23/3/2016,0,0
$GPRMC,124834.000,V,,,,,0.37,286.08,230316,,,N*40,0.0000000000,0.0000000000,12:48:34,23/3/2016,0,0
$GPGGA,124835.000,,,,,0,03,,,M,,M,,*72,0.0000000000,0.0000000000,12:48:35,23/3/2016,0,0
$GPRMC,124835.000,V,,,,,0.19,290.88,230316,,,N*42,0.0000000000,0.0000000000,12:48:35,23/3/2016,0,0
$GPGGA,124836.000,,,,,0,03,,,M,,M,,*71,0.0000000000,0.0000000000,12:48:36,23/3/2016,0,0
$GPRMC,124836.000,V,,,,,0.13,13.61,230316,,,N*75,0.0000000000,0.0000000000,12:48:36,23/3/2016,0,0
$GPGGA,124837.000,,,,,0,03,,,M,,M,,*70,0.0000000000,0.0000000000,12:48:37,23/3/2016,0,0
$GPRMC,124837.000,V,,,,,0.33,48.18,230316,,,N*76,0.0000000000,0.0000000000,12:48:37,23/3/2016,0,0
$GPGGA,124838.000,,,,,0,03,,,M,,M,,*7F,0.0000000000,0.0000000000,12:48:38,23/3/2016,0,0
$GPRMC,124838.000,V,,,,,0.41,90.45,230316,,,N*71,0.0000000000,0.0000000000,12:48:38,23/3/2016,0,0
$GPGGA,124838.207,,,,,0,03,,,M,,M,,*7A,0.0000000000,0.0000000000,12:48:38,23/3/2016,0,0
$GPRMC,124838.207,V,,,,,0.51,63.45,230316,,,N*79,0.0000000000,0.0000000000,12:48:38,23/3/2016,0,0
$GPGGA,124840.000,,,,,0,03,,,M,,M,,*70,0.0000000000,0.0000000000,12:48:40,23/3/2016,0,0
$GPRMC,124840.000,V,,,,,0.60,48.70,230316,,,N*7E,0.0000000000,0.0000000000,12:48:40,23/3/2016,0,0
$GPGGA,124841.000,,,,,0,03,,,M,,M,,*71,0.0000000000,0.0000000000,12:48:41,23/3/2016,0,0
$GPRMC,124841.000,V,,,,,0.97,88.55,230316,,,N*7C,0.0000000000,0.0000000000,12:48:41,23/3/2016,0,0
$GPGGA,124842.000,,,,,0,03,,,M,,M,,*72,0.0000000000,0.0000000000,12:48:42,23/3/2016,0,0
$GPRMC,124842.000,V,,,,,0.60,93.67,230316,,,N*7C,0.0000000000,0.0000000000,12:48:42,23/3/2016,0,0
$GPGGA,124843.000,,,,,0,03,,,M,,M,,*73,0.0000000000,0.0000000000,12:48:43,23/3/2016,0,0
$GPRMC,124843.000,V,,,,,0.32,139.46,230316,,,N*48,0.0000000000,0.0000000000,12:48:43,23/3/2016,0,0
$GPGGA,124844.000,,,,,0,03,,,M,,M,,*74,0.0000000000,0.0000000000,12:48:44,23/3/2016,0,0
$GPRMC,124844.207,V,,,,,0.30,12.50,230316,,,N*77,0.0000000000,0.0000000000,12:48:44,23/3/2016,0,0
$GPGGA,124846.000,,,,,0,03,,,M,,M,,*76,0.0000000000,0.0000000000,12:48:46,23/3/2016,0,0
$GPRMC,124846.000,V,,,,,0.39,40.36,230316,,,N*7E,0.0000000000,0.0000000000,12:48:46,23/3/2016,0,0
$GPGGA,124847.000,,,,,0,03,,,M,,M,,*77,0.0000000000,0.0000000000,12:48:47,23/3/2016,0,0
$GPRMC,124847.000,V,,,,,0.41,92.68,230316,,,N*74,0.0000000000,0.0000000000,12:48:47,23/3/2016,0,0
$GPGGA,124848.000,,,,,0,03,,,M,,M,,*78,0.0000000000,0.0000000000,12:48:48,23/3/2016,0,0
$GPRMC,124848.000,V,,,,,0.27,24.36,230316,,,N*7D,0.0000000000,0.0000000000,12:48:48,23/3/2016,0,0
$GPGGA,124849.000,,,,,0,03,,,M,,M,,*79,0.0000000000,0.0000000000,12:48:49,23/3/2016,0,0
$GPRMC,124849.000,V,,,,,0.34,34.48,230316,,,N*76,0.0000000000,0.0000000000,12:48:49,23/3/2016,0,0
$GPGGA,124850.000,,,,,0,03,,,M,,M,,*71,0.0000000000,0.0000000000,12:48:50,23/3/2016,0,0
$GPRMC,124850.214,V,,,,,0.40,49.70,230316,,,N*7B,0.0000000000,0.0000000000,12:48:50,23/3/2016,0,0
$GPGGA,124852.000,,,,,0,03,,,M,,M,,*73,0.0000000000,0.0000000000,12:48:52,23/3/2016,0,0
$GPRMC,124852.000,V,,,,,0.27,74.71,230316,,,N*70,0.0000000000,0.0000000000,12:48:52,23/3/2016,0,0
$GPGGA,124853.000,,,,,0,03,,,M,,M,,*72,0.0000000000,0.0000000000,12:48:53,23/3/2016,0,0
$GPRMC,124853.000,V,,,,,0.31,91.12,230316,,,N*78,0.0000000000,0.0000000000,12:48:53,23/3/2016,0,0
$GPGGA,124854.000,,,,,0,03,,,M,,M,,*75,0.0000000000,0.0000000000,12:48:54,23/3/2016,0,0
$GPRMC,124854.000,V,,,,,0.32,85.30,230316,,,N*79,0.0000000000,0.0000000000,12:48:54,23/3/2016,0,0
$GPGGA,124855.000,,,,,0,03,,,M,,M,,*74,0.0000000000,0.0000000000,12:48:55,23/3/2016,0,0
$GPRMC,124855.000,V,,,,,0.37,0.08,230316,,,N*4B,0.0000000000,0.0000000000,12:48:55,23/3/2016,0,0
$GPGGA,124856.000,,,,,0,03,,,M,,M,,*77,0.0000000000,0.0000000000,12:48:56,23/3/2016,0,0
$GPRMC,124856.214,A,5130.1115,N,00000.2772,E,0.54,31.86,230316,,,A*5E,51.5018539428,0.0046200003,12:48:56,23/3/2016,0,0
$GPGGA,124858.000,5130.1116,N,00000.2775,E,1,04,3.22,102.0,M,47.0,M,,*6E,51.5018653869,0.0046250000,12:48:58,23/3/2016,0,0
$GPRMC,124858.000,A,5130.1116,N,00000.2775,E,0.34,65.48,230316,,,A*56,51.5018653869,0.0046250000,12:48:58,23/3/2016,0,0
$GPGGA,124859.000,5130.1118,N,00000.2779,E,1,04,3.22,102.0,M,47.0,M,,*6D,51.5018653869,0.0046316003,12:48:59,23/3/2016,0,0
$GPRMC,124859.000,A,5130.1118,N,00000.2779,E,0.60,65.92,230316,,,A*53,51.5018653869,0.0046316003,12:48:59,23/3/2016,0,0
$GPGGA,124900.000,5130.1120,N,00000.2780,E,1,04,3.22,102.0,M,47.0,M,,*6D,51.5018653869,0.0046332998,12:49:0,23/3/2016,0,0
$GPRMC,124900.000,A,5130.1120,N,00000.2780,E,0.08,33.10,230316,,,A*54,51.5018653869,0.0046332998,12:49:0,23/3/2016,0,0
$GPGGA,124901.000,5130.1121,N,00000.2781,E,1,04,3.22,102.0,M,47.0,M,,*6C,51.5018730163,0.0046350002,12:49:1,23/3/2016,0,0
$GPRMC,124901.000,A,5130.1121,N,00000.2781,E,0.14,290.95,230316,,,A*6E,51.5018730163,0.0046350002,12:49:1,23/3/2016,0,0
$GPGGA,124902.000,5130.1121,N,00000.2777,E,1,04,3.22,102.0,M,47.0,M,,*66,51.5018730163,0.0046283001,12:49:2,23/3/2016,0,0
$GPRMC,124902.000,A,5130.1121,N,00000.2777,E,0.39,235.79,230316,,,A*66,51.5018730163,0.0046283001,12:49:2,23/3/2016,0,0
$GPGGA,124903.000,5130.1123,N,00000.2776,E,1,04,3.21,101.9,M,47.0,M,,*6D,51.5018730163,0.0046266002,12:49:3,23/3/2016,0,0
$GPRMC,124903.000,A,5130.1123,N,00000.2776,E,0.35,234.57,230316,,,A*65,51.5018730163,0.0046266002,12:49:3,23/3/2016,0,0
$GPGGA,124904.000,5130.1124,N,00000.2771,E,1,04,3.22,101.8,M,47.0,M,,*68,51.5018730163,0.0046183004,12:49:4,23/3/2016,0,0
$GPRMC,124904.000,A,5130.1124,N,00000.2771,E,0.38,239.73,230316,,,A*64,51.5018730163,0.0046183004,12:49:4,23/3/2016,0,0
$GPGGA,124905.000,5130.1125,N,00000.2770,E,1,04,3.22,101.8,M,47.0,M,,*69,51.5018730163,0.0046166000,12:49:5,23/3/2016,0,0
$GPRMC,124905.000,A,5130.1125,N,00000.2770,E,0.24,243.31,230316,,,A*63,51.5018730163,0.0046166000,12:49:5,23/3/2016,0,0
$GPGGA,124906.000,5130.1122,N,00000.2765,E,1,04,3.21,101.8,M,47.0,M,,*6A,51.5018730163,0.0046083002,12:49:6,23/3/2016,0,0
$GPRMC,124906.000,A,5130.1122,N,00000.2765,E,0.37,216.36,230316,,,A*66,51.5018730163,0.0046083002,12:49:6,23/3/2016,0,0
$GPGGA,124907.000,5130.1124,N,00000.2763,E,1,04,3.22,101.7,M,47.0,M,,*67,51.5018730163,0.0046050004,12:49:7,23/3/2016,0,0
$GPRMC,124907.000,A,5130.1124,N,00000.2763,E,0.18,235.40,230316,,,A*6A,51.5018730163,0.0046050004,12:49:7,23/3/2016,0,0
$GPGGA,124908.000,5130.1125,N,00000.2758,E,1,04,3.22,101.5,M,47.0,M,,*63,51.5018730163,0.0045966000,12:49:8,23/3/2016,0,0
$GPRMC,124908.000,A,5130.1125,N,00000.2758,E,0.13,308.51,230316,,,A*68,51.5018730163,0.0045966000,12:49:8,23/3/2016,0,0
$GPGGA,124909.000,5130.1125,N,00000.2754,E,1,04,3.22,101.4,M,47.0,M,,*6F,51.5018730163,0.0045900001,12:49:9,23/3/2016,0,0
$GPRMC,124909.000,A,5130.1125,N,00000.2754,E,0.15,304.06,230316,,,A*6D,51.5018730163,0.0045900001,12:49:9,23/3/2016,0,0
$GPGGA,124910.000,5130.1125,N,00000.2747,E,1,04,3.22,101.3,M,47.0,M,,*62,51.5018730163,0.0045782999,12:49:10,23/3/2016,0,0
$GPRMC,124910.000,A,5130.1125,N,00000.2747,E,0.27,304.36,230316,,,A*65,51.5018730163,0.0045782999,12:49:10,23/3/2016,0,0
$GPGGA,124911.000,5130.1124,N,00000.2741,E,1,04,3.21,101.2,M,47.0,M,,*66,51.5018730163,0.0045683002,12:49:11,23/3/2016,0,0
$GPRMC,124911.000,A,5130.1124,N,00000.2741,E,0.27,300.48,230316,,,A*6E,51.5018730163,0.0045683002,12:49:11,23/3/2016,0,0
$GPGGA,124912.000,5130.1123,N,00000.2743,E,1,04,3.21,101.2,M,47.0,M,,*60,51.5018730163,0.0045716004,12:49:12,23/3/2016,0,0
$GPRMC,124912.000,A,5130.1123,N,00000.2743,E,0.15,72.74,230316,,,A*50,51.5018730163,0.0045716004,12:49:12,23/3/2016,0,0
$GPGGA,124913.000,5130.1124,N,00000.2740,E,1,04,3.22,101.1,M,47.0,M,,*65,51.5018730163,0.0045666003,12:49:13,23/3/2016,0,0
$GPRMC,124913.000,A,5130.1124,N,00000.2740,E,0.16,40.38,230316,,,A*5F,51.5018730163,0.0045666003,12:49:13,23/3/2016,0,0
$GPGGA,124914.000,5130.1125,N,00000.2743,E,1,04,3.21,101.0,M,47.0,M,,*62,51.5018730163,0.0045716004,12:49:14,23/3/2016,0,0
$GPRMC,124914.000,A,5130.1125,N,00000.2743,E,0.35,104.75,230316,,,A*63,51.5018730163,0.0045716004,12:49:14,23/3/2016,0,0
$GPGGA,124915.000,5130.1127,N,00000.2742,E,1,04,3.21,101.0,M,47.0,M,,*60,51.5018806457,0.0045700001,12:49:15,23/3/2016,0,0
$GPRMC,124915.000,A,5130.1127,N,00000.2742,E,0.25,98.16,230316,,,A*51,51.5018806457,0.0045700001,12:49:15,23/3/2016,0,0
$GPGGA,124916.000,5130.1130,N,00000.2744,E,1,04,3.21,100.9,M,47.0,M,,*6B,51.5018806457,0.0045733003,12:49:16,23/3/2016,0,0
$GPRMC,124916.000,A,5130.1130,N,00000.2744,E,0.31,89.60,230316,,,A*56,51.5018806457,0.0045733003,12:49:16,23/3/2016,0,0
$GPGGA,124917.000,5130.1132,N,00000.2743,E,1,04,3.21,100.9,M,47.0,M,,*6F,51.5018882751,0.0045716004,12:49:17,23/3/2016,0,0
$GPRMC,124917.000,A,5130.1132,N,00000.2743,E,0.27,88.35,230316,,,A*54,51.5018882751,0.0045716004,12:49:17,23/3/2016,0,0
$GPGGA,124918.000,5130.1133,N,00000.2745,E,1,04,3.21,100.9,M,47.0,M,,*67,51.5018882751,0.0045749998,12:49:18,23/3/2016,0,0
$GPRMC,124918.000,A,5130.1133,N,00000.2745,E,0.58,94.10,230316,,,A*5E,51.5018882751,0.0045749998,12:49:18,23/3/2016,0,0
$GPGGA,124919.000,5130.1135,N,00000.2748,E,1,04,3.21,100.9,M,47.0,M,,*6D,51.5018882751,0.0045799999,12:49:19,23/3/2016,0,0
$GPRMC,124919.000,A,5130.1135,N,00000.2748,E,0.62,70.63,230316,,,A*53,51.5018882751,0.0045799999,12:49:19,23/3/2016,0,0
$GPGGA,124920.000,5130.1135,N,00000.2752,E,1,04,3.21,100.9,M,47.0,M,,*6C,51.5018882751,0.0045866003,12:49:20,23/3/2016,0,0
$GPRMC,124920.000,A,5130.1135,N,00000.2752,E,0.60,83.37,230316,,,A*5D,51.5018882751,0.0045866003,12:49:20,23/3/2016,0,0
$GPGGA,124921.000,5130.1135,N,00000.2754,E,1,04,3.21,100.9,M,47.0,M,,*6B,51.5018882751,0.0045900001,12:49:21,23/3/2016,0,0
$GPRMC,124921.000,A,5130.1135,N,00000.2754,E,0.49,104.91,230316,,,A*63,51.5018882751,0.0045900001,12:49:21,23/3/2016,0,0
$GPGGA,124922.000,5130.1136,N,00000.2760,E,1,04,3.21,100.9,M,47.0,M,,*6C,51.5018959045,0.0046000003,12:49:22,23/3/2016,0,0
$GPRMC,124922.000,A,5130.1136,N,00000.2760,E,0.45,99.36,230316,,,A*50,51.5018959045,0.0046000003,12:49:22,23/3/2016,0,0
$GPGGA,124923.000,5130.1138,N,00000.2762,E,1,04,3.21,101.0,M,47.0,M,,*69,51.5018959045,0.0046032996,12:49:23,23/3/2016,0,0
$GPRMC,124923.000,A,5130.1138,N,00000.2762,E,0.20,81.65,230316,,,A*51,51.5018959045,0.0046032996,12:49:23,23/3/2016,0,0
$GPGGA,124924.000,5130.1139,N,00000.2764,E,1,04,3.21,101.0,M,47.0,M,,*69,51.5018959045,0.0046066002,12:49:24,23/3/2016,0,0
$GPRMC,124924.000,A,5130.1139,N,00000.2764,E,0.18,42.86,230316,,,A*58,51.5018959045,0.0046066002,12:49:24,23/3/2016,0,0
$GPGGA,124925.000,5130.1139,N,00000.2764,E,1,04,3.21,101.0,M,47.0,M,,*68,51.5018959045,0.0046066002,12:49:25,23/3/2016,0,0
$GPRMC,124925.000,A,5130.1139,N,00000.2764,E,0.08,25.67,230316,,,A*56,51.5018959045,0.0046066002,12:49:25,23/3/2016,0,0
$GPGGA,124926.000,5130.1139,N,00000.2764,E,1,04,3.21,101.0,M,47.0,M,,*6B,51.5018959045,0.0046066002,12:49:26,23/3/2016,0,0
$GPRMC,124926.000,A,5130.1139,N,00000.2764,E,0.22,126.29,230316,,,A*65,51.5018959045,0.0046066002,12:49:26,23/3/2016,0,0
$GPGGA,124927.000,5130.1139,N,00000.2765,E,1,04,3.21,101.0,M,47.0,M,,*6B,51.5018959045,0.0046083002,12:49:27,23/3/2016,0,0
$GPRMC,124927.000,A,5130.1139,N,00000.2765,E,0.18,193.37,230316,,,A*6D,51.5018959045,0.0046083002,12:49:27,23/3/2016,0,0
$GPGGA,124928.000,5130.1139,N,00000.2765,E,1,04,3.21,101.0,M,47.0,M,,*64,51.5018959045,0.0046083002,12:49:28,23/3/2016,0,0
$GPRMC,124928.000,A,5130.1139,N,00000.2765,E,0.28,250.88,230316,,,A*69,51.5018959045,0.0046083002,12:49:28,23/3/2016,0,0
$GPGGA,124929.000,5130.1139,N,00000.2764,E,1,04,3.21,101.0,M,47.0,M,,*64,51.5018959045,0.0046066002,12:49:29,23/3/2016,0,0
$GPRMC,124929.000,A,5130.1139,N,00000.2764,E,0.09,123.25,230316,,,A*6A,51.5018959045,0.0046066002,12:49:29,23/3/2016,0,0
$GPGGA,124930.000,5130.1139,N,00000.2764,E,1,04,3.21,101.0,M,47.0,M,,*6C,51.5018959045,0.0046066002,12:49:30,23/3/2016,0,0
$GPRMC,124930.000,A,5130.1139,N,00000.2764,E,0.23,73.15,230316,,,A*5D,51.5018959045,0.0046066002,12:49:30,23/3/2016,0,0
$GPGGA,124931.000,5130.1139,N,00000.2765,E,1,04,3.21,101.0,M,47.0,M,,*6C,51.5018959045,0.0046083002,12:49:31,23/3/2016,0,0
$GPRMC,124931.000,A,5130.1139,N,00000.2765,E,0.21,88.75,230316,,,A*5D,51.5018959045,0.0046083002,12:49:31,23/3/2016,0,0
$GPGGA,124932.000,5130.1139,N,00000.2766,E,1,04,3.21,101.0,M,47.0,M,,*6C,51.5018959045,0.0046100001,12:49:32,23/3/2016,0,0
$GPRMC,124932.000,A,5130.1139,N,00000.2766,E,0.26,132.84,230316,,,A*64,51.5018959045,0.0046100001,12:49:32,23/3/2016,0,0
$GPGGA,124933.000,5130.1138,N,00000.2767,E,1,04,3.21,101.0,M,47.0,M,,*6D,51.5018959045,0.0046115999,12:49:33,23/3/2016,0,0
$GPRMC,124933.000,A,5130.1138,N,00000.2767,E,0.54,113.94,230316,,,A*62,51.5018959045,0.0046115999,12:49:33,23/3/2016,0,0
$GPGGA,124934.000,5130.1138,N,00000.2769,E,1,04,3.21,101.0,M,47.0,M,,*64,51.5018959045,0.0046150007,12:49:34,23/3/2016,0,0
$GPRMC,124934.000,A,5130.1138,N,00000.2769,E,0.41,119.60,230316,,,A*6E,51.5018959045,0.0046150007,12:49:34,23/3/2016,0,0
$GPGGA,124935.000,5130.1137,N,00000.2771,E,1,04,3.21,101.0,M,47.0,M,,*63,51.5018959045,0.0046183004,12:49:35,23/3/2016,0,0
$GPRMC,124935.000,A,5130.1137,N,00000.2771,E,0.27,105.00,230316,,,A*62,51.5018959045,0.0046183004,12:49:35,23/3/2016,0,0
$GPGGA,124936.000,5130.1137,N,00000.2772,E,1,04,3.21,100.9,M,47.0,M,,*6B,51.5018959045,0.0046200003,12:49:36,23/3/2016,0,0
$GPRMC,124936.000,A,5130.1137,N,00000.2772,E,0.29,92.31,230316,,,A*51,51.5018959045,0.0046200003,12:49:36,23/3/2016,0,0
$GPGGA,124937.000,5130.1137,N,00000.2773,E,1,04,3.21,100.9,M,47.0,M,,*6B,51.5018959045,0.0046216006,12:49:37,23/3/2016,0,0
$GPRMC,124937.000,A,5130.1137,N,00000.2773,E,0.57,89.99,230316,,,A*50,51.5018959045,0.0046216006,12:49:37,23/3/2016,0,0
$GPGGA,124938.000,5130.1137,N,00000.2776,E,1,04,3.21,100.9,M,47.0,M,,*61,51.5018959045,0.0046266002,12:49:38,23/3/2016,0,0
$GPRMC,124938.000,A,5130.1137,N,00000.2776,E,0.46,72.72,230316,,,A*5B,51.5018959045,0.0046266002,12:49:38,23/3/2016,0,0
$GPGGA,124939.000,5130.1138,N,00000.2778,E,1,04,3.21,100.9,M,47.0,M,,*61,51.5018959045,0.0046300001,12:49:39,23/3/2016,0,0
$GPRMC,124939.000,A,5130.1138,N,00000.2778,E,0.22,56.74,230316,,,A*59,51.5018959045,0.0046300001,12:49:39,23/3/2016,0,0
$GPGGA,124940.000,5130.1138,N,00000.2779,E,1,04,3.21,100.9,M,47.0,M,,*6E,51.5018959045,0.0046316003,12:49:40,23/3/2016,0,0
$GPRMC,124940.000,A,5130.1138,N,00000.2779,E,0.35,82.75,230316,,,A*58,51.5018959045,0.0046316003,12:49:40,23/3/2016,0,0
$GPGGA,124941.000,5130.1138,N,00000.2780,E,1,04,3.21,100.9,M,47.0,M,,*69,51.5018959045,0.0046332998,12:49:41,23/3/2016,0,0
$GPRMC,124941.000,A,5130.1138,N,00000.2780,E,0.18,115.41,230316,,,A*68,51.5018959045,0.0046332998,12:49:41,23/3/2016,0,0
$GPGGA,124942.000,5130.1138,N,00000.2781,E,1,04,3.21,100.9,M,47.0,M,,*6B,51.5018959045,0.0046350002,12:49:42,23/3/2016,0,0
$GPRMC,124942.000,A,5130.1138,N,00000.2781,E,0.21,98.88,230316,,,A*51,51.5018959045,0.0046350002,12:49:42,23/3/2016,0,0
$GPGGA,124943.000,5130.1138,N,00000.2782,E,1,04,3.21,100.9,M,47.0,M,,*69,51.5018959045,0.0046366004,12:49:43,23/3/2016,0,0
$GPRMC,124943.000,A,5130.1138,N,00000.2782,E,0.25,117.27,230316,,,A*64,51.5018959045,0.0046366004,12:49:43,23/3/2016,0,0
$GPGGA,124944.000,5130.1137,N,00000.2783,E,1,04,3.21,100.9,M,47.0,M,,*60,51.5018959045,0.0046382999,12:49:44,23/3/2016,0,0
$GPRMC,124944.000,A,5130.1137,N,00000.2783,E,0.13,131.41,230316,,,A*6C,51.5018959045,0.0046382999,12:49:44,23/3/2016,0,0
$GPGGA,124945.000,5130.1137,N,00000.2783,E,1,04,3.21,100.9,M,47.0,M,,*61,51.5018959045,0.0046382999,12:49:45,23/3/2016,0,0
$GPRMC,124945.000,A,5130.1137,N,00000.2783,E,0.32,88.52,230316,,,A*5F,51.5018959045,0.0046382999,12:49:45,23/3/2016,0,0
$GPGGA,124946.000,5130.1137,N,00000.2785,E,1,04,3.21,100.9,M,47.0,M,,*64,51.5018959045,0.0046416001,12:49:46,23/3/2016,0,0
$GPRMC,124946.000,A,5130.1137,N,00000.2785,E,0.29,7.52,230316,,,A*67,51.5018959045,0.0046416001,12:49:46,23/3/2016,0,0
$GPGGA,124947.000,5130.1138,N,00000.2785,E,1,04,6.01,100.9,M,47.0,M,,*6D,51.5018959045,0.0046416001,12:49:47,23/3/2016,0,0
$GPRMC,124947.000,A,5130.1138,N,00000.2785,E,0.22,31.41,230316,,,A*55,51.5018959045,0.0046416001,12:49:47,23/3/2016,0,0
$GPGGA,124948.000,5130.1139,N,00000.2785,E,1,04,3.20,100.9,M,47.0,M,,*65,51.5018959045,0.0046416001,12:49:48,23/3/2016,0,0
$GPRMC,124948.000,A,5130.1139,N,00000.2785,E,0.17,5.38,230316,,,A*64,51.5018959045,0.0046416001,12:49:48,23/3/2016,0,0
$GPGGA,124949.000,5130.1139,N,00000.2785,E,1,04,6.02,100.9,M,47.0,M,,*61,51.5018959045,0.0046416001,12:49:49,23/3/2016,0,0
$GPRMC,124949.000,A,5130.1139,N,00000.2785,E,0.26,274.06,230316,,,A*6E,51.5018959045,0.0046416001,12:49:49,23/3/2016,0,0
$GPGGA,124950.000,5130.1139,N,00000.2784,E,1,04,3.21,100.9,M,47.0,M,,*6C,51.5018959045,0.0046399998,12:49:50,23/3/2016,0,0
$GPRMC,124950.000,A,5130.1139,N,00000.2784,E,0.18,264.73,230316,,,A*69,51.5018959045,0.0046399998,12:49:50,23/3/2016,0,0
$GPGGA,124951.000,5130.1139,N,00000.2783,E,1,04,3.20,100.9,M,47.0,M,,*6B,51.5018959045,0.0046382999,12:49:51,23/3/2016,0,0
$GPRMC,124951.000,A,5130.1139,N,00000.2783,E,0.10,301.54,230316,,,A*60,51.5018959045,0.0046382999,12:49:51,23/3/2016,0,0
$GPGGA,124952.000,5130.1139,N,00000.2783,E,1,04,3.21,100.9,M,47.0,M,,*69,51.5018959045,0.0046382999,12:49:52,23/3/2016,0,0
$GPRMC,124952.000,A,5130.1139,N,00000.2783,E,0.05,191.39,230316,,,A*67,51.5018959045,0.0046382999,12:49:52,23/3/2016,0,0
$GPGGA,124953.000,5130.1139,N,00000.2783,E,1,04,3.20,100.9,M,47.0,M,,*69,51.5018959045,0.0046382999,12:49:53,23/3/2016,0,0
$GPRMC,124953.000,A,5130.1139,N,00000.2783,E,0.22,100.07,230316,,,A*66,51.5018959045,0.0046382999,12:49:53,23/3/2016,0,0
$GPGGA,124954.000,5130.1139,N,00000.2784,E,1,04,3.20,100.9,M,47.0,M,,*69,51.5018959045,0.0046399998,12:49:54,23/3/2016,0,0
$GPRMC,124954.000,A,5130.1139,N,00000.2784,E,0.17,116.94,230316,,,A*6D,51.5018959045,0.0046399998,12:49:54,23/3/2016,0,0
$GPGGA,124955.000,5130.1139,N,00000.2785,E,1,04,3.21,100.9,M,47.0,M,,*68,51.5018959045,0.0046416001,12:49:55,23/3/2016,0,0
$GPRMC,124955.000,A,5130.1139,N,00000.2785,E,0.02,239.32,230316,,,A*6B,51.5018959045,0.0046416001,12:49:55,23/3/2016,0,0
$GPGGA,124956.000,5130.1139,N,00000.2784,E,1,04,3.20,100.9,M,47.0,M,,*6B,51.5018959045,0.0046399998,12:49:56,23/3/2016,0,0
$GPRMC,124956.000,A,5130.1139,N,00000.2784,E,0.06,172.50,230316,,,A*65,51.5018959045,0.0046399998,12:49:56,23/3/2016,0,0
$GPGGA,124957.000,5130.1139,N,00000.2784,E,1,05,2.89,100.9,M,47.0,M,,*69,51.5018959045,0.0046399998,12:49:57,23/3/2016,0,0
$GPRMC,124957.000,A,5130.1139,N,00000.2784,E,0.04,270.33,230316,,,A*62,51.5018959045,0.0046399998,12:49:57,23/3/2016,0,0
$GPGGA,124958.000,5130.1139,N,00000.2785,E,1,05,2.89,100.9,M,47.0,M,,*67,51.5018959045,0.0046416001,12:49:58,23/3/2016,0,0
$GPRMC,124958.000,A,5130.1139,N,00000.2785,E,0.16,23.98,230316,,,A*5A,51.5018959045,0.0046416001,12:49:58,23/3/2016,0,0
$GPGGA,124959.000,5130.1139,N,00000.2786,E,1,05,2.89,100.9,M,47.0,M,,*65,51.5018959045,0.0046433000,12:49:59,23/3/2016,0,0
$GPRMC,124959.000,A,5130.1139,N,00000.2786,E,0.11,347.10,230316,,,A*6E,51.5018959045,0.0046433000,12:49:59,23/3/2016,0,0
$GPGGA,125000.000,5130.1139,N,00000.2786,E,1,05,3.26,100.9,M,47.0,M,,*65,51.5018959045,0.0046433000,12:50:0,23/3/2016,0,0
$GPRMC,125000.000,A,5130.1139,N,00000.2786,E,0.22,42.30,230316,,,A*5E,51.5018959045,0.0046433000,12:50:0,23/3/2016,0,0
$GPGGA,125001.000,5130.1140,N,00000.2786,E,1,05,2.89,100.9,M,47.0,M,,*6E,51.5018959045,0.0046433000,12:50:1,23/3/2016,0,0
$GPRMC,125001.000,A,5130.1140,N,00000.2786,E,0.21,46.77,230316,,,A*55,51.5018959045,0.0046433000,12:50:1,23/3/2016,0,0
$GPGGA,125002.000,5130.1140,N,00000.2787,E,1,05,2.89,100.9,M,47.0,M,,*6C,51.5018959045,0.0046450004,12:50:2,23/3/2016,0,0
$GPRMC,125002.000,A,5130.1140,N,00000.2787,E,0.16,122.26,230316,,,A*64,51.5018959045,0.0046450004,12:50:2,23/3/2016,0,0
$GPGGA,125003.000,5130.1140,N,00000.2788,E,1,05,2.89,100.9,M,47.0,M,,*62,51.5018959045,0.0046465997,12:50:3,23/3/2016,0,0
$GPRMC,125003.000,A,5130.1140,N,00000.2788,E,0.30,91.47,230316,,,A*50,51.5018959045,0.0046465997,12:50:3,23/3/2016,0,0
$GPGGA,125004.000,5130.1140,N,00000.2789,E,1,05,2.89,100.9,M,47.0,M,,*64,51.5018959045,0.0046482996,12:50:4,23/3/2016,0,0
$GPRMC,125004.000,A,5130.1140,N,00000.2789,E,0.35,119.63,230316,,,A*64,51.5018959045,0.0046482996,12:50:4,23/3/2016,0,0
$GPGGA,125005.000,5130.1139,N,00000.2790,E,1,05,2.89,100.9,M,47.0,M,,*63,51.5018959045,0.0046500000,12:50:5,23/3/2016,0,0
$GPRMC,125005.000,A,5130.1139,N,00000.2790,E,0.56,120.75,230316,,,A*6B,51.5018959045,0.0046500000,12:50:5,23/3/2016,0,0
$GPGGA,125006.000,5130.1139,N,00000.2792,E,1,05,2.89,100.9,M,47.0,M,,*62,51.5018959045,0.0046533002,12:50:6,23/3/2016,0,0
$GPRMC,125006.000,A,5130.1139,N,00000.2792,E,0.54,119.01,230316,,,A*61,51.5018959045,0.0046533002,12:50:6,23/3/2016,0,0
$GPGGA,125007.000,5130.1138,N,00000.2794,E,1,05,2.89,100.9,M,47.0,M,,*64,51.5018959045,0.0046565999,12:50:7,23/3/2016,0,0
$GPRMC,125007.000,A,5130.1138,N,00000.2794,E,0.18,131.17,230316,,,A*62,51.5018959045,0.0046565999,12:50:7,23/3/2016,0,0
$GPGGA,125008.000,5130.1137,N,00000.2795,E,1,05,2.88,100.9,M,47.0,M,,*64,51.5018959045,0.0046582999,12:50:8,23/3/2016,0,0
$GPRMC,125008.000,A,5130.1137,N,00000.2795,E,0.35,112.16,230316,,,A*6C,51.5018959045,0.0046582999,12:50:8,23/3/2016,0,0
$GPGGA,125009.000,5130.1137,N,00000.2796,E,1,05,2.89,100.9,M,47.0,M,,*67,51.5018959045,0.0046600008,12:50:9,23/3/2016,0,0
$GPRMC,125009.000,A,5130.1137,N,00000.2796,E,0.23,106.15,230316,,,A*6F,51.5018959045,0.0046600008,12:50:9,23/3/2016,0,0
$GPGGA,125010.000,5130.1137,N,00000.2797,E,1,05,2.88,100.9,M,47.0,M,,*6F,51.5018959045,0.0046616001,12:50:10,23/3/2016,0,0
$GPRMC,125010.000,A,5130.1137,N,00000.2797,E,0.40,127.03,230316,,,A*67,51.5018959045,0.0046616001,12:50:10,23/3/2016,0,0
$GPGGA,125011.000,5130.1136,N,00000.2799,E,1,05,2.88,100.9,M,47.0,M,,*61,51.5018959045,0.0046650004,12:50:11,23/3/2016,0,0
$GPRMC,125011.000,A,5130.1136,N,00000.2799,E,0.42,92.08,230316,,,A*5F,51.5018959045,0.0046650004,12:50:11,23/3/2016,0,0
$GPGGA,125012.000,5130.1136,N,00000.2800,E,1,05,2.88,100.9,M,47.0,M,,*6D,51.5018959045,0.0046665997,12:50:12,23/3/2016,0,0
$GPRMC,125012.000,A,5130.1136,N,00000.2800,E,0.30,122.08,230316,,,A*6C,51.5018959045,0.0046665997,12:50:12,23/3/2016,0,0
$GPGGA,125013.000,5130.1136,N,00000.2802,E,1,05,2.89,100.8,M,47.0,M,,*6E,51.5018959045,0.0046700000,12:50:13,23/3/2016,0,0
$GPRMC,125013.000,A,5130.1136,N,00000.2802,E,0.22,75.18,230316,,,A*5E,51.5018959045,0.0046700000,12:50:13,23/3/2016,0,0
$GPGGA,125014.000,5130.1136,N,00000.2803,E,1,05,2.88,100.8,M,47.0,M,,*69,51.5018959045,0.0046716003,12:50:14,23/3/2016,0,0
$GPRMC,125014.000,A,5130.1136,N,00000.2803,E,0.24,86.92,230316,,,A*50,51.5018959045,0.0046716003,12:50:14,23/3/2016,0,0
$GPGGA,125015.000,5130.1136,N,00000.2804,E,1,05,2.89,100.8,M,47.0,M,,*6E,51.5018959045,0.0046733002,12:50:15,23/3/2016,0,0
$GPRMC,125015.000,A,5130.1136,N,00000.2804,E,0.31,25.40,230316,,,A*54,51.5018959045,0.0046733002,12:50:15,23/3/2016,0,0
$GPGGA,125016.000,5130.1137,N,00000.2804,E,1,05,2.89,100.8,M,47.0,M,,*6C,51.5018959045,0.0046733002,12:50:16,23/3/2016,0,0
$GPRMC,125016.000,A,5130.1137,N,00000.2804,E,0.44,47.39,230316,,,A*5E,51.5018959045,0.0046733002,12:50:16,23/3/2016,0,0
$GPGGA,125017.000,5130.1137,N,00000.2806,E,1,05,2.88,100.9,M,47.0,M,,*6F,51.5018959045,0.0046766004,12:50:17,23/3/2016,0,0
$GPRMC,125017.000,A,5130.1137,N,00000.2806,E,0.23,66.32,230316,,,A*54,51.5018959045,0.0046766004,12:50:17,23/3/2016,0,0
$GPGGA,125018.000,5130.1138,N,00000.2807,E,1,05,2.88,100.8,M,47.0,M,,*6F,51.5018959045,0.0046782999,12:50:18,23/3/2016,0,0
$GPRMC,125018.000,A,5130.1138,N,00000.2807,E,0.18,91.06,230316,,,A*52,51.5018959045,0.0046782999,12:50:18,23/3/2016,0,0
$GPGGA,125019.000,5130.1138,N,00000.2807,E,1,05,2.88,100.8,M,47.0,M,,*6E,51.5018959045,0.0046782999,12:50:19,23/3/2016,0,0
$GPRMC,125019.000,A,5130.1138,N,00000.2807,E,0.17,335.82,230316,,,A*6D,51.5018959045,0.0046782999,12:50:19,23/3/2016,0,0
$GPGGA,125020.000,5130.1138,N,00000.2807,E,1,05,2.88,100.8,M,47.0,M,,*64,51.5018959045,0.0046782999,12:50:20,23/3/2016,0,0
$GPRMC,125020.000,A,5130.1138,N,00000.2807,E,0.34,11.30,230316,,,A*5A,51.5018959045,0.0046782999,12:50:20,23/3/2016,0,0
$GPGGA,125021.000,5130.1139,N,00000.2807,E,1,05,3.26,100.8,M,47.0,M,,*61,51.5018959045,0.0046782999,12:50:21,23/3/2016,0,0
$GPRMC,125021.000,A,5130.1139,N,00000.2807,E,0.15,22.28,230316,,,A*50,51.5018959045,0.0046782999,12:50:21,23/3/2016,0,0
$GPGGA,125022.000,5130.1139,N,00000.2808,E,1,05,2.88,100.8,M,47.0,M,,*68,51.5018959045,0.0046800003,12:50:22,23/3/2016,0,0
$GPRMC,125022.000,A,5130.1139,N,00000.2808,E,0.34,23.91,230316,,,A*5C,51.5018959045,0.0046800003,12:50:22,23/3/2016,0,0
$GPGGA,125023.000,5130.1140,N,00000.2808,E,1,05,2.88,100.8,M,47.0,M,,*67,51.5018959045,0.0046800003,12:50:23,23/3/2016,0,0
$GPRMC,125023.000,A,5130.1140,N,00000.2808,E,0.43,26.21,230316,,,A*5D,51.5018959045,0.0046800003,12:50:23,23/3/2016,0,0
$GPGGA,125024.000,5130.1141,N,00000.2809,E,1,05,2.88,100.8,M,47.0,M,,*60,51.5019035339,0.0046816005,12:50:24,23/3/2016,0,0
$GPRMC,125024.000,A,5130.1141,N,00000.2809,E,0.26,29.44,230316,,,A*55,51.5019035339,0.0046816005,12:50:24,23/3/2016,0,0
$GPGGA,125025.000,5130.1142,N,00000.2809,E,1,05,2.88,100.8,M,47.0,M,,*62,51.5019035339,0.0046816005,12:50:25,23/3/2016,0,0
$GPRMC,125025.000,A,5130.1142,N,00000.2809,E,0.19,19.21,230316,,,A*5B,51.5019035339,0.0046816005,12:50:25,23/3/2016,0,0
$GPGGA,125026.000,5130.1142,N,00000.2810,E,1,05,2.88,100.8,M,47.0,M,,*69,51.5019035339,0.0046833004,12:50:26,23/3/2016,0,0
$GPRMC,125026.000,A,5130.1142,N,00000.2810,E,0.22,42.10,230316,,,A*54,51.5019035339,0.0046833004,12:50:26,23/3/2016,0,0
$GPGGA,125027.000,5130.1143,N,00000.2811,E,1,06,1.32,100.8,M,47.0,M,,*69,51.5019035339,0.0046849999,12:50:27,23/3/2016,0,0
$GPRMC,125027.000,A,5130.1143,N,00000.2811,E,0.11,143.33,230316,,,A*64,51.5019035339,0.0046849999,12:50:27,23/3/2016,0,0
$GPGGA,125028.000,5130.1143,N,00000.2819,E,1,06,1.32,100.1,M,47.0,M,,*67,51.5019035339,0.0046983003,12:50:28,23/3/2016,0,0
$GPRMC,125028.000,A,5130.1143,N,00000.2819,E,0.22,149.39,230316,,,A*63,51.5019035339,0.0046983003,12:50:28,23/3/2016,0,0
$GPGGA,125029.000,5130.1143,N,00000.2820,E,1,06,1.32,100.0,M,47.0,M,,*6D,51.5019035339,0.0046999998,12:50:29,23/3/2016,0,0
$GPRMC,125029.000,A,5130.1143,N,00000.2820,E,0.29,145.82,230316,,,A*6F,51.5019035339,0.0046999998,12:50:29,23/3/2016,0,0
$GPGGA,125030.000,5130.1142,N,00000.2821,E,1,06,1.32,100.0,M,47.0,M,,*65,51.5019035339,0.0047015995,12:50:30,23/3/2016,0,0
$GPRMC,125030.000,A,5130.1142,N,00000.2821,E,0.08,350.44,230316,,,A*68,51.5019035339,0.0047015995,12:50:30,23/3/2016,0,0
$GPGGA,125031.000,5130.1142,N,00000.2821,E,1,06,1.54,100.0,M,47.0,M,,*64,51.5019035339,0.0047015995,12:50:31,23/3/2016,0,0
$GPRMC,125031.000,A,5130.1142,N,00000.2821,E,0.13,67.61,230316,,,A*53,51.5019035339,0.0047015995,12:50:31,23/3/2016,0,0
$GPGGA,125032.000,5130.1143,N,00000.2822,E,1,06,1.32,100.0,M,47.0,M,,*65,51.5019035339,0.0047032999,12:50:32,23/3/2016,0,0
$GPRMC,125032.000,A,5130.1143,N,00000.2822,E,0.08,172.16,230316,,,A*6D,51.5019035339,0.0047032999,12:50:32,23/3/2016,0,0
$GPGGA,125033.000,5130.1142,N,00000.2822,E,1,06,1.32,100.0,M,47.0,M,,*65,51.5019035339,0.0047032999,12:50:33,23/3/2016,0,0
$GPRMC,125033.000,A,5130.1142,N,00000.2822,E,0.28,176.92,230316,,,A*67,51.5019035339,0.0047032999,12:50:33,23/3/2016,0,0
$GPGGA,125034.000,5130.1142,N,00000.2822,E,1,06,1.32,99.9,M,47.0,M,,*5A,51.5019035339,0.0047032999,12:50:34,23/3/2016,0,0
$GPRMC,125034.000,A,5130.1142,N,00000.2822,E,0.22,161.01,230316,,,A*66,51.5019035339,0.0047032999,12:50:34,23/3/2016,0,0
$GPGGA,125035.000,5130.1141,N,00000.2823,E,1,06,1.32,99.9,M,47.0,M,,*59,51.5019035339,0.0047049999,12:50:35,23/3/2016,0,0
$GPRMC,125035.000,A,5130.1141,N,00000.2823,E,0.49,134.45,230316,,,A*68,51.5019035339,0.0047049999,12:50:35,23/3/2016,0,0
$GPGGA,125036.000,5130.1140,N,00000.2824,E,1,06,1.32,99.9,M,47.0,M,,*5C,51.5018959045,0.0047066001,12:50:36,23/3/2016,0,0
$GPRMC,125036.000,A,5130.1140,N,00000.2824,E,0.43,127.24,230316,,,A*62,51.5018959045,0.0047066001,12:50:36,23/3/2016,0,0
$GPGGA,125037.000,5130.1139,N,00000.2826,E,1,06,1.32,99.9,M,47.0,M,,*51,51.5018959045,0.0047100005,12:50:37,23/3/2016,0,0
$GPRMC,125037.000,A,5130.1139,N,00000.2826,E,0.44,120.59,230316,,,A*65,51.5018959045,0.0047100005,12:50:37,23/3/2016,0,0
$GPGGA,125038.000,5130.1139,N,00000.2827,E,1,06,1.32,99.9,M,47.0,M,,*5F,51.5018959045,0.0047115998,12:50:38,23/3/2016,0,0
$GPRMC,125038.000,A,5130.1139,N,00000.2827,E,0.26,116.67,230316,,,A*67,51.5018959045,0.0047115998,12:50:38,23/3/2016,0,0
$GPGGA,125039.000,5130.1138,N,00000.2828,E,1,06,1.32,99.9,M,47.0,M,,*50,51.5018959045,0.0047133002,12:50:39,23/3/2016,0,0
$GPRMC,125039.000,A,5130.1138,N,00000.2828,E,0.12,146.50,230316,,,A*6E,51.5018959045,0.0047133002,12:50:39,23/3/2016,0,0
$GPGGA,125040.000,5130.1138,N,00000.2829,E,1,06,1.32,99.9,M,47.0,M,,*5F,51.5018959045,0.0047150001,12:50:40,23/3/2016,0,0
$GPRMC,125040.000,A,5130.1138,N,00000.2829,E,0.12,30.91,230316,,,A*5C,51.5018959045,0.0047150001,12:50:40,23/3/2016,0,0
$GPGGA,125041.000,5130.1138,N,00000.2829,E,1,06,1.32,99.9,M,47.0,M,,*5E,51.5018959045,0.0047150001,12:50:41,23/3/2016,0,0
$GPRMC,125041.000,A,5130.1138,N,00000.2829,E,0.22,38.26,230316,,,A*5A,51.5018959045,0.0047150001,12:50:41,23/3/2016,0,0
$GPGGA,125042.000,5130.1139,N,00000.2830,E,1,06,1.32,99.9,M,47.0,M,,*54,51.5018959045,0.0047165994,12:50:42,23/3/2016,0,0
$GPRMC,125042.000,A,5130.1139,N,00000.2830,E,0.35,29.25,230316,,,A*55,51.5018959045,0.0047165994,12:50:42,23/3/2016,0,0
$GPGGA,125043.000,5130.1139,N,00000.2831,E,1,06,1.32,99.8,M,47.0,M,,*55,51.5018959045,0.0047183003,12:50:43,23/3/2016,0,0
$GPRMC,125043.000,A,5130.1139,N,00000.2831,E,0.21,61.84,230316,,,A*57,51.5018959045,0.0047183003,12:50:43,23/3/2016,0,0
$GPGGA,125044.000,5130.1139,N,00000.2831,E,1,06,1.32,99.8,M,47.0,M,,*52,51.5018959045,0.0047183003,12:50:44,23/3/2016,0,0
$GPRMC,125044.000,A,5130.1139,N,00000.2831,E,0.14,306.38,230316,,,A*63,51.5018959045,0.0047183003,12:50:44,23/3/2016,0,0
$GPGGA,125045.000,5130.1139,N,00000.2831,E,1,06,1.32,99.8,M,47.0,M,,*53,51.5018959045,0.0047183003,12:50:45,23/3/2016,0,0
$GPRMC,125045.000,A,5130.1139,N,00000.2831,E,0.18,281.44,230316,,,A*6B,51.5018959045,0.0047183003,12:50:45,23/3/2016,0,0
$GPGGA,125046.000,5130.1139,N,00000.2830,E,1,06,1.32,99.8,M,47.0,M,,*51,51.5018959045,0.0047165994,12:50:46,23/3/2016,0,0
$GPRMC,125046.000,A,5130.1139,N,00000.2830,E,0.13,113.72,230316,,,A*6F,51.5018959045,0.0047165994,12:50:46,23/3/2016,0,0
$GPGGA,125047.000,5130.1139,N,00000.2831,E,1,06,1.32,99.8,M,47.0,M,,*51,51.5018959045,0.0047183003,12:50:47,23/3/2016,0,0
$GPRMC,125047.000,A,5130.1139,N,00000.2831,E,0.09,347.22,230316,,,A*62,51.5018959045,0.0047183003,12:50:47,23/3/2016,0,0
$GPGGA,125048.000,5130.1139,N,00000.2831,E,1,06,1.53,99.8,M,47.0,M,,*59,51.5018959045,0.0047183003,12:50:48,23/3/2016,0,0
$GPRMC,125048.000,A,5130.1139,N,00000.2831,E,0.18,91.65,230316,,,A*56,51.5018959045,0.0047183003,12:50:48,23/3/2016,0,0
$GPGGA,125049.000,5130.1139,N,00000.2832,E,1,06,1.32,99.7,M,47.0,M,,*53,51.5018959045,0.0047200002,12:50:49,23/3/2016,0,0
$GPRMC,125049.000,A,5130.1139,N,00000.2832,E,0.30,135.88,230316,,,A*62,51.5018959045,0.0047200002,12:50:49,23/3/2016,0,0
$GPGGA,125050.000,5130.1138,N,00000.2833,E,1,05,1.44,99.7,M,47.0,M,,*59,51.5018959045,0.0047216000,12:50:50,23/3/2016,0,0
$GPRMC,125050.000,A,5130.1138,N,00000.2833,E,0.20,140.00,230316,,,A*69,51.5018959045,0.0047216000,12:50:50,23/3/2016,0,0
$GPGGA,125051.000,5130.1138,N,00000.2833,E,1,06,1.32,99.7,M,47.0,M,,*5A,51.5018959045,0.0047216000,12:50:51,23/3/2016,0,0
$GPRMC,125051.000,A,5130.1138,N,00000.2833,E,0.38,136.92,230316,,,A*6B,51.5018959045,0.0047216000,12:50:51,23/3/2016,0,0
$GPGGA,125052.000,5130.1137,N,00000.2835,E,1,06,1.32,99.7,M,47.0,M,,*50,51.5018959045,0.0047250003,12:50:52,23/3/2016,0,0
$GPRMC,125052.000,A,5130.1137,N,00000.2835,E,0.33,129.04,230316,,,A*6B,51.5018959045,0.0047250003,12:50:52,23/3/2016,0,0
$GPGGA,125053.000,5130.1136,N,00000.2836,E,1,06,1.32,99.7,M,47.0,M,,*53,51.5018959045,0.0047266001,12:50:53,23/3/2016,0,0
$GPRMC,125053.000,A,5130.1136,N,00000.2836,E,0.22,150.53,230316,,,A*64,51.5018959045,0.0047266001,12:50:53,23/3/2016,0,0
$GPGGA,125054.000,5130.1136,N,00000.2836,E,1,06,1.32,99.6,M,47.0,M,,*55,51.5018959045,0.0047266001,12:50:54,23/3/2016,0,0
$GPRMC,125054.000,A,5130.1136,N,00000.2836,E,0.17,168.62,230316,,,A*6C,51.5018959045,0.0047266001,12:50:54,23/3/2016,0,0
$GPGGA,125055.000,5130.1135,N,00000.2836,E,1,06,1.32,99.6,M,47.0,M,,*57,51.5018882751,0.0047266001,12:50:55,23/3/2016,0,0
$GPRMC,125055.000,A,5130.1135,N,00000.2836,E,0.26,133.50,230316,,,A*63,51.5018882751,0.0047266001,12:50:55,23/3/2016,0,0
$GPGGA,125056.000,5130.1135,N,00000.2837,E,1,06,1.32,99.6,M,47.0,M,,*55,51.5018882751,0.0047283005,12:50:56,23/3/2016,0,0
$GPRMC,125056.000,A,5130.1135,N,00000.2837,E,0.32,90.02,230316,,,A*5B,51.5018882751,0.0047283005,12:50:56,23/3/2016,0,0
$GPGGA,125057.000,5130.1135,N,00000.2839,E,1,06,1.32,99.6,M,47.0,M,,*5A,51.5018882751,0.0047315998,12:50:57,23/3/2016,0,0
$GPRMC,125057.000,A,5130.1135,N,00000.2839,E,0.31,97.49,230316,,,A*5F,51.5018882751,0.0047315998,12:50:57,23/3/2016,0,0
$GPGGA,125058.000,5130.1134,N,00000.2840,E,1,06,1.32,99.6,M,47.0,M,,*5A,51.5018882751,0.0047333002,12:50:58,23/3/2016,0,0
$GPRMC,125058.000,A,5130.1134,N,00000.2840,E,0.55,139.98,230316,,,A*64,51.5018882751,0.0047333002,12:50:58,23/3/2016,0,0
$GPGGA,125059.000,5130.1133,N,00000.2842,E,1,06,1.32,99.6,M,47.0,M,,*5E,51.5018882751,0.0047366003,12:50:59,23/3/2016,0,0
$GPRMC,125059.000,A,5130.1133,N,00000.2842,E,0.34,154.88,230316,,,A*6D,51.5018882751,0.0047366003,12:50:59,23/3/2016,0,0
$GPGGA,125100.000,5130.1132,N,00000.2842,E,1,06,1.32,99.6,M,47.0,M,,*52,51.5018882751,0.0047366003,12:51:0,23/3/2016,0,0
$GPRMC,125100.000,A,5130.1132,N,00000.2842,E,0.28,208.53,230316,,,A*60,51.5018882751,0.0047366003,12:51:0,23/3/2016,0,0
$GPGGA,125101.000,5130.1132,N,00000.2842,E,1,06,1.32,99.6,M,47.0,M,,*53,51.5018882751,0.0047366003,12:51:1,23/3/2016,0,0
$GPRMC,125101.000,A,5130.1132,N,00000.2842,E,0.59,205.84,230316,,,A*60,51.5018882751,0.0047366003,12:51:1,23/3/2016,0,0
$GPGGA,125102.000,5130.1129,N,00000.2838,E,1,06,1.32,99.3,M,47.0,M,,*52,51.5018806457,0.0047300004,12:51:2,23/3/2016,0,0
$GPRMC,125102.000,A,5130.1129,N,00000.2838,E,0.56,221.45,230316,,,A*60,51.5018806457,0.0047300004,12:51:2,23/3/2016,0,0
$GPGGA,125103.000,5130.1127,N,00000.2839,E,1,06,1.32,99.2,M,47.0,M,,*5D,51.5018806457,0.0047315998,12:51:3,23/3/2016,0,0
$GPRMC,125103.000,A,5130.1127,N,00000.2839,E,0.54,256.93,230316,,,A*67,51.5018806457,0.0047315998,12:51:3,23/3/2016,0,0
$GPGGA,125104.000,5130.1124,N,00000.2831,E,1,06,1.32,98.9,M,47.0,M,,*5B,51.5018730163,0.0047183003,12:51:4,23/3/2016,0,0
$GPRMC,125104.000,A,5130.1124,N,00000.2831,E,0.81,242.60,230316,,,A*6A,51.5018730163,0.0047183003,12:51:4,23/3/2016,0,0
$GPGGA,125105.000,5130.1108,N,00000.2829,E,1,06,1.32,97.1,M,47.0,M,,*5A,51.5018463134,0.0047150001,12:51:5,23/3/2016,0,0
$GPRMC,125105.000,A,5130.1108,N,00000.2829,E,0.90,247.36,230316,,,A*6A,51.5018463134,0.0047150001,12:51:5,23/3/2016,0,0
$GPGGA,125106.000,5130.1102,N,00000.2825,E,1,06,1.32,96.3,M,47.0,M,,*5C,51.5018386840,0.0047082996,12:51:6,23/3/2016,0,0
$GPRMC,125106.000,A,5130.1102,N,00000.2825,E,0.89,254.10,230316,,,A*61,51.5018386840,0.0047082996,12:51:6,23/3/2016,0,0
$GPGGA,125107.000,5130.1093,N,00000.2819,E,1,06,1.32,95.5,M,47.0,M,,*5E,51.5018234252,0.0046983003,12:51:7,23/3/2016,0,0
$GPRMC,125107.000,A,5130.1093,N,00000.2819,E,1.09,240.32,230316,,,A*6A,51.5018234252,0.0046983003,12:51:7,23/3/2016,0,0
$GPGGA,125108.000,5130.1085,N,00000.2819,E,1,06,1.32,94.6,M,47.0,M,,*54,51.5018081665,0.0046983003,12:51:8,23/3/2016,0,0
$GPRMC,125108.000,A,5130.1085,N,00000.2819,E,0.91,237.74,230316,,,A*60,51.5018081665,0.0046983003,12:51:8,23/3/2016,0,0
$GPGGA,125109.000,5130.1077,N,00000.2815,E,1,06,1.32,94.0,M,47.0,M,,*52,51.5017967224,0.0046916003,12:51:9,23/3/2016,0,0
$GPRMC,125109.000,A,5130.1077,N,00000.2815,E,1.14,234.38,230316,,,A*67,51.5017967224,0.0046916003,12:51:9,23/3/2016,0,0
$GPGGA,125110.000,5130.1065,N,00000.2809,E,1,06,1.32,93.2,M,47.0,M,,*51,51.5017738342,0.0046816005,12:51:10,23/3/2016,0,0
$GPRMC,125110.000,A,5130.1065,N,00000.2809,E,1.24,234.54,230316,,,A*68,51.5017738342,0.0046816005,12:51:10,23/3/2016,0,0
$GPGGA,125111.000,5130.1060,N,00000.2803,E,1,06,1.32,92.3,M,47.0,M,,*5F,51.5017662048,0.0046716003,12:51:11,23/3/2016,0,0
$GPRMC,125111.000,A,5130.1060,N,00000.2803,E,1.27,232.99,230316,,,A*62,51.5017662048,0.0046716003,12:51:11,23/3/2016,0,0
$GPGGA,125112.000,5130.1054,N,00000.2794,E,1,06,1.32,91.4,M,47.0,M,,*5E,51.5017585754,0.0046565999,12:51:12,23/3/2016,0,0
$GPRMC,125112.000,A,5130.1054,N,00000.2794,E,1.51,236.75,230316,,,A*60,51.5017585754,0.0046565999,12:51:12,23/3/2016,0,0
$GPGGA,125113.000,5130.1051,N,00000.2797,E,1,06,1.32,90.7,M,47.0,M,,*5B,51.5017509460,0.0046616001,12:51:13,23/3/2016,0,0
$GPRMC,125113.000,A,5130.1051,N,00000.2797,E,1.65,231.00,230316,,,A*65,51.5017509460,0.0046616001,12:51:13,23/3/2016,0,0
$GPGGA,125114.000,5130.1050,N,00000.2796,E,1,06,1.32,90.2,M,47.0,M,,*59,51.5017509460,0.0046600008,12:51:14,23/3/2016,0,0
$GPRMC,125114.000,A,5130.1050,N,00000.2796,E,1.70,246.73,230316,,,A*62,51.5017509460,0.0046600008,12:51:14,23/3/2016,0,0
$GPGGA,125115.000,5130.1046,N,00000.2802,E,1,06,1.32,89.6,M,47.0,M,,*51,51.5017433166,0.0046700000,12:51:15,23/3/2016,0,0
$GPRMC,125115.000,A,5130.1046,N,00000.2802,E,1.61,235.50,230316,,,A*63,51.5017433166,0.0046700000,12:51:15,23/3/2016,0,0
$GPGGA,125116.000,5130.1046,N,00000.2842,E,1,06,1.32,87.9,M,47.0,M,,*57,51.5017433166,0.0047366003,12:51:16,23/3/2016,0,0
$GPRMC,125116.000,A,5130.1046,N,00000.2842,E,1.22,225.11,230316,,,A*67,51.5017433166,0.0047366003,12:51:16,23/3/2016,0,0
$GPGGA,125117.000,5130.1043,N,00000.2860,E,1,06,1.32,87.0,M,47.0,M,,*5A,51.5017433166,0.0047666001,12:51:17,23/3/2016,0,0
$GPRMC,125117.000,A,5130.1043,N,00000.2860,E,1.32,215.00,230316,,,A*61,51.5017433166,0.0047666001,12:51:17,23/3/2016,0,0
$GPGGA,125118.000,5130.1036,N,00000.2860,E,1,06,1.32,86.6,M,47.0,M,,*50,51.5017242431,0.0047666001,12:51:18,23/3/2016,0,0
$GPRMC,125118.000,A,5130.1036,N,00000.2860,E,1.67,214.73,230316,,,A*69,51.5017242431,0.0047666001,12:51:18,23/3/2016,0,0
$GPGGA,125119.000,5130.1036,N,00000.2879,E,1,06,1.32,85.3,M,47.0,M,,*5F,51.5017242431,0.0047983002,12:51:19,23/3/2016,0,0
$GPRMC,125119.000,A,5130.1036,N,00000.2879,E,1.58,226.50,230316,,,A*6C,51.5017242431,0.0047983002,12:51:19,23/3/2016,0,0
$GPGGA,125120.000,5130.1031,N,00000.2878,E,1,06,1.32,84.6,M,47.0,M,,*57,51.5017166137,0.0047966003,12:51:20,23/3/2016,0,0
$GPRMC,125120.000,A,5130.1031,N,00000.2878,E,1.62,228.18,230316,,,A*6B,51.5017166137,0.0047966003,12:51:20,23/3/2016,0,0
$GPGGA,125121.000,5130.1025,N,00000.2879,E,1,06,1.32,84.3,M,47.0,M,,*57,51.5017089843,0.0047983002,12:51:21,23/3/2016,0,0
$GPRMC,125121.000,A,5130.1025,N,00000.2879,E,1.72,215.76,230316,,,A*69,51.5017089843,0.0047983002,12:51:21,23/3/2016,0,0
$GPGGA,125122.000,5130.1021,N,00000.2892,E,1,06,1.32,83.2,M,47.0,M,,*53,51.5017013549,0.0048199996,12:51:22,23/3/2016,0,0
$GPRMC,125122.000,A,5130.1021,N,00000.2892,E,2.19,223.46,230316,,,A*63,51.5017013549,0.0048199996,12:51:22,23/3/2016,0,0
$GPGGA,125123.000,5130.1015,N,00000.2898,E,1,06,1.32,82.7,M,47.0,M,,*5B,51.5016937255,0.0048300004,12:51:23,23/3/2016,0,0
$GPRMC,125123.000,A,5130.1015,N,00000.2898,E,2.08,217.17,230316,,,A*6C,51.5016937255,0.0048300004,12:51:23,23/3/2016,0,0
$GPGGA,125124.000,5130.1013,N,00000.2911,E,1,06,1.32,81.7,M,47.0,M,,*59,51.5016860961,0.0048516001,12:51:24,23/3/2016,0,0
$GPRMC,125124.000,A,5130.1013,N,00000.2911,E,1.61,215.46,230316,,,A*67,51.5016860961,0.0048516001,12:51:24,23/3/2016,0,0
$GPGGA,125125.000,5130.1008,N,00000.2928,E,1,06,1.32,81.3,M,47.0,M,,*5C,51.5016746520,0.0048800001,12:51:25,23/3/2016,0,0
$GPRMC,125125.000,A,5130.1008,N,00000.2928,E,1.28,204.61,230316,,,A*6E,51.5016746520,0.0048800001,12:51:25,23/3/2016,0,0
$GPGGA,125126.000,5130.1008,N,00000.2941,E,1,06,1.32,80.4,M,47.0,M,,*56,51.5016746520,0.0049016003,12:51:26,23/3/2016,0,0
$GPRMC,125126.000,A,5130.1008,N,00000.2941,E,1.46,228.46,230316,,,A*61,51.5016746520,0.0049016003,12:51:26,23/3/2016,0,0
$GPGGA,125127.000,5130.1005,N,00000.2949,E,1,06,1.32,79.6,M,47.0,M,,*56,51.5016746520,0.0049149994,12:51:27,23/3/2016,1,1
$GPRMC,125127.000,A,5130.1005,N,00000.2949,E,1.34,222.37,230316,,,A*6C,51.5016746520,0.0049149994,12:51:27,23/3/2016,0,1
$GPGGA,125128.000,5130.1005,N,00000.2946,E,1,06,1.32,79.3,M,47.0,M,,*53,51.5016746520,0.0049099998,12:51:28,23/3/2016,0,1
$GPRMC,125128.000,A,5130.1005,N,00000.2946,E,1.20,237.44,230316,,,A*69,51.5016746520,0.0049099998,12:51:28,23/3/2016,0,1
$GPGGA,125129.000,5130.0996,N,00000.2942,E,1,06,1.32,78.7,M,47.0,M,,*51,51.5016593933,0.0049033002,12:51:29,23/3/2016,0,1
$GPRMC,125129.000,A,5130.0996,N,00000.2942,E,2.12,220.92,230316,,,A*61,51.5016593933,0.0049033002,12:51:29,23/3/2016,0,1
$GPGGA,125130.000,5130.0994,N,00000.2944,E,1,06,1.32,78.1,M,47.0,M,,*5B,51.5016593933,0.0049066004,12:51:30,23/3/2016,0,1
$GPRMC,125130.000,A,5130.0994,N,00000.2944,E,1.94,228.14,230316,,,A*66,51.5016593933,0.0049066004,12:51:30,23/3/2016,0,1
$GPGGA,125131.000,5130.0993,N,00000.2940,E,1,06,1.32,77.5,M,47.0,M,,*52,51.5016517639,0.0049000000,12:51:31,23/3/2016,0,1
$GPRMC,125131.000,A,5130.0993,N,00000.2940,E,1.61,236.24,230316,,,A*62,51.5016517639,0.0049000000,12:51:31,23/3/2016,0,1
$GPGGA,125132.000,5130.0992,N,00000.2939,E,1,06,1.32,77.0,M,47.0,M,,*5B,51.5016517639,0.0048983006,12:51:32,23/3/2016,0,1
$GPRMC,125132.000,A,5130.0992,N,00000.2939,E,1.30,239.50,230316,,,A*66,51.5016517639,0.0048983006,12:51:32,23/3/2016,0,1
$GPGGA,125133.000,5130.0989,N,00000.2932,E,1,06,1.32,76.5,M,47.0,M,,*5F,51.5016517639,0.0048866004,12:51:33,23/3/2016,0,1
$GPRMC,125133.000,A,5130.0989,N,00000.2932,E,1.57,227.78,230316,,,A*62,51.5016517639,0.0048866004,12:51:33,23/3/2016,0,1
$GPGGA,125134.000,5130.0987,N,00000.2924,E,1,06,1.32,76.1,M,47.0,M,,*55,51.5016441345,0.0048733000,12:51:34,23/3/2016,0,1
$GPRMC,125134.000,A,5130.0987,N,00000.2924,E,1.67,217.18,230316,,,A*6A,51.5016441345,0.0048733000,12:51:34,23/3/2016,0,1
$GPGGA,125135.000,5130.0982,N,00000.2921,E,1,06,1.32,75.6,M,47.0,M,,*50,51.5016365051,0.0048683004,12:51:35,23/3/2016,0,1
$GPRMC,125135.000,A,5130.0982,N,00000.2921,E,1.62,215.96,230316,,,A*6A,51.5016365051,0.0048683004,12:51:35,23/3/2016,0,1
$GPGGA,125136.000,5130.0976,N,00000.2918,E,1,06,1.32,75.2,M,47.0,M,,*56,51.5016288757,0.0048632998,12:51:36,23/3/2016,0,1
$GPRMC,125136.000,A,5130.0976,N,00000.2918,E,1.69,211.65,230316,,,A*6B,51.5016288757,0.0048632998,12:51:36,23/3/2016,0,1
$GPGGA,125137.000,5130.0970,N,00000.2913,E,1,06,1.32,74.6,M,47.0,M,,*5F,51.5016212463,0.0048549995,12:51:37,23/3/2016,0,1
$GPRMC,125137.000,A,5130.0970,N,00000.2913,E,1.64,206.57,230316,,,A*6D,51.5016212463,0.0048549995,12:51:37,23/3/2016,0,1
$GPGGA,125138.000,5130.0965,N,00000.2915,E,1,06,1.32,74.0,M,47.0,M,,*54,51.5016098022,0.0048583002,12:51:38,23/3/2016,0,1
$GPRMC,125138.000,A,5130.0965,N,00000.2915,E,1.71,207.31,230316,,,A*65,51.5016098022,0.0048583002,12:51:38,23/3/2016,0,1
$GPGGA,125139.000,5130.0961,N,00000.2920,E,1,06,1.32,73.5,M,47.0,M,,*55,51.5016021728,0.0048666000,12:51:39,23/3/2016,0,1
$GPRMC,125139.000,A,5130.0961,N,00000.2920,E,1.64,201.59,230316,,,A*6A,51.5016021728,0.0048666000,12:51:39,23/3/2016,0,1
$GPGGA,125140.000,5130.0957,N,00000.2919,E,1,06,1.32,72.9,M,47.0,M,,*59,51.5015945434,0.0048649997,12:51:40,23/3/2016,0,1
$GPRMC,125140.000,A,5130.0957,N,00000.2919,E,1.56,204.71,230316,,,A*65,51.5015945434,0.0048649997,12:51:40,23/3/2016,0,1
$GPGGA,125141.000,5130.0952,N,00000.2923,E,1,06,1.32,72.5,M,47.0,M,,*58,51.5015869140,0.0048716001,12:51:41,23/3/2016,0,1
$GPRMC,125141.000,A,5130.0952,N,00000.2923,E,1.81,208.57,230316,,,A*6A,51.5015869140,0.0048716001,12:51:41,23/3/2016,0,1
$GPGGA,125142.000,5130.0948,N,00000.2924,E,1,06,1.32,72.0,M,47.0,M,,*52,51.5015792846,0.0048733000,12:51:42,23/3/2016,0,1
$GPRMC,125142.000,A,5130.0948,N,00000.2924,E,1.99,212.43,230316,,,A*62,51.5015792846,0.0048733000,12:51:42,23/3/2016,0,1
$GPGGA,125143.000,5130.0945,N,00000.2923,E,1,06,1.32,71.6,M,47.0,M,,*5C,51.5015792846,0.0048716001,12:51:43,23/3/2016,0,1
$GPRMC,125143.000,A,5130.0945,N,00000.2923,E,1.86,217.98,230316,,,A*64,51.5015792846,0.0048716001,12:51:43,23/3/2016,0,1
$GPGGA,125144.000,5130.0939,N,00000.2922,E,1,06,1.32,71.1,M,47.0,M,,*56,51.5015640258,0.0048699998,12:51:44,23/3/2016,0,1
$GPRMC,125144.000,A,5130.0939,N,00000.2922,E,1.76,206.07,230316,,,A*60,51.5015640258,0.0048699998,12:51:44,23/3/2016,0,1
$GPGGA,125145.000,5130.0935,N,00000.2922,E,1,06,1.32,70.5,M,47.0,M,,*5E,51.5015525817,0.0048699998,12:51:45,23/3/2016,0,1
$GPRMC,125145.000,A,5130.0935,N,00000.2922,E,1.73,203.03,230316,,,A*69,51.5015525817,0.0048699998,12:51:45,23/3/2016,0,1
$GPGGA,125146.000,5130.0934,N,00000.2921,E,1,06,1.32,70.0,M,47.0,M,,*5A,51.5015525817,0.0048683004,12:51:46,23/3/2016,0,1
$GPRMC,125146.000,A,5130.0934,N,00000.2921,E,1.42,212.72,230316,,,A*6C,51.5015525817,0.0048683004,12:51:46,23/3/2016,0,1
$GPGGA,125147.000,5130.0928,N,00000.2917,E,1,06,1.32,69.3,M,47.0,M,,*58,51.5015449523,0.0048616003,12:51:47,23/3/2016,0,1
$GPRMC,125147.000,A,5130.0928,N,00000.2917,E,1.50,214.06,230316,,,A*63,51.5015449523,0.0048616003,12:51:47,23/3/2016,0,1
$GPGGA,125148.000,5130.0923,N,00000.2913,E,1,06,1.32,68.7,M,47.0,M,,*5D,51.5015373229,0.0048549995,12:51:48,23/3/2016,0,1
$GPRMC,125148.000,A,5130.0923,N,00000.2913,E,1.47,208.28,230316,,,A*64,51.5015373229,0.0048549995,12:51:48,23/3/2016,0,1
$GPGGA,125149.000,5130.0914,N,00000.2914,E,1,06,1.32,67.9,M,47.0,M,,*5E,51.5015220642,0.0048566007,12:51:49,23/3/2016,0,1
$GPRMC,125149.000,A,5130.0914,N,00000.2914,E,1.54,201.37,230316,,,A*63,51.5015220642,0.0048566007,12:51:49,23/3/2016,0,1
$GPGGA,125150.000,5130.0908,N,00000.2910,E,1,06,1.32,67.3,M,47.0,M,,*55,51.5015144348,0.0048500003,12:51:50,23/3/2016,0,1
$GPRMC,125150.000,A,5130.0908,N,00000.2910,E,1.69,205.59,230316,,,A*60,51.5015144348,0.0048500003,12:51:50,23/3/2016,0,1
$GPGGA,125151.000,5130.0904,N,00000.2905,E,1,06,1.32,66.7,M,47.0,M,,*59,51.5015068054,0.0048416004,12:51:51,23/3/2016,0,1
$GPRMC,125151.000,A,5130.0904,N,00000.2905,E,1.47,203.30,230316,,,A*6C,51.5015068054,0.0048416004,12:51:51,23/3/2016,0,1
$GPGGA,125152.000,5130.0899,N,00000.2902,E,1,06,1.32,66.1,M,47.0,M,,*5E,51.5014991760,0.0048365998,12:51:52,23/3/2016,0,1
$GPRMC,125152.000,A,5130.0899,N,00000.2902,E,1.45,205.55,230316,,,A*6A,51.5014991760,0.0048365998,12:51:52,23/3/2016,0,1
$GPGGA,125153.000,5130.0887,N,00000.2901,E,1,06,1.32,65.3,M,47.0,M,,*52,51.5014801025,0.0048350005,12:51:53,23/3/2016,0,1
$GPRMC,125153.000,A,5130.0887,N,00000.2901,E,1.48,199.42,230316,,,A*6A,51.5014801025,0.0048350005,12:51:53,23/3/2016,0,1
$GPGGA,125154.000,5130.0881,N,00000.2896,E,1,06,1.32,64.7,M,47.0,M,,*59,51.5014648437,0.0048266000,12:51:54,23/3/2016,0,1
